routing/visibility/v301.txt

Satellite301-To-Satellite101
----------------------------
                  Access       Start Time (UTCG)           Stop Time (UTCG)       Duration (sec)
                  ------    -----------------------    -----------------------    --------------
                       1    8 Sep 2021 04:20:59.789    8 Sep 2021 04:28:54.196           474.408
                       2    8 Sep 2021 05:13:31.378    8 Sep 2021 05:21:25.786           474.407
                       3    8 Sep 2021 06:06:02.964    8 Sep 2021 06:13:57.374           474.410
                       4    8 Sep 2021 06:58:34.552    8 Sep 2021 07:06:28.962           474.411
                       5    8 Sep 2021 07:51:06.142    8 Sep 2021 07:59:00.547           474.405
                       6    8 Sep 2021 08:43:37.728    8 Sep 2021 08:51:32.140           474.411
                       7    8 Sep 2021 09:36:09.317    8 Sep 2021 09:44:03.728           474.411
                       8    8 Sep 2021 10:28:40.906    8 Sep 2021 10:36:35.315           474.409
                       9    8 Sep 2021 11:21:12.497    8 Sep 2021 11:29:06.904           474.407
                      10    8 Sep 2021 12:13:44.086    8 Sep 2021 12:21:38.493           474.407
                      11    8 Sep 2021 13:06:15.671    8 Sep 2021 13:14:10.082           474.411
                      12    8 Sep 2021 13:58:47.259    8 Sep 2021 14:06:41.670           474.411
                      13    8 Sep 2021 14:51:18.847    8 Sep 2021 14:59:13.255           474.408
                      14    8 Sep 2021 15:43:50.436    8 Sep 2021 15:51:44.847           474.411
                      15    8 Sep 2021 16:36:22.024    8 Sep 2021 16:44:16.435           474.411
                      16    8 Sep 2021 17:28:53.613    8 Sep 2021 17:36:48.022           474.408
                      17    8 Sep 2021 18:21:25.205    8 Sep 2021 18:29:19.611           474.406
                      18    8 Sep 2021 19:13:56.794    8 Sep 2021 19:21:51.200           474.406
                      19    8 Sep 2021 20:06:28.378    8 Sep 2021 20:14:22.785           474.407
                      20    8 Sep 2021 20:58:59.970    8 Sep 2021 21:06:54.374           474.404
                      21    8 Sep 2021 21:51:31.555    8 Sep 2021 21:59:25.965           474.410
                      22    8 Sep 2021 22:44:03.143    8 Sep 2021 22:51:57.554           474.411
                      23    8 Sep 2021 23:36:34.731    8 Sep 2021 23:44:29.142           474.411
                      24    9 Sep 2021 00:29:06.321    9 Sep 2021 00:37:00.729           474.408
                      25    9 Sep 2021 01:21:37.911    9 Sep 2021 01:29:32.319           474.408
                      26    9 Sep 2021 02:14:09.498    9 Sep 2021 02:22:03.907           474.410
                      27    9 Sep 2021 03:06:41.085    9 Sep 2021 03:14:35.494           474.410
                      28    9 Sep 2021 03:59:12.677    9 Sep 2021 04:00:00.000            47.323

Min Duration          28    9 Sep 2021 03:59:12.677    9 Sep 2021 04:00:00.000            47.323
Max Duration           6    8 Sep 2021 08:43:37.728    8 Sep 2021 08:51:32.140           474.411
Mean Duration                                                                            459.156
Total Duration                                                                         12856.360


Satellite301-To-Satellite102
----------------------------
                  Access       Start Time (UTCG)           Stop Time (UTCG)       Duration (sec)
                  ------    -----------------------    -----------------------    --------------
                       1    8 Sep 2021 04:04:48.693    8 Sep 2021 04:34:34.974          1786.281
                       2    8 Sep 2021 04:57:20.284    8 Sep 2021 05:27:06.563          1786.278
                       3    8 Sep 2021 05:49:51.869    8 Sep 2021 06:19:38.150          1786.281
                       4    8 Sep 2021 06:42:23.461    8 Sep 2021 07:12:09.739          1786.278
                       5    8 Sep 2021 07:34:55.046    8 Sep 2021 08:04:41.327          1786.281
                       6    8 Sep 2021 08:27:26.638    8 Sep 2021 08:57:12.916          1786.278
                       7    8 Sep 2021 09:19:58.223    8 Sep 2021 09:49:44.504          1786.281
                       8    8 Sep 2021 10:12:29.814    8 Sep 2021 10:42:16.093          1786.278
                       9    8 Sep 2021 11:05:01.400    8 Sep 2021 11:34:47.681          1786.281
                      10    8 Sep 2021 11:57:32.991    8 Sep 2021 12:27:19.270          1786.278
                      11    8 Sep 2021 12:50:04.576    8 Sep 2021 13:19:50.857          1786.281
                      12    8 Sep 2021 13:42:36.168    8 Sep 2021 14:12:22.446          1786.278
                      13    8 Sep 2021 14:35:07.753    8 Sep 2021 15:04:54.034          1786.281
                      14    8 Sep 2021 15:27:39.345    8 Sep 2021 15:57:25.623          1786.278
                      15    8 Sep 2021 16:20:10.930    8 Sep 2021 16:49:57.211          1786.281
                      16    8 Sep 2021 17:12:42.522    8 Sep 2021 17:42:28.800          1786.278
                      17    8 Sep 2021 18:05:14.107    8 Sep 2021 18:35:00.388          1786.281
                      18    8 Sep 2021 18:57:45.698    8 Sep 2021 19:27:31.977          1786.278
                      19    8 Sep 2021 19:50:17.284    8 Sep 2021 20:20:03.565          1786.281
                      20    8 Sep 2021 20:42:48.875    8 Sep 2021 21:12:35.154          1786.278
                      21    8 Sep 2021 21:35:20.460    8 Sep 2021 22:05:06.741          1786.281
                      22    8 Sep 2021 22:27:52.052    8 Sep 2021 22:57:38.330          1786.278
                      23    8 Sep 2021 23:20:23.637    8 Sep 2021 23:50:09.918          1786.281
                      24    9 Sep 2021 00:12:55.229    9 Sep 2021 00:42:41.507          1786.278
                      25    9 Sep 2021 01:05:26.814    9 Sep 2021 01:35:13.095          1786.281
                      26    9 Sep 2021 01:57:58.406    9 Sep 2021 02:27:44.684          1786.278
                      27    9 Sep 2021 02:50:29.991    9 Sep 2021 03:20:16.272          1786.281
                      28    9 Sep 2021 03:43:01.582    9 Sep 2021 04:00:00.000          1018.418

Min Duration          28    9 Sep 2021 03:43:01.582    9 Sep 2021 04:00:00.000          1018.418
Max Duration           1    8 Sep 2021 04:04:48.693    8 Sep 2021 04:34:34.974          1786.281
Mean Duration                                                                           1758.856
Total Duration                                                                         49247.971


Satellite301-To-Satellite103
----------------------------
                  Access       Start Time (UTCG)           Stop Time (UTCG)       Duration (sec)
                  ------    -----------------------    -----------------------    --------------
                       1    8 Sep 2021 04:00:00.000    8 Sep 2021 04:33:17.326          1997.326
                       2    8 Sep 2021 04:48:07.613    8 Sep 2021 05:25:48.914          2261.301
                       3    8 Sep 2021 05:40:39.201    8 Sep 2021 06:18:20.502          2261.301
                       4    8 Sep 2021 06:33:10.790    8 Sep 2021 07:10:52.091          2261.301
                       5    8 Sep 2021 07:25:42.378    8 Sep 2021 08:03:23.679          2261.301
                       6    8 Sep 2021 08:18:13.966    8 Sep 2021 08:55:55.268          2261.301
                       7    8 Sep 2021 09:10:45.555    8 Sep 2021 09:48:26.856          2261.301
                       8    8 Sep 2021 10:03:17.143    8 Sep 2021 10:40:58.444          2261.301
                       9    8 Sep 2021 10:55:48.732    8 Sep 2021 11:33:30.033          2261.301
                      10    8 Sep 2021 11:48:20.320    8 Sep 2021 12:26:01.621          2261.301
                      11    8 Sep 2021 12:40:51.908    8 Sep 2021 13:18:33.210          2261.301
                      12    8 Sep 2021 13:33:23.497    8 Sep 2021 14:11:04.798          2261.301
                      13    8 Sep 2021 14:25:55.085    8 Sep 2021 15:03:36.386          2261.301
                      14    8 Sep 2021 15:18:26.674    8 Sep 2021 15:56:07.975          2261.301
                      15    8 Sep 2021 16:10:58.262    8 Sep 2021 16:48:39.563          2261.301
                      16    8 Sep 2021 17:03:29.850    8 Sep 2021 17:41:11.152          2261.301
                      17    8 Sep 2021 17:56:01.439    8 Sep 2021 18:33:42.740          2261.301
                      18    8 Sep 2021 18:48:33.027    8 Sep 2021 19:26:14.328          2261.301
                      19    8 Sep 2021 19:41:04.616    8 Sep 2021 20:18:45.917          2261.301
                      20    8 Sep 2021 20:33:36.204    8 Sep 2021 21:11:17.505          2261.301
                      21    8 Sep 2021 21:26:07.792    8 Sep 2021 22:03:49.094          2261.301
                      22    8 Sep 2021 22:18:39.381    8 Sep 2021 22:56:20.682          2261.301
                      23    8 Sep 2021 23:11:10.969    8 Sep 2021 23:48:52.270          2261.301
                      24    9 Sep 2021 00:03:42.558    9 Sep 2021 00:41:23.859          2261.301
                      25    9 Sep 2021 00:56:14.146    9 Sep 2021 01:33:55.447          2261.301
                      26    9 Sep 2021 01:48:45.734    9 Sep 2021 02:26:27.036          2261.301
                      27    9 Sep 2021 02:41:17.323    9 Sep 2021 03:18:58.624          2261.301
                      28    9 Sep 2021 03:33:48.911    9 Sep 2021 04:00:00.000          1571.089

Min Duration          28    9 Sep 2021 03:33:48.911    9 Sep 2021 04:00:00.000          1571.089
Max Duration           2    8 Sep 2021 04:48:07.613    8 Sep 2021 05:25:48.914          2261.301
Mean Duration                                                                           2227.223
Total Duration                                                                         62362.248


Satellite301-To-Satellite104
----------------------------
                  Access       Start Time (UTCG)           Stop Time (UTCG)       Duration (sec)
                  ------    -----------------------    -----------------------    --------------
                       1    8 Sep 2021 04:00:00.000    8 Sep 2021 04:24:07.357          1447.357
                       2    8 Sep 2021 04:46:47.259    8 Sep 2021 05:16:38.946          1791.687
                       3    8 Sep 2021 05:39:18.852    8 Sep 2021 06:09:10.537          1791.686
                       4    8 Sep 2021 06:31:50.439    8 Sep 2021 07:01:42.126          1791.687
                       5    8 Sep 2021 07:24:22.027    8 Sep 2021 07:54:13.714          1791.687
                       6    8 Sep 2021 08:16:53.615    8 Sep 2021 08:46:45.302          1791.687
                       7    8 Sep 2021 09:09:25.203    8 Sep 2021 09:39:16.890          1791.687
                       8    8 Sep 2021 10:01:56.791    8 Sep 2021 10:31:48.478          1791.687
                       9    8 Sep 2021 10:54:28.379    8 Sep 2021 11:24:20.066          1791.687
                      10    8 Sep 2021 11:46:59.967    8 Sep 2021 12:16:51.654          1791.687
                      11    8 Sep 2021 12:39:31.555    8 Sep 2021 13:09:23.242          1791.687
                      12    8 Sep 2021 13:32:03.144    8 Sep 2021 14:01:54.831          1791.687
                      13    8 Sep 2021 14:24:34.732    8 Sep 2021 14:54:26.419          1791.687
                      14    8 Sep 2021 15:17:06.320    8 Sep 2021 15:46:58.007          1791.687
                      15    8 Sep 2021 16:09:37.908    8 Sep 2021 16:39:29.595          1791.687
                      16    8 Sep 2021 17:02:09.497    8 Sep 2021 17:32:01.182          1791.686
                      17    8 Sep 2021 17:54:41.088    8 Sep 2021 18:24:32.771          1791.682
                      18    8 Sep 2021 18:47:12.677    8 Sep 2021 19:17:04.359          1791.682
                      19    8 Sep 2021 19:39:44.265    8 Sep 2021 20:09:35.952          1791.687
                      20    8 Sep 2021 20:32:15.853    8 Sep 2021 21:02:07.540          1791.687
                      21    8 Sep 2021 21:24:47.441    8 Sep 2021 21:54:39.128          1791.687
                      22    8 Sep 2021 22:17:19.030    8 Sep 2021 22:47:10.717          1791.687
                      23    8 Sep 2021 23:09:50.618    8 Sep 2021 23:39:42.305          1791.687
                      24    9 Sep 2021 00:02:22.206    9 Sep 2021 00:32:13.893          1791.687
                      25    9 Sep 2021 00:54:53.794    9 Sep 2021 01:24:45.481          1791.687
                      26    9 Sep 2021 01:47:25.382    9 Sep 2021 02:17:17.069          1791.687
                      27    9 Sep 2021 02:39:56.970    9 Sep 2021 03:09:48.657          1791.687
                      28    9 Sep 2021 03:32:28.558    9 Sep 2021 04:00:00.000          1651.442

Min Duration           1    8 Sep 2021 04:00:00.000    8 Sep 2021 04:24:07.357          1447.357
Max Duration          15    8 Sep 2021 16:09:37.908    8 Sep 2021 16:39:29.595          1791.687
Mean Duration                                                                           1774.380
Total Duration                                                                         49682.649


Satellite301-To-Satellite105
----------------------------
                  Access       Start Time (UTCG)           Stop Time (UTCG)       Duration (sec)
                  ------    -----------------------    -----------------------    --------------
                       1    8 Sep 2021 04:00:03.524    8 Sep 2021 04:07:49.190           465.666
                       2    8 Sep 2021 04:52:35.108    8 Sep 2021 05:00:20.779           465.671
                       3    8 Sep 2021 05:45:06.696    8 Sep 2021 05:52:52.371           465.675
                       4    8 Sep 2021 06:37:38.287    8 Sep 2021 06:45:23.959           465.672
                       5    8 Sep 2021 07:30:09.877    8 Sep 2021 07:37:55.547           465.670
                       6    8 Sep 2021 08:22:41.463    8 Sep 2021 08:30:27.135           465.672
                       7    8 Sep 2021 09:15:13.050    8 Sep 2021 09:22:58.724           465.675
                       8    8 Sep 2021 10:07:44.638    8 Sep 2021 10:15:30.313           465.675
                       9    8 Sep 2021 11:00:16.231    8 Sep 2021 11:08:01.898           465.667
                      10    8 Sep 2021 11:52:47.815    8 Sep 2021 12:00:33.486           465.671
                      11    8 Sep 2021 12:45:19.404    8 Sep 2021 12:53:05.078           465.675
                      12    8 Sep 2021 13:37:50.995    8 Sep 2021 13:45:36.666           465.672
                      13    8 Sep 2021 14:30:22.584    8 Sep 2021 14:38:08.254           465.671
                      14    8 Sep 2021 15:22:54.170    8 Sep 2021 15:30:39.842           465.672
                      15    8 Sep 2021 16:15:25.757    8 Sep 2021 16:23:11.432           465.675
                      16    8 Sep 2021 17:07:57.345    8 Sep 2021 17:15:43.019           465.674
                      17    8 Sep 2021 18:00:28.938    8 Sep 2021 18:08:14.608           465.670
                      18    8 Sep 2021 18:53:00.522    8 Sep 2021 19:00:46.197           465.675
                      19    8 Sep 2021 19:45:32.111    8 Sep 2021 19:53:17.785           465.674
                      20    8 Sep 2021 20:38:03.702    8 Sep 2021 20:45:49.374           465.672
                      21    8 Sep 2021 21:30:35.291    8 Sep 2021 21:38:20.961           465.671
                      22    8 Sep 2021 22:23:06.877    8 Sep 2021 22:30:52.549           465.672
                      23    8 Sep 2021 23:15:38.464    8 Sep 2021 23:23:24.139           465.675
                      24    9 Sep 2021 00:08:10.057    9 Sep 2021 00:15:55.725           465.669
                      25    9 Sep 2021 01:00:41.645    9 Sep 2021 01:08:27.316           465.670
                      26    9 Sep 2021 01:53:13.229    9 Sep 2021 02:00:58.904           465.675
                      27    9 Sep 2021 02:45:44.818    9 Sep 2021 02:53:30.492           465.674
                      28    9 Sep 2021 03:38:16.409    9 Sep 2021 03:46:02.081           465.672

Min Duration           1    8 Sep 2021 04:00:03.524    8 Sep 2021 04:07:49.190           465.666
Max Duration          18    8 Sep 2021 18:53:00.522    8 Sep 2021 19:00:46.197           465.675
Mean Duration                                                                            465.672
Total Duration                                                                         13038.821


Satellite301-To-Satellite201
----------------------------
                  Access       Start Time (UTCG)           Stop Time (UTCG)       Duration (sec)
                  ------    -----------------------    -----------------------    --------------
                       1    8 Sep 2021 04:00:00.000    9 Sep 2021 04:00:00.000         86400.000

Min Duration           1    8 Sep 2021 04:00:00.000    9 Sep 2021 04:00:00.000         86400.000
Max Duration           1    8 Sep 2021 04:00:00.000    9 Sep 2021 04:00:00.000         86400.000
Mean Duration                                                                          86400.000
Total Duration                                                                         86400.000


Satellite301-To-Satellite202
----------------------------
                  Access       Start Time (UTCG)           Stop Time (UTCG)       Duration (sec)
                  ------    -----------------------    -----------------------    --------------
                       1    8 Sep 2021 04:00:00.000    9 Sep 2021 04:00:00.000         86400.000

Min Duration           1    8 Sep 2021 04:00:00.000    9 Sep 2021 04:00:00.000         86400.000
Max Duration           1    8 Sep 2021 04:00:00.000    9 Sep 2021 04:00:00.000         86400.000
Mean Duration                                                                          86400.000
Total Duration                                                                         86400.000


Satellite301-To-Satellite203
----------------------------
                  Access       Start Time (UTCG)           Stop Time (UTCG)       Duration (sec)
                  ------    -----------------------    -----------------------    --------------
                       1    8 Sep 2021 04:00:00.000    9 Sep 2021 04:00:00.000         86400.000

Min Duration           1    8 Sep 2021 04:00:00.000    9 Sep 2021 04:00:00.000         86400.000
Max Duration           1    8 Sep 2021 04:00:00.000    9 Sep 2021 04:00:00.000         86400.000
Mean Duration                                                                          86400.000
Total Duration                                                                         86400.000


Satellite301-To-Satellite302
----------------------------
                  Access       Start Time (UTCG)           Stop Time (UTCG)       Duration (sec)
                  ------    -----------------------    -----------------------    --------------
                       1    8 Sep 2021 04:00:00.000    9 Sep 2021 04:00:00.000         86400.000

Min Duration           1    8 Sep 2021 04:00:00.000    9 Sep 2021 04:00:00.000         86400.000
Max Duration           1    8 Sep 2021 04:00:00.000    9 Sep 2021 04:00:00.000         86400.000
Mean Duration                                                                          86400.000
Total Duration                                                                         86400.000


Satellite301-To-Satellite310
----------------------------
                  Access       Start Time (UTCG)           Stop Time (UTCG)       Duration (sec)
                  ------    -----------------------    -----------------------    --------------
                       1    8 Sep 2021 04:00:00.000    9 Sep 2021 04:00:00.000         86400.000

Min Duration           1    8 Sep 2021 04:00:00.000    9 Sep 2021 04:00:00.000         86400.000
Max Duration           1    8 Sep 2021 04:00:00.000    9 Sep 2021 04:00:00.000         86400.000
Mean Duration                                                                          86400.000
Total Duration                                                                         86400.000


Satellite301-To-Satellite401
----------------------------
                  Access       Start Time (UTCG)           Stop Time (UTCG)       Duration (sec)
                  ------    -----------------------    -----------------------    --------------
                       1    8 Sep 2021 04:00:00.000    9 Sep 2021 04:00:00.000         86400.000

Min Duration           1    8 Sep 2021 04:00:00.000    9 Sep 2021 04:00:00.000         86400.000
Max Duration           1    8 Sep 2021 04:00:00.000    9 Sep 2021 04:00:00.000         86400.000
Mean Duration                                                                          86400.000
Total Duration                                                                         86400.000


Satellite301-To-Satellite409
----------------------------
                  Access       Start Time (UTCG)           Stop Time (UTCG)       Duration (sec)
                  ------    -----------------------    -----------------------    --------------
                       1    8 Sep 2021 04:00:00.000    9 Sep 2021 04:00:00.000         86400.000

Min Duration           1    8 Sep 2021 04:00:00.000    9 Sep 2021 04:00:00.000         86400.000
Max Duration           1    8 Sep 2021 04:00:00.000    9 Sep 2021 04:00:00.000         86400.000
Mean Duration                                                                          86400.000
Total Duration                                                                         86400.000


Satellite301-To-Satellite410
----------------------------
                  Access       Start Time (UTCG)           Stop Time (UTCG)       Duration (sec)
                  ------    -----------------------    -----------------------    --------------
                       1    8 Sep 2021 04:00:00.000    9 Sep 2021 04:00:00.000         86400.000

Min Duration           1    8 Sep 2021 04:00:00.000    9 Sep 2021 04:00:00.000         86400.000
Max Duration           1    8 Sep 2021 04:00:00.000    9 Sep 2021 04:00:00.000         86400.000
Mean Duration                                                                          86400.000
Total Duration                                                                         86400.000


Satellite301-To-Satellite501
----------------------------
                  Access       Start Time (UTCG)           Stop Time (UTCG)       Duration (sec)
                  ------    -----------------------    -----------------------    --------------
                       1    8 Sep 2021 04:18:22.207    8 Sep 2021 04:26:16.618           474.411
                       2    8 Sep 2021 05:10:53.797    8 Sep 2021 05:18:48.202           474.405
                       3    8 Sep 2021 06:03:25.384    8 Sep 2021 06:11:19.795           474.411
                       4    8 Sep 2021 06:55:56.972    8 Sep 2021 07:03:51.383           474.411
                       5    8 Sep 2021 07:48:28.561    8 Sep 2021 07:56:22.970           474.409
                       6    8 Sep 2021 08:41:00.152    8 Sep 2021 08:48:54.559           474.407
                       7    8 Sep 2021 09:33:31.742    8 Sep 2021 09:41:26.148           474.407
                       8    8 Sep 2021 10:26:03.326    8 Sep 2021 10:33:57.737           474.411
                       9    8 Sep 2021 11:18:34.915    8 Sep 2021 11:26:29.325           474.411
                      10    8 Sep 2021 12:11:06.503    8 Sep 2021 12:19:00.911           474.408
                      11    8 Sep 2021 13:03:38.091    8 Sep 2021 13:11:32.502           474.411
                      12    8 Sep 2021 13:56:09.679    8 Sep 2021 14:04:04.090           474.411
                      13    8 Sep 2021 14:48:41.269    8 Sep 2021 14:56:35.677           474.408
                      14    8 Sep 2021 15:41:12.860    8 Sep 2021 15:49:07.267           474.406
                      15    8 Sep 2021 16:33:44.449    8 Sep 2021 16:41:38.856           474.406
                      16    8 Sep 2021 17:26:16.033    8 Sep 2021 17:34:10.440           474.407
                      17    8 Sep 2021 18:18:47.625    8 Sep 2021 18:26:42.029           474.404
                      18    8 Sep 2021 19:11:19.210    8 Sep 2021 19:19:13.620           474.410
                      19    8 Sep 2021 20:03:50.798    8 Sep 2021 20:11:45.209           474.411
                      20    8 Sep 2021 20:56:22.387    8 Sep 2021 21:04:16.797           474.411
                      21    8 Sep 2021 21:48:53.976    8 Sep 2021 21:56:48.385           474.408
                      22    8 Sep 2021 22:41:25.566    8 Sep 2021 22:49:19.974           474.408
                      23    8 Sep 2021 23:33:57.153    8 Sep 2021 23:41:51.563           474.410
                      24    9 Sep 2021 00:26:28.740    9 Sep 2021 00:34:23.150           474.410
                      25    9 Sep 2021 01:19:00.333    9 Sep 2021 01:26:54.735           474.402
                      26    9 Sep 2021 02:11:31.919    9 Sep 2021 02:19:26.328           474.409
                      27    9 Sep 2021 03:04:03.505    9 Sep 2021 03:11:57.916           474.411
                      28    9 Sep 2021 03:56:35.094    9 Sep 2021 04:00:00.000           204.906

Min Duration          28    9 Sep 2021 03:56:35.094    9 Sep 2021 04:00:00.000           204.906
Max Duration           3    8 Sep 2021 06:03:25.384    8 Sep 2021 06:11:19.795           474.411
Mean Duration                                                                            464.784
Total Duration                                                                         13013.940


Satellite301-To-Satellite507
----------------------------
                  Access       Start Time (UTCG)           Stop Time (UTCG)       Duration (sec)
                  ------    -----------------------    -----------------------    --------------
                       1    8 Sep 2021 04:39:27.211    8 Sep 2021 04:47:12.886           465.675
                       2    8 Sep 2021 05:31:58.804    8 Sep 2021 05:39:44.469           465.666
                       3    8 Sep 2021 06:24:30.387    8 Sep 2021 06:32:16.059           465.671
                       4    8 Sep 2021 07:17:01.976    8 Sep 2021 07:24:47.651           465.675
                       5    8 Sep 2021 08:09:33.567    8 Sep 2021 08:17:19.239           465.672
                       6    8 Sep 2021 09:02:05.156    8 Sep 2021 09:09:50.827           465.670
                       7    8 Sep 2021 09:54:36.742    8 Sep 2021 10:02:22.415           465.672
                       8    8 Sep 2021 10:47:08.330    8 Sep 2021 10:54:54.004           465.675
                       9    8 Sep 2021 11:39:39.918    8 Sep 2021 11:47:25.592           465.675
                      10    8 Sep 2021 12:32:11.511    8 Sep 2021 12:39:57.178           465.667
                      11    8 Sep 2021 13:24:43.095    8 Sep 2021 13:32:28.765           465.671
                      12    8 Sep 2021 14:17:14.683    8 Sep 2021 14:25:00.358           465.675
                      13    8 Sep 2021 15:09:46.274    8 Sep 2021 15:17:31.946           465.672
                      14    8 Sep 2021 16:02:17.863    8 Sep 2021 16:10:03.534           465.671
                      15    8 Sep 2021 16:54:49.449    8 Sep 2021 17:02:35.122           465.672
                      16    8 Sep 2021 17:47:21.037    8 Sep 2021 17:55:06.711           465.675
                      17    8 Sep 2021 18:39:52.625    8 Sep 2021 18:47:38.299           465.674
                      18    8 Sep 2021 19:32:24.218    8 Sep 2021 19:40:09.888           465.670
                      19    8 Sep 2021 20:24:55.802    8 Sep 2021 20:32:41.477           465.675
                      20    8 Sep 2021 21:17:27.391    8 Sep 2021 21:25:13.065           465.674
                      21    8 Sep 2021 22:09:58.981    8 Sep 2021 22:17:44.653           465.672
                      22    8 Sep 2021 23:02:30.570    8 Sep 2021 23:10:16.241           465.671
                      23    8 Sep 2021 23:55:02.156    9 Sep 2021 00:02:47.829           465.672
                      24    9 Sep 2021 00:47:33.744    9 Sep 2021 00:55:19.419           465.675
                      25    9 Sep 2021 01:40:05.336    9 Sep 2021 01:47:51.005           465.669
                      26    9 Sep 2021 02:32:36.925    9 Sep 2021 02:40:22.595           465.670
                      27    9 Sep 2021 03:25:08.509    9 Sep 2021 03:32:54.184           465.675

Min Duration           2    8 Sep 2021 05:31:58.804    8 Sep 2021 05:39:44.469           465.666
Max Duration          19    8 Sep 2021 20:24:55.802    8 Sep 2021 20:32:41.477           465.675
Mean Duration                                                                            465.672
Total Duration                                                                         12573.150


Satellite301-To-Satellite508
----------------------------
                  Access       Start Time (UTCG)           Stop Time (UTCG)       Duration (sec)
                  ------    -----------------------    -----------------------    --------------
                       1    8 Sep 2021 04:00:00.000    8 Sep 2021 04:00:29.146            29.146
                       2    8 Sep 2021 04:23:09.044    8 Sep 2021 04:53:00.730          1791.686
                       3    8 Sep 2021 05:15:40.634    8 Sep 2021 05:45:32.322          1791.687
                       4    8 Sep 2021 06:08:12.223    8 Sep 2021 06:38:03.910          1791.687
                       5    8 Sep 2021 07:00:43.811    8 Sep 2021 07:30:35.498          1791.687
                       6    8 Sep 2021 07:53:15.399    8 Sep 2021 08:23:07.086          1791.687
                       7    8 Sep 2021 08:45:46.987    8 Sep 2021 09:15:38.674          1791.687
                       8    8 Sep 2021 09:38:18.575    8 Sep 2021 10:08:10.262          1791.687
                       9    8 Sep 2021 10:30:50.163    8 Sep 2021 11:00:41.851          1791.687
                      10    8 Sep 2021 11:23:21.752    8 Sep 2021 11:53:13.439          1791.687
                      11    8 Sep 2021 12:15:53.340    8 Sep 2021 12:45:45.027          1791.687
                      12    8 Sep 2021 13:08:24.928    8 Sep 2021 13:38:16.614          1791.686
                      13    8 Sep 2021 14:00:56.520    8 Sep 2021 14:30:48.202          1791.682
                      14    8 Sep 2021 14:53:28.108    8 Sep 2021 15:23:19.791          1791.682
                      15    8 Sep 2021 15:45:59.697    8 Sep 2021 16:15:51.384          1791.687
                      16    8 Sep 2021 16:38:31.285    8 Sep 2021 17:08:22.972          1791.687
                      17    8 Sep 2021 17:31:02.873    8 Sep 2021 18:00:54.560          1791.687
                      18    8 Sep 2021 18:23:34.461    8 Sep 2021 18:53:26.148          1791.687
                      19    8 Sep 2021 19:16:06.049    8 Sep 2021 19:45:57.736          1791.687
                      20    8 Sep 2021 20:08:37.637    8 Sep 2021 20:38:29.324          1791.687
                      21    8 Sep 2021 21:01:09.226    8 Sep 2021 21:31:00.913          1791.687
                      22    8 Sep 2021 21:53:40.814    8 Sep 2021 22:23:32.501          1791.687
                      23    8 Sep 2021 22:46:12.402    8 Sep 2021 23:16:04.089          1791.687
                      24    8 Sep 2021 23:38:43.990    9 Sep 2021 00:08:35.677          1791.687
                      25    9 Sep 2021 00:31:15.578    9 Sep 2021 01:01:07.265          1791.687
                      26    9 Sep 2021 01:23:47.166    9 Sep 2021 01:53:38.853          1791.687
                      27    9 Sep 2021 02:16:18.754    9 Sep 2021 02:46:10.442          1791.687
                      28    9 Sep 2021 03:08:50.343    9 Sep 2021 03:38:42.030          1791.687

Min Duration           1    8 Sep 2021 04:00:00.000    8 Sep 2021 04:00:29.146            29.146
Max Duration          11    8 Sep 2021 12:15:53.340    8 Sep 2021 12:45:45.027          1791.687
Mean Duration                                                                           1728.739
Total Duration                                                                         48404.686


Satellite301-To-Satellite509
----------------------------
                  Access       Start Time (UTCG)           Stop Time (UTCG)       Duration (sec)
                  ------    -----------------------    -----------------------    --------------
                       1    8 Sep 2021 04:13:59.080    8 Sep 2021 04:51:40.382          2261.301
                       2    8 Sep 2021 05:06:30.669    8 Sep 2021 05:44:11.970          2261.301
                       3    8 Sep 2021 05:59:02.257    8 Sep 2021 06:36:43.558          2261.301
                       4    8 Sep 2021 06:51:33.846    8 Sep 2021 07:29:15.147          2261.301
                       5    8 Sep 2021 07:44:05.434    8 Sep 2021 08:21:46.735          2261.301
                       6    8 Sep 2021 08:36:37.022    8 Sep 2021 09:14:18.324          2261.301
                       7    8 Sep 2021 09:29:08.611    8 Sep 2021 10:06:49.912          2261.301
                       8    8 Sep 2021 10:21:40.199    8 Sep 2021 10:59:21.500          2261.301
                       9    8 Sep 2021 11:14:11.788    8 Sep 2021 11:51:53.089          2261.301
                      10    8 Sep 2021 12:06:43.376    8 Sep 2021 12:44:24.677          2261.301
                      11    8 Sep 2021 12:59:14.964    8 Sep 2021 13:36:56.266          2261.301
                      12    8 Sep 2021 13:51:46.553    8 Sep 2021 14:29:27.854          2261.301
                      13    8 Sep 2021 14:44:18.141    8 Sep 2021 15:21:59.442          2261.301
                      14    8 Sep 2021 15:36:49.729    8 Sep 2021 16:14:31.031          2261.301
                      15    8 Sep 2021 16:29:21.318    8 Sep 2021 17:07:02.619          2261.301
                      16    8 Sep 2021 17:21:52.906    8 Sep 2021 17:59:34.208          2261.301
                      17    8 Sep 2021 18:14:24.495    8 Sep 2021 18:52:05.796          2261.301
                      18    8 Sep 2021 19:06:56.083    8 Sep 2021 19:44:37.384          2261.301
                      19    8 Sep 2021 19:59:27.671    8 Sep 2021 20:37:08.973          2261.301
                      20    8 Sep 2021 20:51:59.260    8 Sep 2021 21:29:40.561          2261.301
                      21    8 Sep 2021 21:44:30.848    8 Sep 2021 22:22:12.150          2261.301
                      22    8 Sep 2021 22:37:02.437    8 Sep 2021 23:14:43.738          2261.301
                      23    8 Sep 2021 23:29:34.025    9 Sep 2021 00:07:15.326          2261.301
                      24    9 Sep 2021 00:22:05.613    9 Sep 2021 00:59:46.915          2261.301
                      25    9 Sep 2021 01:14:37.202    9 Sep 2021 01:52:18.503          2261.301
                      26    9 Sep 2021 02:07:08.790    9 Sep 2021 02:44:50.091          2261.301
                      27    9 Sep 2021 02:59:40.379    9 Sep 2021 03:37:21.680          2261.301
                      28    9 Sep 2021 03:52:11.967    9 Sep 2021 04:00:00.000           468.033

Min Duration          28    9 Sep 2021 03:52:11.967    9 Sep 2021 04:00:00.000           468.033
Max Duration           1    8 Sep 2021 04:13:59.080    8 Sep 2021 04:51:40.382          2261.301
Mean Duration                                                                           2197.256
Total Duration                                                                         61523.167


Satellite301-To-Satellite510
----------------------------
                  Access       Start Time (UTCG)           Stop Time (UTCG)       Duration (sec)
                  ------    -----------------------    -----------------------    --------------
                       1    8 Sep 2021 04:12:41.435    8 Sep 2021 04:42:27.709          1786.274
                       2    8 Sep 2021 05:05:13.020    8 Sep 2021 05:34:59.298          1786.279
                       3    8 Sep 2021 05:57:44.611    8 Sep 2021 06:27:30.889          1786.278
                       4    8 Sep 2021 06:50:16.196    8 Sep 2021 07:20:02.476          1786.280
                       5    8 Sep 2021 07:42:47.787    8 Sep 2021 08:12:34.066          1786.279
                       6    8 Sep 2021 08:35:19.373    8 Sep 2021 09:05:05.653          1786.281
                       7    8 Sep 2021 09:27:50.964    8 Sep 2021 09:57:37.243          1786.279
                       8    8 Sep 2021 10:20:22.549    8 Sep 2021 10:50:08.830          1786.281
                       9    8 Sep 2021 11:12:54.141    8 Sep 2021 11:42:40.420          1786.279
                      10    8 Sep 2021 12:05:25.726    8 Sep 2021 12:35:12.007          1786.281
                      11    8 Sep 2021 12:57:57.318    8 Sep 2021 13:27:43.596          1786.279
                      12    8 Sep 2021 13:50:28.903    8 Sep 2021 14:20:15.184          1786.281
                      13    8 Sep 2021 14:43:00.495    8 Sep 2021 15:12:46.773          1786.279
                      14    8 Sep 2021 15:35:32.080    8 Sep 2021 16:05:18.361          1786.281
                      15    8 Sep 2021 16:28:03.671    8 Sep 2021 16:57:49.950          1786.279
                      16    8 Sep 2021 17:20:35.257    8 Sep 2021 17:50:21.538          1786.281
                      17    8 Sep 2021 18:13:06.848    8 Sep 2021 18:42:53.127          1786.279
                      18    8 Sep 2021 19:05:38.433    8 Sep 2021 19:35:24.714          1786.281
                      19    8 Sep 2021 19:58:10.025    8 Sep 2021 20:27:56.304          1786.278
                      20    8 Sep 2021 20:50:41.610    8 Sep 2021 21:20:27.891          1786.281
                      21    8 Sep 2021 21:43:13.202    8 Sep 2021 22:12:59.480          1786.278
                      22    8 Sep 2021 22:35:44.787    8 Sep 2021 23:05:31.068          1786.281
                      23    8 Sep 2021 23:28:16.379    8 Sep 2021 23:58:02.657          1786.278
                      24    9 Sep 2021 00:20:47.964    9 Sep 2021 00:50:34.245          1786.281
                      25    9 Sep 2021 01:13:19.555    9 Sep 2021 01:43:05.834          1786.278
                      26    9 Sep 2021 02:05:51.141    9 Sep 2021 02:35:37.422          1786.281
                      27    9 Sep 2021 02:58:22.732    9 Sep 2021 03:28:09.011          1786.278
                      28    9 Sep 2021 03:50:54.317    9 Sep 2021 04:00:00.000           545.683

Min Duration          28    9 Sep 2021 03:50:54.317    9 Sep 2021 04:00:00.000           545.683
Max Duration          26    9 Sep 2021 02:05:51.141    9 Sep 2021 02:35:37.422          1786.281
Mean Duration                                                                           1741.972
Total Duration                                                                         48775.227


Satellite301-To-Satellite605
----------------------------
                  Access       Start Time (UTCG)           Stop Time (UTCG)       Duration (sec)
                  ------    -----------------------    -----------------------    --------------
                       1    8 Sep 2021 04:00:00.000    8 Sep 2021 04:03:36.636           216.636
                       2    8 Sep 2021 04:50:13.714    8 Sep 2021 04:56:08.226           354.512
                       3    8 Sep 2021 05:42:45.304    8 Sep 2021 05:48:39.815           354.511
                       4    8 Sep 2021 06:35:16.894    8 Sep 2021 06:41:11.405           354.511
                       5    8 Sep 2021 07:27:48.479    8 Sep 2021 07:33:42.993           354.515
                       6    8 Sep 2021 08:20:20.067    8 Sep 2021 08:26:14.578           354.511
                       7    8 Sep 2021 09:12:51.659    8 Sep 2021 09:18:46.170           354.511
                       8    8 Sep 2021 10:05:23.249    8 Sep 2021 10:11:17.759           354.510
                       9    8 Sep 2021 10:57:54.834    8 Sep 2021 11:03:49.346           354.512
                      10    8 Sep 2021 11:50:26.422    8 Sep 2021 11:56:20.933           354.511
                      11    8 Sep 2021 12:42:58.014    8 Sep 2021 12:48:52.524           354.510
                      12    8 Sep 2021 13:35:29.600    8 Sep 2021 13:41:24.112           354.512
                      13    8 Sep 2021 14:28:01.186    8 Sep 2021 14:33:55.696           354.510
                      14    8 Sep 2021 15:20:32.778    8 Sep 2021 15:26:27.288           354.510
                      15    8 Sep 2021 16:13:04.367    8 Sep 2021 16:18:58.877           354.510
                      16    8 Sep 2021 17:05:35.951    8 Sep 2021 17:11:30.465           354.514
                      17    8 Sep 2021 17:58:07.540    8 Sep 2021 18:04:02.051           354.511
                      18    8 Sep 2021 18:50:39.132    8 Sep 2021 18:56:33.642           354.510
                      19    8 Sep 2021 19:43:10.716    8 Sep 2021 19:49:05.231           354.515
                      20    8 Sep 2021 20:35:42.305    8 Sep 2021 20:41:36.815           354.510
                      21    8 Sep 2021 21:28:13.896    8 Sep 2021 21:34:08.407           354.510
                      22    8 Sep 2021 22:20:45.486    8 Sep 2021 22:26:39.996           354.510
                      23    8 Sep 2021 23:13:17.073    8 Sep 2021 23:19:11.584           354.511
                      24    9 Sep 2021 00:05:48.659    9 Sep 2021 00:11:43.170           354.511
                      25    9 Sep 2021 00:58:20.250    9 Sep 2021 01:04:14.761           354.511
                      26    9 Sep 2021 01:50:51.835    9 Sep 2021 01:56:46.350           354.515
                      27    9 Sep 2021 02:43:23.423    9 Sep 2021 02:49:17.933           354.510
                      28    9 Sep 2021 03:35:55.015    9 Sep 2021 03:41:49.525           354.511

Min Duration           1    8 Sep 2021 04:00:00.000    8 Sep 2021 04:03:36.636           216.636
Max Duration          19    8 Sep 2021 19:43:10.716    8 Sep 2021 19:49:05.231           354.515
Mean Duration                                                                            349.587
Total Duration                                                                          9788.441


Satellite301-To-Satellite606
----------------------------
                  Access       Start Time (UTCG)           Stop Time (UTCG)       Duration (sec)
                  ------    -----------------------    -----------------------    --------------
                       1    8 Sep 2021 04:00:00.000    8 Sep 2021 04:04:56.707           296.707
                       2    8 Sep 2021 04:38:23.328    8 Sep 2021 04:57:28.296          1144.967
                       3    8 Sep 2021 05:30:54.917    8 Sep 2021 05:49:59.884          1144.968
                       4    8 Sep 2021 06:23:26.505    8 Sep 2021 06:42:31.473          1144.968
                       5    8 Sep 2021 07:15:58.093    8 Sep 2021 07:35:03.061          1144.968
                       6    8 Sep 2021 08:08:29.681    8 Sep 2021 08:27:34.649          1144.968
                       7    8 Sep 2021 09:01:01.270    8 Sep 2021 09:20:06.238          1144.968
                       8    8 Sep 2021 09:53:32.858    8 Sep 2021 10:12:37.826          1144.968
                       9    8 Sep 2021 10:46:04.446    8 Sep 2021 11:05:09.415          1144.968
                      10    8 Sep 2021 11:38:36.035    8 Sep 2021 11:57:41.003          1144.968
                      11    8 Sep 2021 12:31:07.623    8 Sep 2021 12:50:12.591          1144.968
                      12    8 Sep 2021 13:23:39.212    8 Sep 2021 13:42:44.180          1144.968
                      13    8 Sep 2021 14:16:10.800    8 Sep 2021 14:35:15.768          1144.968
                      14    8 Sep 2021 15:08:42.388    8 Sep 2021 15:27:47.357          1144.968
                      15    8 Sep 2021 16:01:13.977    8 Sep 2021 16:20:18.945          1144.968
                      16    8 Sep 2021 16:53:45.565    8 Sep 2021 17:12:50.533          1144.968
                      17    8 Sep 2021 17:46:17.154    8 Sep 2021 18:05:22.122          1144.968
                      18    8 Sep 2021 18:38:48.742    8 Sep 2021 18:57:53.710          1144.968
                      19    8 Sep 2021 19:31:20.330    8 Sep 2021 19:50:25.299          1144.968
                      20    8 Sep 2021 20:23:51.919    8 Sep 2021 20:42:56.887          1144.968
                      21    8 Sep 2021 21:16:23.507    8 Sep 2021 21:35:28.475          1144.968
                      22    8 Sep 2021 22:08:55.096    8 Sep 2021 22:28:00.064          1144.968
                      23    8 Sep 2021 23:01:26.684    8 Sep 2021 23:20:31.652          1144.968
                      24    8 Sep 2021 23:53:58.272    9 Sep 2021 00:13:03.241          1144.968
                      25    9 Sep 2021 00:46:29.861    9 Sep 2021 01:05:34.829          1144.968
                      26    9 Sep 2021 01:39:01.449    9 Sep 2021 01:58:06.417          1144.968
                      27    9 Sep 2021 02:31:33.038    9 Sep 2021 02:50:38.006          1144.968
                      28    9 Sep 2021 03:24:04.626    9 Sep 2021 03:43:09.594          1144.968

Min Duration           1    8 Sep 2021 04:00:00.000    8 Sep 2021 04:04:56.707           296.707
Max Duration          28    9 Sep 2021 03:24:04.626    9 Sep 2021 03:43:09.594          1144.968
Mean Duration                                                                           1114.673
Total Duration                                                                         31210.848


Satellite301-To-Satellite607
----------------------------
                  Access       Start Time (UTCG)           Stop Time (UTCG)       Duration (sec)
                  ------    -----------------------    -----------------------    --------------
                       1    8 Sep 2021 04:00:00.000    8 Sep 2021 04:02:31.703           151.703
                       2    8 Sep 2021 04:30:18.017    8 Sep 2021 04:55:03.287          1485.270
                       3    8 Sep 2021 05:22:49.606    8 Sep 2021 05:47:34.880          1485.274
                       4    8 Sep 2021 06:15:21.196    8 Sep 2021 06:40:06.464          1485.269
                       5    8 Sep 2021 07:07:52.782    8 Sep 2021 07:32:38.056          1485.274
                       6    8 Sep 2021 08:00:24.373    8 Sep 2021 08:25:09.641          1485.268
                       7    8 Sep 2021 08:52:55.959    8 Sep 2021 09:17:41.233          1485.274
                       8    8 Sep 2021 09:45:27.550    8 Sep 2021 10:10:12.818          1485.268
                       9    8 Sep 2021 10:37:59.136    8 Sep 2021 11:02:44.410          1485.274
                      10    8 Sep 2021 11:30:30.726    8 Sep 2021 11:55:15.995          1485.268
                      11    8 Sep 2021 12:23:02.313    8 Sep 2021 12:47:47.587          1485.274
                      12    8 Sep 2021 13:15:33.903    8 Sep 2021 13:40:19.171          1485.268
                      13    8 Sep 2021 14:08:05.490    8 Sep 2021 14:32:50.763          1485.274
                      14    8 Sep 2021 15:00:37.080    8 Sep 2021 15:25:22.348          1485.268
                      15    8 Sep 2021 15:53:08.666    8 Sep 2021 16:17:53.940          1485.274
                      16    8 Sep 2021 16:45:40.257    8 Sep 2021 17:10:25.525          1485.268
                      17    8 Sep 2021 17:38:11.843    8 Sep 2021 18:02:57.117          1485.274
                      18    8 Sep 2021 18:30:43.433    8 Sep 2021 18:55:28.702          1485.268
                      19    8 Sep 2021 19:23:15.020    8 Sep 2021 19:48:00.294          1485.274
                      20    8 Sep 2021 20:15:46.610    8 Sep 2021 20:40:31.879          1485.268
                      21    8 Sep 2021 21:08:18.197    8 Sep 2021 21:33:03.471          1485.274
                      22    8 Sep 2021 22:00:49.787    8 Sep 2021 22:25:35.055          1485.268
                      23    8 Sep 2021 22:53:21.373    8 Sep 2021 23:18:06.647          1485.274
                      24    8 Sep 2021 23:45:52.964    9 Sep 2021 00:10:38.232          1485.268
                      25    9 Sep 2021 00:38:24.550    9 Sep 2021 01:03:09.824          1485.274
                      26    9 Sep 2021 01:30:56.141    9 Sep 2021 01:55:41.409          1485.268
                      27    9 Sep 2021 02:23:27.727    9 Sep 2021 02:48:13.001          1485.274
                      28    9 Sep 2021 03:15:59.317    9 Sep 2021 03:40:44.586          1485.268

Min Duration           1    8 Sep 2021 04:00:00.000    8 Sep 2021 04:02:31.703           151.703
Max Duration           9    8 Sep 2021 10:37:59.136    8 Sep 2021 11:02:44.410          1485.274
Mean Duration                                                                           1437.644
Total Duration                                                                         40254.023


Satellite301-To-Satellite608
----------------------------
                  Access       Start Time (UTCG)           Stop Time (UTCG)       Duration (sec)
                  ------    -----------------------    -----------------------    --------------
                       1    8 Sep 2021 04:24:59.886    8 Sep 2021 04:49:51.102          1491.216
                       2    8 Sep 2021 05:17:31.473    8 Sep 2021 05:42:22.695          1491.222
                       3    8 Sep 2021 06:10:03.059    8 Sep 2021 06:34:54.279          1491.221
                       4    8 Sep 2021 07:02:34.651    8 Sep 2021 07:27:25.872          1491.221
                       5    8 Sep 2021 07:55:06.236    8 Sep 2021 08:19:57.456          1491.221
                       6    8 Sep 2021 08:47:37.828    8 Sep 2021 09:12:29.049          1491.221
                       7    8 Sep 2021 09:40:09.412    8 Sep 2021 10:05:00.633          1491.221
                       8    8 Sep 2021 10:32:41.005    8 Sep 2021 10:57:32.226          1491.221
                       9    8 Sep 2021 11:25:12.589    8 Sep 2021 11:50:03.810          1491.221
                      10    8 Sep 2021 12:17:44.181    8 Sep 2021 12:42:35.402          1491.221
                      11    8 Sep 2021 13:10:15.766    8 Sep 2021 13:35:06.987          1491.221
                      12    8 Sep 2021 14:02:47.358    8 Sep 2021 14:27:38.579          1491.221
                      13    8 Sep 2021 14:55:18.943    8 Sep 2021 15:20:10.164          1491.221
                      14    8 Sep 2021 15:47:50.535    8 Sep 2021 16:12:41.756          1491.221
                      15    8 Sep 2021 16:40:22.120    8 Sep 2021 17:05:13.340          1491.221
                      16    8 Sep 2021 17:32:53.712    8 Sep 2021 17:57:44.933          1491.221
                      17    8 Sep 2021 18:25:25.296    8 Sep 2021 18:50:16.517          1491.221
                      18    8 Sep 2021 19:17:56.888    8 Sep 2021 19:42:48.109          1491.221
                      19    8 Sep 2021 20:10:28.473    8 Sep 2021 20:35:19.694          1491.221
                      20    8 Sep 2021 21:03:00.065    8 Sep 2021 21:27:51.286          1491.221
                      21    8 Sep 2021 21:55:31.650    8 Sep 2021 22:20:22.871          1491.221
                      22    8 Sep 2021 22:48:03.242    8 Sep 2021 23:12:54.463          1491.221
                      23    8 Sep 2021 23:40:34.827    9 Sep 2021 00:05:26.047          1491.221
                      24    9 Sep 2021 00:33:06.419    9 Sep 2021 00:57:57.640          1491.221
                      25    9 Sep 2021 01:25:38.003    9 Sep 2021 01:50:29.224          1491.221
                      26    9 Sep 2021 02:18:09.596    9 Sep 2021 02:43:00.817          1491.221
                      27    9 Sep 2021 03:10:41.180    9 Sep 2021 03:35:32.401          1491.221

Min Duration           1    8 Sep 2021 04:24:59.886    8 Sep 2021 04:49:51.102          1491.216
Max Duration           2    8 Sep 2021 05:17:31.473    8 Sep 2021 05:42:22.695          1491.222
Mean Duration                                                                           1491.221
Total Duration                                                                         40262.960


Satellite301-To-Satellite609
----------------------------
                  Access       Start Time (UTCG)           Stop Time (UTCG)       Duration (sec)
                  ------    -----------------------    -----------------------    --------------
                       1    8 Sep 2021 04:22:28.322    8 Sep 2021 04:41:52.349          1164.027
                       2    8 Sep 2021 05:14:59.912    8 Sep 2021 05:34:23.937          1164.024
                       3    8 Sep 2021 06:07:31.499    8 Sep 2021 06:26:55.525          1164.026
                       4    8 Sep 2021 07:00:03.088    8 Sep 2021 07:19:27.113          1164.025
                       5    8 Sep 2021 07:52:34.676    8 Sep 2021 08:11:58.702          1164.026
                       6    8 Sep 2021 08:45:06.266    8 Sep 2021 09:04:30.289          1164.023
                       7    8 Sep 2021 09:37:37.853    8 Sep 2021 09:57:01.882          1164.029
                       8    8 Sep 2021 10:30:09.442    8 Sep 2021 10:49:33.468          1164.026
                       9    8 Sep 2021 11:22:41.031    8 Sep 2021 11:42:05.056          1164.024
                      10    8 Sep 2021 12:15:12.617    8 Sep 2021 12:34:36.643          1164.026
                      11    8 Sep 2021 13:07:44.207    8 Sep 2021 13:27:08.231          1164.025
                      12    8 Sep 2021 14:00:15.795    8 Sep 2021 14:19:39.822          1164.027
                      13    8 Sep 2021 14:52:47.385    8 Sep 2021 15:12:11.409          1164.024
                      14    8 Sep 2021 15:45:18.972    8 Sep 2021 16:04:42.997          1164.026
                      15    8 Sep 2021 16:37:50.560    8 Sep 2021 16:57:14.585          1164.025
                      16    8 Sep 2021 17:30:22.148    8 Sep 2021 17:49:46.174          1164.026
                      17    8 Sep 2021 18:22:53.738    8 Sep 2021 18:42:17.761          1164.023
                      18    8 Sep 2021 19:15:25.326    8 Sep 2021 19:34:49.350          1164.024
                      19    8 Sep 2021 20:07:56.914    8 Sep 2021 20:27:20.940          1164.026
                      20    8 Sep 2021 21:00:28.504    8 Sep 2021 21:19:52.528          1164.024
                      21    8 Sep 2021 21:53:00.089    8 Sep 2021 22:12:24.116          1164.026
                      22    8 Sep 2021 22:45:31.679    8 Sep 2021 23:04:55.704          1164.025
                      23    8 Sep 2021 23:38:03.267    8 Sep 2021 23:57:27.294          1164.027
                      24    9 Sep 2021 00:30:34.857    9 Sep 2021 00:49:58.881          1164.024
                      25    9 Sep 2021 01:23:06.444    9 Sep 2021 01:42:30.470          1164.026
                      26    9 Sep 2021 02:15:38.032    9 Sep 2021 02:35:02.058          1164.025
                      27    9 Sep 2021 03:08:09.620    9 Sep 2021 03:27:33.646          1164.026

Min Duration           6    8 Sep 2021 08:45:06.266    8 Sep 2021 09:04:30.289          1164.023
Max Duration           7    8 Sep 2021 09:37:37.853    8 Sep 2021 09:57:01.882          1164.029
Mean Duration                                                                           1164.025
Total Duration                                                                         31428.684


Satellite301-To-Satellite610
----------------------------
                  Access       Start Time (UTCG)           Stop Time (UTCG)       Duration (sec)
                  ------    -----------------------    -----------------------    --------------
                       1    8 Sep 2021 04:23:24.409    8 Sep 2021 04:30:25.945           421.536
                       2    8 Sep 2021 05:15:55.997    8 Sep 2021 05:22:57.533           421.537
                       3    8 Sep 2021 06:08:27.588    8 Sep 2021 06:15:29.122           421.534
                       4    8 Sep 2021 07:00:59.173    8 Sep 2021 07:08:00.710           421.537
                       5    8 Sep 2021 07:53:30.764    8 Sep 2021 08:00:32.298           421.534
                       6    8 Sep 2021 08:46:02.350    8 Sep 2021 08:53:03.886           421.536
                       7    8 Sep 2021 09:38:33.943    8 Sep 2021 09:45:35.475           421.532
                       8    8 Sep 2021 10:31:05.527    8 Sep 2021 10:38:07.064           421.537
                       9    8 Sep 2021 11:23:37.119    8 Sep 2021 11:30:38.652           421.533
                      10    8 Sep 2021 12:16:08.704    8 Sep 2021 12:23:10.241           421.537
                      11    8 Sep 2021 13:08:40.295    8 Sep 2021 13:15:41.828           421.534
                      12    8 Sep 2021 14:01:11.881    8 Sep 2021 14:08:13.417           421.537
                      13    8 Sep 2021 14:53:43.471    8 Sep 2021 15:00:45.006           421.535
                      14    8 Sep 2021 15:46:15.058    8 Sep 2021 15:53:16.594           421.536
                      15    8 Sep 2021 16:38:46.647    8 Sep 2021 16:45:48.183           421.536
                      16    8 Sep 2021 17:31:18.235    8 Sep 2021 17:38:19.771           421.536
                      17    8 Sep 2021 18:23:49.823    8 Sep 2021 18:30:51.359           421.537
                      18    8 Sep 2021 19:16:21.414    8 Sep 2021 19:23:22.948           421.534
                      19    8 Sep 2021 20:08:52.999    8 Sep 2021 20:15:54.536           421.537
                      20    8 Sep 2021 21:01:24.590    8 Sep 2021 21:08:26.124           421.534
                      21    8 Sep 2021 21:53:56.176    8 Sep 2021 22:00:57.712           421.536
                      22    8 Sep 2021 22:46:27.769    8 Sep 2021 22:53:29.301           421.532
                      23    8 Sep 2021 23:38:59.353    8 Sep 2021 23:46:00.890           421.537
                      24    9 Sep 2021 00:31:30.945    9 Sep 2021 00:38:32.478           421.533
                      25    9 Sep 2021 01:24:02.530    9 Sep 2021 01:31:04.067           421.537
                      26    9 Sep 2021 02:16:34.121    9 Sep 2021 02:23:35.654           421.534
                      27    9 Sep 2021 03:09:05.707    9 Sep 2021 03:16:07.243           421.537

Min Duration           7    8 Sep 2021 09:38:33.943    8 Sep 2021 09:45:35.475           421.532
Max Duration           8    8 Sep 2021 10:31:05.527    8 Sep 2021 10:38:07.064           421.537
Mean Duration                                                                            421.535
Total Duration                                                                         11381.453


Satellite301-To-Satellite703
----------------------------
                  Access       Start Time (UTCG)           Stop Time (UTCG)       Duration (sec)
                  ------    -----------------------    -----------------------    --------------
                       1    8 Sep 2021 04:04:59.643    8 Sep 2021 04:16:00.970           661.327
                       2    8 Sep 2021 04:57:31.231    8 Sep 2021 05:08:32.556           661.325
                       3    8 Sep 2021 05:50:02.819    8 Sep 2021 06:01:04.147           661.329
                       4    8 Sep 2021 06:42:34.406    8 Sep 2021 06:53:35.737           661.331
