routing/visibility/v304.txt

Satellite304-To-Satellite104
----------------------------
                  Access       Start Time (UTCG)           Stop Time (UTCG)       Duration (sec)
                  ------    -----------------------    -----------------------    --------------
                       1    8 Sep 2021 04:42:00.423    8 Sep 2021 04:49:54.833           474.410
                       2    8 Sep 2021 05:34:32.010    8 Sep 2021 05:42:26.421           474.411
                       3    8 Sep 2021 06:27:03.603    8 Sep 2021 06:34:58.006           474.403
                       4    8 Sep 2021 07:19:35.187    8 Sep 2021 07:27:29.598           474.411
                       5    8 Sep 2021 08:12:06.775    8 Sep 2021 08:20:01.186           474.411
                       6    8 Sep 2021 09:04:38.365    8 Sep 2021 09:12:32.773           474.409
                       7    8 Sep 2021 09:57:09.955    8 Sep 2021 10:05:04.362           474.407
                       8    8 Sep 2021 10:49:41.545    8 Sep 2021 10:57:35.952           474.407
                       9    8 Sep 2021 11:42:13.129    8 Sep 2021 11:50:07.540           474.411
                      10    8 Sep 2021 12:34:44.719    8 Sep 2021 12:42:39.128           474.409
                      11    8 Sep 2021 13:27:16.306    8 Sep 2021 13:35:10.714           474.408
                      12    8 Sep 2021 14:19:47.894    8 Sep 2021 14:27:42.305           474.411
                      13    8 Sep 2021 15:12:19.483    8 Sep 2021 15:20:13.893           474.411
                      14    8 Sep 2021 16:04:51.072    8 Sep 2021 16:12:45.480           474.408
                      15    8 Sep 2021 16:57:22.664    8 Sep 2021 17:05:17.070           474.406
                      16    8 Sep 2021 17:49:54.252    8 Sep 2021 17:57:48.659           474.406
                      17    8 Sep 2021 18:42:25.836    8 Sep 2021 18:50:20.244           474.408
                      18    8 Sep 2021 19:34:57.429    8 Sep 2021 19:42:51.832           474.403
                      19    8 Sep 2021 20:27:29.014    8 Sep 2021 20:35:23.424           474.410
                      20    8 Sep 2021 21:20:00.601    8 Sep 2021 21:27:55.012           474.411
                      21    8 Sep 2021 22:12:32.190    8 Sep 2021 22:20:26.600           474.411
                      22    8 Sep 2021 23:05:03.780    8 Sep 2021 23:12:58.188           474.408
                      23    8 Sep 2021 23:57:35.369    9 Sep 2021 00:05:29.777           474.408
                      24    9 Sep 2021 00:50:06.956    9 Sep 2021 00:58:01.366           474.410
                      25    9 Sep 2021 01:42:38.543    9 Sep 2021 01:50:32.953           474.410
                      26    9 Sep 2021 02:35:10.136    9 Sep 2021 02:43:04.538           474.402
                      27    9 Sep 2021 03:27:41.722    9 Sep 2021 03:35:36.131           474.409

Min Duration          26    9 Sep 2021 02:35:10.136    9 Sep 2021 02:43:04.538           474.402
Max Duration           4    8 Sep 2021 07:19:35.187    8 Sep 2021 07:27:29.598           474.411
Mean Duration                                                                            474.408
Total Duration                                                                         12809.029


Satellite304-To-Satellite105
----------------------------
                  Access       Start Time (UTCG)           Stop Time (UTCG)       Duration (sec)
                  ------    -----------------------    -----------------------    --------------
                       1    8 Sep 2021 04:00:00.000    8 Sep 2021 04:03:04.020           184.020
                       2    8 Sep 2021 04:25:49.331    8 Sep 2021 04:55:35.609          1786.279
                       3    8 Sep 2021 05:18:20.916    8 Sep 2021 05:48:07.197          1786.281
                       4    8 Sep 2021 06:10:52.508    8 Sep 2021 06:40:38.786          1786.279
                       5    8 Sep 2021 07:03:24.093    8 Sep 2021 07:33:10.374          1786.281
                       6    8 Sep 2021 07:55:55.685    8 Sep 2021 08:25:41.963          1786.279
                       7    8 Sep 2021 08:48:27.270    8 Sep 2021 09:18:13.551          1786.281
                       8    8 Sep 2021 09:40:58.861    8 Sep 2021 10:10:45.140          1786.278
                       9    8 Sep 2021 10:33:30.447    8 Sep 2021 11:03:16.728          1786.281
                      10    8 Sep 2021 11:26:02.038    8 Sep 2021 11:55:48.317          1786.278
                      11    8 Sep 2021 12:18:33.623    8 Sep 2021 12:48:19.904          1786.281
                      12    8 Sep 2021 13:11:05.215    8 Sep 2021 13:40:51.493          1786.278
                      13    8 Sep 2021 14:03:36.800    8 Sep 2021 14:33:23.081          1786.281
                      14    8 Sep 2021 14:56:08.392    8 Sep 2021 15:25:54.670          1786.278
                      15    8 Sep 2021 15:48:39.977    8 Sep 2021 16:18:26.258          1786.281
                      16    8 Sep 2021 16:41:11.569    8 Sep 2021 17:10:57.847          1786.278
                      17    8 Sep 2021 17:33:43.154    8 Sep 2021 18:03:29.435          1786.281
                      18    8 Sep 2021 18:26:14.745    8 Sep 2021 18:56:01.024          1786.278
                      19    8 Sep 2021 19:18:46.331    8 Sep 2021 19:48:32.612          1786.281
                      20    8 Sep 2021 20:11:17.922    8 Sep 2021 20:41:04.201          1786.278
                      21    8 Sep 2021 21:03:49.507    8 Sep 2021 21:33:35.788          1786.281
                      22    8 Sep 2021 21:56:21.099    8 Sep 2021 22:26:07.377          1786.278
                      23    8 Sep 2021 22:48:52.684    8 Sep 2021 23:18:38.965          1786.281
                      24    8 Sep 2021 23:41:24.276    9 Sep 2021 00:11:10.554          1786.278
                      25    9 Sep 2021 00:33:55.861    9 Sep 2021 01:03:42.142          1786.281
                      26    9 Sep 2021 01:26:27.452    9 Sep 2021 01:56:13.731          1786.278
                      27    9 Sep 2021 02:18:59.038    9 Sep 2021 02:48:45.319          1786.281
                      28    9 Sep 2021 03:11:30.629    9 Sep 2021 03:41:16.908          1786.278

Min Duration           1    8 Sep 2021 04:00:00.000    8 Sep 2021 04:03:04.020           184.020
Max Duration          27    9 Sep 2021 02:18:59.038    9 Sep 2021 02:48:45.319          1786.281
Mean Duration                                                                           1729.056
Total Duration                                                                         48413.572


Satellite304-To-Satellite106
----------------------------
                  Access       Start Time (UTCG)           Stop Time (UTCG)       Duration (sec)
                  ------    -----------------------    -----------------------    --------------
                       1    8 Sep 2021 04:00:00.000    8 Sep 2021 04:01:46.371           106.371
                       2    8 Sep 2021 04:16:36.659    8 Sep 2021 04:54:17.961          2261.302
                       3    8 Sep 2021 05:09:08.248    8 Sep 2021 05:46:49.549          2261.301
                       4    8 Sep 2021 06:01:39.837    8 Sep 2021 06:39:21.138          2261.301
                       5    8 Sep 2021 06:54:11.425    8 Sep 2021 07:31:52.726          2261.301
                       6    8 Sep 2021 07:46:43.013    8 Sep 2021 08:24:24.315          2261.301
                       7    8 Sep 2021 08:39:14.602    8 Sep 2021 09:16:55.903          2261.301
                       8    8 Sep 2021 09:31:46.190    8 Sep 2021 10:09:27.491          2261.301
                       9    8 Sep 2021 10:24:17.779    8 Sep 2021 11:01:59.080          2261.301
                      10    8 Sep 2021 11:16:49.367    8 Sep 2021 11:54:30.668          2261.301
                      11    8 Sep 2021 12:09:20.955    8 Sep 2021 12:47:02.257          2261.301
                      12    8 Sep 2021 13:01:52.544    8 Sep 2021 13:39:33.845          2261.301
                      13    8 Sep 2021 13:54:24.132    8 Sep 2021 14:32:05.433          2261.301
                      14    8 Sep 2021 14:46:55.721    8 Sep 2021 15:24:37.022          2261.301
                      15    8 Sep 2021 15:39:27.309    8 Sep 2021 16:17:08.610          2261.301
                      16    8 Sep 2021 16:31:58.897    8 Sep 2021 17:09:40.199          2261.301
                      17    8 Sep 2021 17:24:30.486    8 Sep 2021 18:02:11.787          2261.301
                      18    8 Sep 2021 18:17:02.074    8 Sep 2021 18:54:43.375          2261.301
                      19    8 Sep 2021 19:09:33.662    8 Sep 2021 19:47:14.964          2261.301
                      20    8 Sep 2021 20:02:05.251    8 Sep 2021 20:39:46.552          2261.301
                      21    8 Sep 2021 20:54:36.839    8 Sep 2021 21:32:18.141          2261.301
                      22    8 Sep 2021 21:47:08.428    8 Sep 2021 22:24:49.729          2261.301
                      23    8 Sep 2021 22:39:40.016    8 Sep 2021 23:17:21.317          2261.301
                      24    8 Sep 2021 23:32:11.604    9 Sep 2021 00:09:52.906          2261.301
                      25    9 Sep 2021 00:24:43.193    9 Sep 2021 01:02:24.494          2261.301
                      26    9 Sep 2021 01:17:14.781    9 Sep 2021 01:54:56.083          2261.301
                      27    9 Sep 2021 02:09:46.370    9 Sep 2021 02:47:27.671          2261.301
                      28    9 Sep 2021 03:02:17.958    9 Sep 2021 03:39:59.259          2261.301
                      29    9 Sep 2021 03:54:49.546    9 Sep 2021 04:00:00.000           310.454

Min Duration           1    8 Sep 2021 04:00:00.000    8 Sep 2021 04:01:46.371           106.371
Max Duration           2    8 Sep 2021 04:16:36.659    8 Sep 2021 04:54:17.961          2261.302
Mean Duration                                                                           2119.723
Total Duration                                                                         61471.960


Satellite304-To-Satellite107
----------------------------
                  Access       Start Time (UTCG)           Stop Time (UTCG)       Duration (sec)
                  ------    -----------------------    -----------------------    --------------
                       1    8 Sep 2021 04:15:16.310    8 Sep 2021 04:45:07.996          1791.686
                       2    8 Sep 2021 05:07:47.897    8 Sep 2021 05:37:39.584          1791.687
                       3    8 Sep 2021 06:00:19.485    8 Sep 2021 06:30:11.172          1791.687
                       4    8 Sep 2021 06:52:51.073    8 Sep 2021 07:22:42.760          1791.687
                       5    8 Sep 2021 07:45:22.661    8 Sep 2021 08:15:14.348          1791.687
                       6    8 Sep 2021 08:37:54.249    8 Sep 2021 09:07:45.936          1791.687
                       7    8 Sep 2021 09:30:25.837    8 Sep 2021 10:00:17.524          1791.687
                       8    8 Sep 2021 10:22:57.426    8 Sep 2021 10:52:49.113          1791.687
                       9    8 Sep 2021 11:15:29.014    8 Sep 2021 11:45:20.701          1791.687
                      10    8 Sep 2021 12:08:00.602    8 Sep 2021 12:37:52.289          1791.687
                      11    8 Sep 2021 13:00:32.190    8 Sep 2021 13:30:23.877          1791.687
                      12    8 Sep 2021 13:53:03.778    8 Sep 2021 14:22:55.466          1791.687
                      13    8 Sep 2021 14:45:35.367    8 Sep 2021 15:15:27.052          1791.686
                      14    8 Sep 2021 15:38:06.958    8 Sep 2021 16:07:58.641          1791.682
                      15    8 Sep 2021 16:30:38.547    8 Sep 2021 17:00:30.229          1791.682
                      16    8 Sep 2021 17:23:10.135    8 Sep 2021 17:53:01.822          1791.687
                      17    8 Sep 2021 18:15:41.723    8 Sep 2021 18:45:33.410          1791.687
                      18    8 Sep 2021 19:08:13.311    8 Sep 2021 19:38:04.999          1791.687
                      19    8 Sep 2021 20:00:44.900    8 Sep 2021 20:30:36.587          1791.687
                      20    8 Sep 2021 20:53:16.488    8 Sep 2021 21:23:08.175          1791.687
                      21    8 Sep 2021 21:45:48.076    8 Sep 2021 22:15:39.763          1791.687
                      22    8 Sep 2021 22:38:19.664    8 Sep 2021 23:08:11.351          1791.687
                      23    8 Sep 2021 23:30:51.252    9 Sep 2021 00:00:42.939          1791.687
                      24    9 Sep 2021 00:23:22.840    9 Sep 2021 00:53:14.527          1791.687
                      25    9 Sep 2021 01:15:54.428    9 Sep 2021 01:45:46.115          1791.687
                      26    9 Sep 2021 02:08:26.017    9 Sep 2021 02:38:17.704          1791.687
                      27    9 Sep 2021 03:00:57.605    9 Sep 2021 03:30:49.292          1791.687
                      28    9 Sep 2021 03:53:29.193    9 Sep 2021 04:00:00.000           390.807

Min Duration          28    9 Sep 2021 03:53:29.193    9 Sep 2021 04:00:00.000           390.807
Max Duration          12    8 Sep 2021 13:53:03.778    8 Sep 2021 14:22:55.466          1791.687
Mean Duration                                                                           1741.655
Total Duration                                                                         48766.345


Satellite304-To-Satellite108
----------------------------
                  Access       Start Time (UTCG)           Stop Time (UTCG)       Duration (sec)
                  ------    -----------------------    -----------------------    --------------
                       1    8 Sep 2021 04:21:04.155    8 Sep 2021 04:28:49.829           465.674
                       2    8 Sep 2021 05:13:35.743    8 Sep 2021 05:21:21.418           465.675
                       3    8 Sep 2021 06:06:07.333    8 Sep 2021 06:13:53.002           465.670
                       4    8 Sep 2021 06:58:38.923    8 Sep 2021 07:06:24.595           465.671
                       5    8 Sep 2021 07:51:10.508    8 Sep 2021 07:58:56.183           465.675
                       6    8 Sep 2021 08:43:42.097    8 Sep 2021 08:51:27.772           465.674
                       7    8 Sep 2021 09:36:13.688    8 Sep 2021 09:43:59.360           465.672
                       8    8 Sep 2021 10:28:45.276    8 Sep 2021 10:36:30.948           465.671
                       9    8 Sep 2021 11:21:16.863    8 Sep 2021 11:29:02.536           465.674
                      10    8 Sep 2021 12:13:48.450    8 Sep 2021 12:21:34.125           465.675
                      11    8 Sep 2021 13:06:20.039    8 Sep 2021 13:14:05.709           465.670
                      12    8 Sep 2021 13:58:51.630    8 Sep 2021 14:06:37.302           465.671
                      13    8 Sep 2021 14:51:23.215    8 Sep 2021 14:59:08.890           465.675
                      14    8 Sep 2021 15:43:54.805    8 Sep 2021 15:51:40.479           465.674
                      15    8 Sep 2021 16:36:26.395    8 Sep 2021 16:44:12.067           465.672
                      16    8 Sep 2021 17:28:57.983    8 Sep 2021 17:36:43.655           465.671
                      17    8 Sep 2021 18:21:29.570    8 Sep 2021 18:29:15.244           465.674
                      18    8 Sep 2021 19:14:01.157    8 Sep 2021 19:21:46.832           465.675
                      19    8 Sep 2021 20:06:32.746    8 Sep 2021 20:14:18.416           465.670
                      20    8 Sep 2021 20:59:04.337    8 Sep 2021 21:06:50.009           465.672
                      21    8 Sep 2021 21:51:35.923    8 Sep 2021 21:59:21.598           465.675
                      22    8 Sep 2021 22:44:07.512    8 Sep 2021 22:51:53.186           465.674
                      23    8 Sep 2021 23:36:39.102    8 Sep 2021 23:44:24.774           465.672
                      24    9 Sep 2021 00:29:10.690    9 Sep 2021 00:36:56.362           465.672
                      25    9 Sep 2021 01:21:42.277    9 Sep 2021 01:29:27.951           465.674
                      26    9 Sep 2021 02:14:13.865    9 Sep 2021 02:21:59.539           465.675
                      27    9 Sep 2021 03:06:45.453    9 Sep 2021 03:14:31.123           465.670
                      28    9 Sep 2021 03:59:17.046    9 Sep 2021 04:00:00.000            42.954

Min Duration          28    9 Sep 2021 03:59:17.046    9 Sep 2021 04:00:00.000            42.954
Max Duration          26    9 Sep 2021 02:14:13.865    9 Sep 2021 02:21:59.539           465.675
Mean Duration                                                                            450.576
Total Duration                                                                         12616.122


Satellite304-To-Satellite204
----------------------------
                  Access       Start Time (UTCG)           Stop Time (UTCG)       Duration (sec)
                  ------    -----------------------    -----------------------    --------------
                       1    8 Sep 2021 04:00:00.000    9 Sep 2021 04:00:00.000         86400.000

Min Duration           1    8 Sep 2021 04:00:00.000    9 Sep 2021 04:00:00.000         86400.000
Max Duration           1    8 Sep 2021 04:00:00.000    9 Sep 2021 04:00:00.000         86400.000
Mean Duration                                                                          86400.000
Total Duration                                                                         86400.000


Satellite304-To-Satellite205
----------------------------
                  Access       Start Time (UTCG)           Stop Time (UTCG)       Duration (sec)
                  ------    -----------------------    -----------------------    --------------
                       1    8 Sep 2021 04:00:00.000    9 Sep 2021 04:00:00.000         86400.000

Min Duration           1    8 Sep 2021 04:00:00.000    9 Sep 2021 04:00:00.000         86400.000
Max Duration           1    8 Sep 2021 04:00:00.000    9 Sep 2021 04:00:00.000         86400.000
Mean Duration                                                                          86400.000
Total Duration                                                                         86400.000


Satellite304-To-Satellite206
----------------------------
                  Access       Start Time (UTCG)           Stop Time (UTCG)       Duration (sec)
                  ------    -----------------------    -----------------------    --------------
                       1    8 Sep 2021 04:00:00.000    9 Sep 2021 04:00:00.000         86400.000

Min Duration           1    8 Sep 2021 04:00:00.000    9 Sep 2021 04:00:00.000         86400.000
Max Duration           1    8 Sep 2021 04:00:00.000    9 Sep 2021 04:00:00.000         86400.000
Mean Duration                                                                          86400.000
Total Duration                                                                         86400.000


Satellite304-To-Satellite303
----------------------------
                  Access       Start Time (UTCG)           Stop Time (UTCG)       Duration (sec)
                  ------    -----------------------    -----------------------    --------------
                       1    8 Sep 2021 04:00:00.000    9 Sep 2021 04:00:00.000         86400.000

Min Duration           1    8 Sep 2021 04:00:00.000    9 Sep 2021 04:00:00.000         86400.000
Max Duration           1    8 Sep 2021 04:00:00.000    9 Sep 2021 04:00:00.000         86400.000
Mean Duration                                                                          86400.000
Total Duration                                                                         86400.000


Satellite304-To-Satellite305
----------------------------
                  Access       Start Time (UTCG)           Stop Time (UTCG)       Duration (sec)
                  ------    -----------------------    -----------------------    --------------
                       1    8 Sep 2021 04:00:00.000    9 Sep 2021 04:00:00.000         86400.000

Min Duration           1    8 Sep 2021 04:00:00.000    9 Sep 2021 04:00:00.000         86400.000
Max Duration           1    8 Sep 2021 04:00:00.000    9 Sep 2021 04:00:00.000         86400.000
Mean Duration                                                                          86400.000
Total Duration                                                                         86400.000


Satellite304-To-Satellite402
----------------------------
                  Access       Start Time (UTCG)           Stop Time (UTCG)       Duration (sec)
                  ------    -----------------------    -----------------------    --------------
                       1    8 Sep 2021 04:00:00.000    9 Sep 2021 04:00:00.000         86400.000

Min Duration           1    8 Sep 2021 04:00:00.000    9 Sep 2021 04:00:00.000         86400.000
Max Duration           1    8 Sep 2021 04:00:00.000    9 Sep 2021 04:00:00.000         86400.000
Mean Duration                                                                          86400.000
Total Duration                                                                         86400.000


Satellite304-To-Satellite403
----------------------------
                  Access       Start Time (UTCG)           Stop Time (UTCG)       Duration (sec)
                  ------    -----------------------    -----------------------    --------------
                       1    8 Sep 2021 04:00:00.000    9 Sep 2021 04:00:00.000         86400.000

Min Duration           1    8 Sep 2021 04:00:00.000    9 Sep 2021 04:00:00.000         86400.000
Max Duration           1    8 Sep 2021 04:00:00.000    9 Sep 2021 04:00:00.000         86400.000
Mean Duration                                                                          86400.000
Total Duration                                                                         86400.000


Satellite304-To-Satellite404
----------------------------
                  Access       Start Time (UTCG)           Stop Time (UTCG)       Duration (sec)
                  ------    -----------------------    -----------------------    --------------
                       1    8 Sep 2021 04:00:00.000    9 Sep 2021 04:00:00.000         86400.000

Min Duration           1    8 Sep 2021 04:00:00.000    9 Sep 2021 04:00:00.000         86400.000
Max Duration           1    8 Sep 2021 04:00:00.000    9 Sep 2021 04:00:00.000         86400.000
Mean Duration                                                                          86400.000
Total Duration                                                                         86400.000


Satellite304-To-Satellite501
----------------------------
                  Access       Start Time (UTCG)           Stop Time (UTCG)       Duration (sec)
                  ------    -----------------------    -----------------------    --------------
                       1    8 Sep 2021 04:00:00.000    8 Sep 2021 04:21:29.780          1289.780
                       2    8 Sep 2021 04:44:09.681    8 Sep 2021 05:14:01.368          1791.687
                       3    8 Sep 2021 05:36:41.269    8 Sep 2021 06:06:32.956          1791.687
                       4    8 Sep 2021 06:29:12.857    8 Sep 2021 06:59:04.544          1791.687
                       5    8 Sep 2021 07:21:44.445    8 Sep 2021 07:51:36.133          1791.687
                       6    8 Sep 2021 08:14:16.034    8 Sep 2021 08:44:07.721          1791.687
                       7    8 Sep 2021 09:06:47.622    8 Sep 2021 09:36:39.309          1791.687
                       8    8 Sep 2021 09:59:19.210    8 Sep 2021 10:29:10.897          1791.687
                       9    8 Sep 2021 10:51:50.798    8 Sep 2021 11:21:42.486          1791.687
                      10    8 Sep 2021 11:44:22.387    8 Sep 2021 12:14:14.072          1791.686
                      11    8 Sep 2021 12:36:53.979    8 Sep 2021 13:06:45.661          1791.682
                      12    8 Sep 2021 13:29:25.567    8 Sep 2021 13:59:17.254          1791.687
                      13    8 Sep 2021 14:21:57.155    8 Sep 2021 14:51:48.842          1791.687
                      14    8 Sep 2021 15:14:28.743    8 Sep 2021 15:44:20.430          1791.687
                      15    8 Sep 2021 16:07:00.331    8 Sep 2021 16:36:52.019          1791.687
                      16    8 Sep 2021 16:59:31.920    8 Sep 2021 17:29:23.607          1791.687
                      17    8 Sep 2021 17:52:03.508    8 Sep 2021 18:21:55.195          1791.687
                      18    8 Sep 2021 18:44:35.096    8 Sep 2021 19:14:26.783          1791.687
                      19    8 Sep 2021 19:37:06.684    8 Sep 2021 20:06:58.371          1791.687
                      20    8 Sep 2021 20:29:38.272    8 Sep 2021 20:59:29.959          1791.687
                      21    8 Sep 2021 21:22:09.860    8 Sep 2021 21:52:01.547          1791.687
                      22    8 Sep 2021 22:14:41.448    8 Sep 2021 22:44:33.135          1791.687
                      23    8 Sep 2021 23:07:13.036    8 Sep 2021 23:37:04.724          1791.687
                      24    8 Sep 2021 23:59:44.625    9 Sep 2021 00:29:36.312          1791.687
                      25    9 Sep 2021 00:52:16.213    9 Sep 2021 01:22:07.900          1791.687
                      26    9 Sep 2021 01:44:47.801    9 Sep 2021 02:14:39.488          1791.687
                      27    9 Sep 2021 02:37:19.389    9 Sep 2021 03:07:11.075          1791.686
                      28    9 Sep 2021 03:29:50.981    9 Sep 2021 03:59:42.665          1791.684

Min Duration           1    8 Sep 2021 04:00:00.000    8 Sep 2021 04:21:29.780          1289.780
Max Duration           9    8 Sep 2021 10:51:50.798    8 Sep 2021 11:21:42.486          1791.687
Mean Duration                                                                           1773.761
Total Duration                                                                         49665.321


Satellite304-To-Satellite502
----------------------------
                  Access       Start Time (UTCG)           Stop Time (UTCG)       Duration (sec)
                  ------    -----------------------    -----------------------    --------------
                       1    8 Sep 2021 04:00:00.000    8 Sep 2021 04:20:09.429          1209.429
                       2    8 Sep 2021 04:34:59.716    8 Sep 2021 05:12:41.017          2261.301
                       3    8 Sep 2021 05:27:31.304    8 Sep 2021 06:05:12.605          2261.301
                       4    8 Sep 2021 06:20:02.893    8 Sep 2021 06:57:44.194          2261.301
                       5    8 Sep 2021 07:12:34.481    8 Sep 2021 07:50:15.782          2261.301
                       6    8 Sep 2021 08:05:06.069    8 Sep 2021 08:42:47.371          2261.301
                       7    8 Sep 2021 08:57:37.658    8 Sep 2021 09:35:18.959          2261.301
                       8    8 Sep 2021 09:50:09.246    8 Sep 2021 10:27:50.547          2261.301
                       9    8 Sep 2021 10:42:40.834    8 Sep 2021 11:20:22.136          2261.301
                      10    8 Sep 2021 11:35:12.423    8 Sep 2021 12:12:53.724          2261.301
                      11    8 Sep 2021 12:27:44.011    8 Sep 2021 13:05:25.313          2261.301
                      12    8 Sep 2021 13:20:15.600    8 Sep 2021 13:57:56.901          2261.301
                      13    8 Sep 2021 14:12:47.188    8 Sep 2021 14:50:28.489          2261.301
                      14    8 Sep 2021 15:05:18.776    8 Sep 2021 15:43:00.078          2261.301
                      15    8 Sep 2021 15:57:50.365    8 Sep 2021 16:35:31.666          2261.301
                      16    8 Sep 2021 16:50:21.953    8 Sep 2021 17:28:03.255          2261.301
                      17    8 Sep 2021 17:42:53.542    8 Sep 2021 18:20:34.843          2261.301
                      18    8 Sep 2021 18:35:25.130    8 Sep 2021 19:13:06.431          2261.301
                      19    8 Sep 2021 19:27:56.718    8 Sep 2021 20:05:38.020          2261.301
                      20    8 Sep 2021 20:20:28.307    8 Sep 2021 20:58:09.608          2261.301
                      21    8 Sep 2021 21:12:59.895    8 Sep 2021 21:50:41.196          2261.301
                      22    8 Sep 2021 22:05:31.484    8 Sep 2021 22:43:12.785          2261.301
                      23    8 Sep 2021 22:58:03.072    8 Sep 2021 23:35:44.373          2261.301
                      24    8 Sep 2021 23:50:34.660    9 Sep 2021 00:28:15.962          2261.301
                      25    9 Sep 2021 00:43:06.249    9 Sep 2021 01:20:47.550          2261.301
                      26    9 Sep 2021 01:35:37.837    9 Sep 2021 02:13:19.138          2261.301
                      27    9 Sep 2021 02:28:09.426    9 Sep 2021 03:05:50.727          2261.301
                      28    9 Sep 2021 03:20:41.014    9 Sep 2021 03:58:22.315          2261.301

Min Duration           1    8 Sep 2021 04:00:00.000    8 Sep 2021 04:20:09.429          1209.429
Max Duration           2    8 Sep 2021 04:34:59.716    8 Sep 2021 05:12:41.017          2261.301
Mean Duration                                                                           2223.734
Total Duration                                                                         62264.563


Satellite304-To-Satellite503
----------------------------
                  Access       Start Time (UTCG)           Stop Time (UTCG)       Duration (sec)
                  ------    -----------------------    -----------------------    --------------
                       1    8 Sep 2021 04:00:00.000    8 Sep 2021 04:10:56.758           656.758
                       2    8 Sep 2021 04:33:42.069    8 Sep 2021 05:03:28.348          1786.279
                       3    8 Sep 2021 05:26:13.654    8 Sep 2021 05:55:59.935          1786.281
                       4    8 Sep 2021 06:18:45.246    8 Sep 2021 06:48:31.525          1786.279
                       5    8 Sep 2021 07:11:16.831    8 Sep 2021 07:41:03.112          1786.281
                       6    8 Sep 2021 08:03:48.423    8 Sep 2021 08:33:34.701          1786.279
                       7    8 Sep 2021 08:56:20.008    8 Sep 2021 09:26:06.289          1786.281
                       8    8 Sep 2021 09:48:51.600    8 Sep 2021 10:18:37.878          1786.279
                       9    8 Sep 2021 10:41:23.185    8 Sep 2021 11:11:09.466          1786.281
                      10    8 Sep 2021 11:33:54.776    8 Sep 2021 12:03:41.055          1786.279
                      11    8 Sep 2021 12:26:26.362    8 Sep 2021 12:56:12.643          1786.281
                      12    8 Sep 2021 13:18:57.953    8 Sep 2021 13:48:44.232          1786.279
                      13    8 Sep 2021 14:11:29.538    8 Sep 2021 14:41:15.819          1786.281
                      14    8 Sep 2021 15:04:01.130    8 Sep 2021 15:33:47.408          1786.279
                      15    8 Sep 2021 15:56:32.715    8 Sep 2021 16:26:18.996          1786.281
                      16    8 Sep 2021 16:49:04.307    8 Sep 2021 17:18:50.585          1786.278
                      17    8 Sep 2021 17:41:35.892    8 Sep 2021 18:11:22.173          1786.281
                      18    8 Sep 2021 18:34:07.484    8 Sep 2021 19:03:53.762          1786.278
                      19    8 Sep 2021 19:26:39.069    8 Sep 2021 19:56:25.350          1786.281
                      20    8 Sep 2021 20:19:10.660    8 Sep 2021 20:48:56.939          1786.278
                      21    8 Sep 2021 21:11:42.246    8 Sep 2021 21:41:28.527          1786.281
                      22    8 Sep 2021 22:04:13.837    8 Sep 2021 22:34:00.116          1786.278
                      23    8 Sep 2021 22:56:45.422    8 Sep 2021 23:26:31.703          1786.281
                      24    8 Sep 2021 23:49:17.014    9 Sep 2021 00:19:03.292          1786.278
                      25    9 Sep 2021 00:41:48.599    9 Sep 2021 01:11:34.880          1786.281
                      26    9 Sep 2021 01:34:20.191    9 Sep 2021 02:04:06.469          1786.278
                      27    9 Sep 2021 02:26:51.776    9 Sep 2021 02:56:38.057          1786.281
                      28    9 Sep 2021 03:19:23.368    9 Sep 2021 03:49:09.646          1786.278

Min Duration           1    8 Sep 2021 04:00:00.000    8 Sep 2021 04:10:56.758           656.758
Max Duration          27    9 Sep 2021 02:26:51.776    9 Sep 2021 02:56:38.057          1786.281
Mean Duration                                                                           1745.940
Total Duration                                                                         48886.310


Satellite304-To-Satellite504
----------------------------
                  Access       Start Time (UTCG)           Stop Time (UTCG)       Duration (sec)
                  ------    -----------------------    -----------------------    --------------
                       1    8 Sep 2021 04:39:22.843    8 Sep 2021 04:47:17.253           474.411
                       2    8 Sep 2021 05:31:54.432    8 Sep 2021 05:39:48.840           474.408
                       3    8 Sep 2021 06:24:26.024    8 Sep 2021 06:32:20.430           474.406
                       4    8 Sep 2021 07:16:57.612    8 Sep 2021 07:24:52.019           474.406
                       5    8 Sep 2021 08:09:29.196    8 Sep 2021 08:17:23.605           474.409
                       6    8 Sep 2021 09:02:00.789    8 Sep 2021 09:09:55.191           474.402
                       7    8 Sep 2021 09:54:32.374    8 Sep 2021 10:02:26.784           474.410
                       8    8 Sep 2021 10:47:03.961    8 Sep 2021 10:54:58.372           474.411
                       9    8 Sep 2021 11:39:35.550    8 Sep 2021 11:47:29.960           474.411
                      10    8 Sep 2021 12:32:07.140    8 Sep 2021 12:40:01.548           474.408
                      11    8 Sep 2021 13:24:38.729    8 Sep 2021 13:32:33.137           474.408
                      12    8 Sep 2021 14:17:10.316    8 Sep 2021 14:25:04.726           474.410
                      13    8 Sep 2021 15:09:41.903    8 Sep 2021 15:17:36.313           474.410
                      14    8 Sep 2021 16:02:13.496    8 Sep 2021 16:10:07.898           474.402
                      15    8 Sep 2021 16:54:45.083    8 Sep 2021 17:02:39.491           474.408
                      16    8 Sep 2021 17:47:16.668    8 Sep 2021 17:55:11.079           474.411
                      17    8 Sep 2021 18:39:48.257    8 Sep 2021 18:47:42.667           474.410
                      18    8 Sep 2021 19:32:19.848    8 Sep 2021 19:40:14.255           474.408
                      19    8 Sep 2021 20:24:51.437    8 Sep 2021 20:32:45.844           474.407
                      20    8 Sep 2021 21:17:23.023    8 Sep 2021 21:25:17.433           474.410
                      21    8 Sep 2021 22:09:54.610    8 Sep 2021 22:17:49.021           474.411
                      22    8 Sep 2021 23:02:26.203    8 Sep 2021 23:10:20.606           474.403
                      23    8 Sep 2021 23:54:57.787    9 Sep 2021 00:02:52.198           474.411
                      24    9 Sep 2021 00:47:29.375    9 Sep 2021 00:55:23.786           474.411
                      25    9 Sep 2021 01:40:00.965    9 Sep 2021 01:47:55.373           474.409
                      26    9 Sep 2021 02:32:32.556    9 Sep 2021 02:40:26.963           474.407
                      27    9 Sep 2021 03:25:04.145    9 Sep 2021 03:32:58.552           474.407

Min Duration          14    8 Sep 2021 16:02:13.496    8 Sep 2021 16:10:07.898           474.402
Max Duration          23    8 Sep 2021 23:54:57.787    9 Sep 2021 00:02:52.198           474.411
Mean Duration                                                                            474.408
Total Duration                                                                         12809.024


Satellite304-To-Satellite510
----------------------------
                  Access       Start Time (UTCG)           Stop Time (UTCG)       Duration (sec)
                  ------    -----------------------    -----------------------    --------------
                       1    8 Sep 2021 04:07:56.262    8 Sep 2021 04:15:41.932           465.670
                       2    8 Sep 2021 05:00:27.848    8 Sep 2021 05:08:13.520           465.672
                       3    8 Sep 2021 05:52:59.435    8 Sep 2021 06:00:45.109           465.674
                       4    8 Sep 2021 06:45:31.023    8 Sep 2021 06:53:16.698           465.675
                       5    8 Sep 2021 07:38:02.611    8 Sep 2021 07:45:48.281           465.670
                       6    8 Sep 2021 08:30:34.199    8 Sep 2021 08:38:19.873           465.673
                       7    8 Sep 2021 09:23:05.788    8 Sep 2021 09:30:51.463           465.675
                       8    8 Sep 2021 10:15:37.377    8 Sep 2021 10:23:23.051           465.674
                       9    8 Sep 2021 11:08:08.969    8 Sep 2021 11:15:54.639           465.670
                      10    8 Sep 2021 12:00:40.555    8 Sep 2021 12:08:26.227           465.672
                      11    8 Sep 2021 12:53:12.142    8 Sep 2021 13:00:57.816           465.674
                      12    8 Sep 2021 13:45:43.730    8 Sep 2021 13:53:29.405           465.675
                      13    8 Sep 2021 14:38:15.319    8 Sep 2021 14:46:00.989           465.669
                      14    8 Sep 2021 15:30:46.907    8 Sep 2021 15:38:32.580           465.673
                      15    8 Sep 2021 16:23:18.495    8 Sep 2021 16:31:04.170           465.675
                      16    8 Sep 2021 17:15:50.087    8 Sep 2021 17:23:35.758           465.672
                      17    8 Sep 2021 18:08:21.676    8 Sep 2021 18:16:07.346           465.670
                      18    8 Sep 2021 19:00:53.262    8 Sep 2021 19:08:38.934           465.672
                      19    8 Sep 2021 19:53:24.849    8 Sep 2021 20:01:10.523           465.674
                      20    8 Sep 2021 20:45:56.437    8 Sep 2021 20:53:42.112           465.675
                      21    8 Sep 2021 21:38:28.030    8 Sep 2021 21:46:13.696           465.666
                      22    8 Sep 2021 22:30:59.614    8 Sep 2021 22:38:45.286           465.673
                      23    8 Sep 2021 23:23:31.203    8 Sep 2021 23:31:16.877           465.675
                      24    9 Sep 2021 00:16:02.794    9 Sep 2021 00:23:48.465           465.672
                      25    9 Sep 2021 01:08:34.383    9 Sep 2021 01:16:20.053           465.670
                      26    9 Sep 2021 02:01:05.969    9 Sep 2021 02:08:51.641           465.672
                      27    9 Sep 2021 02:53:37.556    9 Sep 2021 03:01:23.231           465.674
                      28    9 Sep 2021 03:46:09.144    9 Sep 2021 03:53:54.819           465.675

Min Duration          21    8 Sep 2021 21:38:28.030    8 Sep 2021 21:46:13.696           465.666
Max Duration           4    8 Sep 2021 06:45:31.023    8 Sep 2021 06:53:16.698           465.675
Mean Duration                                                                            465.673
Total Duration                                                                         13038.832


Satellite304-To-Satellite601
----------------------------
                  Access       Start Time (UTCG)           Stop Time (UTCG)       Duration (sec)
                  ------    -----------------------    -----------------------    --------------
                       1    8 Sep 2021 04:00:00.000    8 Sep 2021 04:18:20.149          1100.149
                       2    8 Sep 2021 04:46:00.521    8 Sep 2021 05:10:51.742          1491.221
                       3    8 Sep 2021 05:38:32.106    8 Sep 2021 06:03:23.327          1491.221
                       4    8 Sep 2021 06:31:03.698    8 Sep 2021 06:55:54.919          1491.221
                       5    8 Sep 2021 07:23:35.283    8 Sep 2021 07:48:26.503          1491.221
                       6    8 Sep 2021 08:16:06.875    8 Sep 2021 08:40:58.096          1491.221
                       7    8 Sep 2021 09:08:38.459    8 Sep 2021 09:33:29.680          1491.221
                       8    8 Sep 2021 10:01:10.052    8 Sep 2021 10:26:01.272          1491.221
                       9    8 Sep 2021 10:53:41.636    8 Sep 2021 11:18:32.857          1491.221
                      10    8 Sep 2021 11:46:13.228    8 Sep 2021 12:11:04.449          1491.221
                      11    8 Sep 2021 12:38:44.813    8 Sep 2021 13:03:36.034          1491.221
                      12    8 Sep 2021 13:31:16.405    8 Sep 2021 13:56:07.626          1491.221
                      13    8 Sep 2021 14:23:47.990    8 Sep 2021 14:48:39.211          1491.221
                      14    8 Sep 2021 15:16:19.582    8 Sep 2021 15:41:10.803          1491.221
                      15    8 Sep 2021 16:08:51.166    8 Sep 2021 16:33:42.387          1491.221
                      16    8 Sep 2021 17:01:22.759    8 Sep 2021 17:26:13.980          1491.221
                      17    8 Sep 2021 17:53:54.343    8 Sep 2021 18:18:45.564          1491.221
                      18    8 Sep 2021 18:46:25.935    8 Sep 2021 19:11:17.156          1491.221
                      19    8 Sep 2021 19:38:57.520    8 Sep 2021 20:03:48.741          1491.221
                      20    8 Sep 2021 20:31:29.112    8 Sep 2021 20:56:20.333          1491.221
                      21    8 Sep 2021 21:24:00.697    8 Sep 2021 21:48:51.918          1491.221
                      22    8 Sep 2021 22:16:32.289    8 Sep 2021 22:41:23.510          1491.221
                      23    8 Sep 2021 23:09:03.874    8 Sep 2021 23:33:55.094          1491.221
                      24    9 Sep 2021 00:01:35.466    9 Sep 2021 00:26:26.687          1491.221
                      25    9 Sep 2021 00:54:07.050    9 Sep 2021 01:18:58.271          1491.221
                      26    9 Sep 2021 01:46:38.643    9 Sep 2021 02:11:29.864          1491.221
                      27    9 Sep 2021 02:39:10.227    9 Sep 2021 03:04:01.448          1491.221
                      28    9 Sep 2021 03:31:41.819    9 Sep 2021 03:56:33.040          1491.221

Min Duration           1    8 Sep 2021 04:00:00.000    8 Sep 2021 04:18:20.149          1100.149
Max Duration           2    8 Sep 2021 04:46:00.521    8 Sep 2021 05:10:51.742          1491.221
Mean Duration                                                                           1477.254
Total Duration                                                                         41363.114


Satellite304-To-Satellite602
----------------------------
                  Access       Start Time (UTCG)           Stop Time (UTCG)       Duration (sec)
                  ------    -----------------------    -----------------------    --------------
                       1    8 Sep 2021 04:00:00.000    8 Sep 2021 04:10:21.398           621.398
                       2    8 Sep 2021 04:43:28.959    8 Sep 2021 05:02:52.984          1164.024
                       3    8 Sep 2021 05:36:00.548    8 Sep 2021 05:55:24.574          1164.027
                       4    8 Sep 2021 06:28:32.133    8 Sep 2021 06:47:56.161          1164.028
                       5    8 Sep 2021 07:21:03.725    8 Sep 2021 07:40:27.749          1164.025
                       6    8 Sep 2021 08:13:35.309    8 Sep 2021 08:32:59.336          1164.027
                       7    8 Sep 2021 09:06:06.900    8 Sep 2021 09:25:30.925          1164.025
                       8    8 Sep 2021 09:58:38.488    8 Sep 2021 10:18:02.515          1164.027
                       9    8 Sep 2021 10:51:10.078    8 Sep 2021 11:10:34.102          1164.024
                      10    8 Sep 2021 11:43:41.664    8 Sep 2021 12:03:05.690          1164.026
                      11    8 Sep 2021 12:36:13.253    8 Sep 2021 12:55:37.279          1164.025
                      12    8 Sep 2021 13:28:44.843    8 Sep 2021 13:48:08.868          1164.025
                      13    8 Sep 2021 14:21:16.432    8 Sep 2021 14:40:40.457          1164.025
                      14    8 Sep 2021 15:13:48.019    8 Sep 2021 15:33:12.048          1164.029
                      15    8 Sep 2021 16:06:19.607    8 Sep 2021 16:25:43.633          1164.026
                      16    8 Sep 2021 16:58:51.197    8 Sep 2021 17:18:15.221          1164.024
                      17    8 Sep 2021 17:51:22.783    8 Sep 2021 18:10:46.809          1164.026
                      18    8 Sep 2021 18:43:54.372    8 Sep 2021 19:03:18.397          1164.025
                      19    8 Sep 2021 19:36:25.961    8 Sep 2021 19:55:49.987          1164.027
                      20    8 Sep 2021 20:28:57.551    8 Sep 2021 20:48:21.575          1164.024
                      21    8 Sep 2021 21:21:29.137    8 Sep 2021 21:40:53.163          1164.026
                      22    8 Sep 2021 22:14:00.726    8 Sep 2021 22:33:24.751          1164.025
                      23    8 Sep 2021 23:06:32.314    8 Sep 2021 23:25:56.340          1164.026
                      24    8 Sep 2021 23:59:03.904    9 Sep 2021 00:18:27.927          1164.023
                      25    9 Sep 2021 00:51:35.491    9 Sep 2021 01:10:59.515          1164.024
                      26    9 Sep 2021 01:44:07.080    9 Sep 2021 02:03:31.106          1164.026
                      27    9 Sep 2021 02:36:38.669    9 Sep 2021 02:56:02.694          1164.024
                      28    9 Sep 2021 03:29:10.255    9 Sep 2021 03:48:34.281          1164.026

Min Duration           1    8 Sep 2021 04:00:00.000    8 Sep 2021 04:10:21.398           621.398
Max Duration          14    8 Sep 2021 15:13:48.019    8 Sep 2021 15:33:12.048          1164.029
Mean Duration                                                                           1144.646
Total Duration                                                                         32050.087


Satellite304-To-Satellite603
----------------------------
                  Access       Start Time (UTCG)           Stop Time (UTCG)       Duration (sec)
                  ------    -----------------------    -----------------------    --------------
                       1    8 Sep 2021 04:44:25.044    8 Sep 2021 04:51:26.580           421.536
                       2    8 Sep 2021 05:36:56.632    8 Sep 2021 05:43:58.169           421.537
                       3    8 Sep 2021 06:29:28.223    8 Sep 2021 06:36:29.757           421.534
                       4    8 Sep 2021 07:21:59.809    8 Sep 2021 07:29:01.346           421.537
                       5    8 Sep 2021 08:14:31.400    8 Sep 2021 08:21:32.934           421.534
                       6    8 Sep 2021 09:07:02.985    8 Sep 2021 09:14:04.521           421.536
                       7    8 Sep 2021 09:59:34.578    8 Sep 2021 10:06:36.110           421.532
                       8    8 Sep 2021 10:52:06.162    8 Sep 2021 10:59:07.699           421.537
                       9    8 Sep 2021 11:44:37.754    8 Sep 2021 11:51:39.287           421.533
                      10    8 Sep 2021 12:37:09.339    8 Sep 2021 12:44:10.876           421.537
                      11    8 Sep 2021 13:29:40.930    8 Sep 2021 13:36:42.464           421.534
                      12    8 Sep 2021 14:22:12.516    8 Sep 2021 14:29:14.053           421.537
                      13    8 Sep 2021 15:14:44.106    8 Sep 2021 15:21:45.641           421.535
                      14    8 Sep 2021 16:07:15.693    8 Sep 2021 16:14:17.230           421.536
                      15    8 Sep 2021 16:59:47.282    8 Sep 2021 17:06:48.818           421.536
                      16    8 Sep 2021 17:52:18.872    8 Sep 2021 17:59:20.406           421.534
                      17    8 Sep 2021 18:44:50.458    8 Sep 2021 18:51:51.995           421.537
                      18    8 Sep 2021 19:37:22.049    8 Sep 2021 19:44:23.583           421.534
                      19    8 Sep 2021 20:29:53.635    8 Sep 2021 20:36:55.172           421.537
                      20    8 Sep 2021 21:22:25.225    8 Sep 2021 21:29:26.760           421.534
                      21    8 Sep 2021 22:14:56.811    8 Sep 2021 22:21:58.347           421.536
                      22    8 Sep 2021 23:07:28.404    8 Sep 2021 23:14:29.936           421.532
                      23    8 Sep 2021 23:59:59.988    9 Sep 2021 00:07:01.525           421.537
                      24    9 Sep 2021 00:52:31.580    9 Sep 2021 00:59:33.113           421.533
                      25    9 Sep 2021 01:45:03.165    9 Sep 2021 01:52:04.702           421.537
                      26    9 Sep 2021 02:37:34.756    9 Sep 2021 02:44:36.290           421.534
                      27    9 Sep 2021 03:30:06.342    9 Sep 2021 03:37:07.879           421.537

Min Duration           7    8 Sep 2021 09:59:34.578    8 Sep 2021 10:06:36.110           421.532
Max Duration           8    8 Sep 2021 10:52:06.162    8 Sep 2021 10:59:07.699           421.537
Mean Duration                                                                            421.535
Total Duration                                                                         11381.451


Satellite304-To-Satellite608
----------------------------
                  Access       Start Time (UTCG)           Stop Time (UTCG)       Duration (sec)
                  ------    -----------------------    -----------------------    --------------
                       1    8 Sep 2021 04:18:42.765    8 Sep 2021 04:24:37.274           354.510
                       2    8 Sep 2021 05:11:14.354    8 Sep 2021 05:17:08.864           354.510
                       3    8 Sep 2021 06:03:45.937    8 Sep 2021 06:09:40.452           354.514
                       4    8 Sep 2021 06:56:17.526    8 Sep 2021 07:02:12.038           354.511
                       5    8 Sep 2021 07:48:49.118    8 Sep 2021 07:54:43.628           354.510
                       6    8 Sep 2021 08:41:20.702    8 Sep 2021 08:47:15.217           354.515
                       7    8 Sep 2021 09:33:52.291    8 Sep 2021 09:39:46.801           354.510
                       8    8 Sep 2021 10:26:23.883    8 Sep 2021 10:32:18.393           354.510
                       9    8 Sep 2021 11:18:55.472    8 Sep 2021 11:24:49.982           354.510
                      10    8 Sep 2021 12:11:27.060    8 Sep 2021 12:17:21.570           354.511
                      11    8 Sep 2021 13:03:58.645    8 Sep 2021 13:09:53.156           354.511
                      12    8 Sep 2021 13:56:30.236    8 Sep 2021 14:02:24.747           354.511
                      13    8 Sep 2021 14:49:01.821    8 Sep 2021 14:54:56.336           354.515
                      14    8 Sep 2021 15:41:33.410    8 Sep 2021 15:47:27.919           354.510
                      15    8 Sep 2021 16:34:05.001    8 Sep 2021 16:39:59.512           354.511
                      16    8 Sep 2021 17:26:36.590    8 Sep 2021 17:32:31.101           354.511
                      17    8 Sep 2021 18:19:08.177    8 Sep 2021 18:25:02.689           354.512
                      18    8 Sep 2021 19:11:39.764    8 Sep 2021 19:17:34.275           354.511
                      19    8 Sep 2021 20:04:11.355    8 Sep 2021 20:10:05.866           354.511
                      20    8 Sep 2021 20:56:42.940    8 Sep 2021 21:02:37.455           354.515
                      21    8 Sep 2021 21:49:14.528    8 Sep 2021 21:55:09.038           354.510
                      22    8 Sep 2021 22:41:46.120    8 Sep 2021 22:47:40.630           354.511
                      23    8 Sep 2021 23:34:17.709    8 Sep 2021 23:40:12.220           354.511
                      24    9 Sep 2021 00:26:49.296    9 Sep 2021 00:32:43.808           354.512
                      25    9 Sep 2021 01:19:20.882    9 Sep 2021 01:25:15.393           354.511
                      26    9 Sep 2021 02:11:52.474    9 Sep 2021 02:17:46.985           354.511
                      27    9 Sep 2021 03:04:24.059    9 Sep 2021 03:10:18.573           354.515
                      28    9 Sep 2021 03:56:55.647    9 Sep 2021 04:00:00.000           184.353

Min Duration          28    9 Sep 2021 03:56:55.647    9 Sep 2021 04:00:00.000           184.353
Max Duration           6    8 Sep 2021 08:41:20.702    8 Sep 2021 08:47:15.217           354.515
Mean Duration                                                                            348.434
Total Duration                                                                          9756.160


Satellite304-To-Satellite609
----------------------------
                  Access       Start Time (UTCG)           Stop Time (UTCG)       Duration (sec)
                  ------    -----------------------    -----------------------    --------------
                       1    8 Sep 2021 04:06:52.377    8 Sep 2021 04:25:57.343          1144.966
                       2    8 Sep 2021 04:59:23.961    8 Sep 2021 05:18:28.931          1144.970
                       3    8 Sep 2021 05:51:55.550    8 Sep 2021 06:11:00.520          1144.969
                       4    8 Sep 2021 06:44:27.139    8 Sep 2021 07:03:32.108          1144.969
                       5    8 Sep 2021 07:36:58.728    8 Sep 2021 07:56:03.696          1144.969
                       6    8 Sep 2021 08:29:30.316    8 Sep 2021 08:48:35.285          1144.969
                       7    8 Sep 2021 09:22:01.905    8 Sep 2021 09:41:06.873          1144.968
                       8    8 Sep 2021 10:14:33.493    8 Sep 2021 10:33:38.462          1144.968
                       9    8 Sep 2021 11:07:05.082    8 Sep 2021 11:26:10.050          1144.968
                      10    8 Sep 2021 11:59:36.670    8 Sep 2021 12:18:41.638          1144.968
                      11    8 Sep 2021 12:52:08.259    8 Sep 2021 13:11:13.227          1144.968
                      12    8 Sep 2021 13:44:39.847    8 Sep 2021 14:03:44.815          1144.968
                      13    8 Sep 2021 14:37:11.435    8 Sep 2021 14:56:16.404          1144.968
                      14    8 Sep 2021 15:29:43.024    8 Sep 2021 15:48:47.992          1144.968
                      15    8 Sep 2021 16:22:14.612    8 Sep 2021 16:41:19.580          1144.968
                      16    8 Sep 2021 17:14:46.201    8 Sep 2021 17:33:51.169          1144.968
                      17    8 Sep 2021 18:07:17.789    8 Sep 2021 18:26:22.757          1144.968
                      18    8 Sep 2021 18:59:49.377    8 Sep 2021 19:18:54.346          1144.968
                      19    8 Sep 2021 19:52:20.966    8 Sep 2021 20:11:25.934          1144.968
                      20    8 Sep 2021 20:44:52.554    8 Sep 2021 21:03:57.522          1144.968
                      21    8 Sep 2021 21:37:24.143    8 Sep 2021 21:56:29.111          1144.968
                      22    8 Sep 2021 22:29:55.731    8 Sep 2021 22:49:00.699          1144.968
                      23    8 Sep 2021 23:22:27.319    8 Sep 2021 23:41:32.288          1144.968
                      24    9 Sep 2021 00:14:58.908    9 Sep 2021 00:34:03.876          1144.968
                      25    9 Sep 2021 01:07:30.496    9 Sep 2021 01:26:35.464          1144.968
                      26    9 Sep 2021 02:00:02.084    9 Sep 2021 02:19:07.053          1144.968
                      27    9 Sep 2021 02:52:33.673    9 Sep 2021 03:11:38.641          1144.968
                      28    9 Sep 2021 03:45:05.261    9 Sep 2021 04:00:00.000           894.739

Min Duration          28    9 Sep 2021 03:45:05.261    9 Sep 2021 04:00:00.000           894.739
Max Duration           2    8 Sep 2021 04:59:23.961    8 Sep 2021 05:18:28.931          1144.970
Mean Duration                                                                           1136.032
Total Duration                                                                         31808.884


Satellite304-To-Satellite610
----------------------------
                  Access       Start Time (UTCG)           Stop Time (UTCG)       Duration (sec)
                  ------    -----------------------    -----------------------    --------------
                       1    8 Sep 2021 04:00:00.000    8 Sep 2021 04:23:32.335          1412.335
                       2    8 Sep 2021 04:51:18.653    8 Sep 2021 05:16:03.927          1485.273
                       3    8 Sep 2021 05:43:50.238    8 Sep 2021 06:08:35.511          1485.273
                       4    8 Sep 2021 06:36:21.829    8 Sep 2021 07:01:07.103          1485.274
                       5    8 Sep 2021 07:28:53.418    8 Sep 2021 07:53:38.688          1485.270
                       6    8 Sep 2021 08:21:25.006    8 Sep 2021 08:46:10.280          1485.274
                       7    8 Sep 2021 09:13:56.596    8 Sep 2021 09:38:41.865          1485.269
                       8    8 Sep 2021 10:06:28.183    8 Sep 2021 10:31:13.457          1485.274
                       9    8 Sep 2021 10:58:59.773    8 Sep 2021 11:23:45.042          1485.268
                      10    8 Sep 2021 11:51:31.360    8 Sep 2021 12:16:16.634          1485.274
                      11    8 Sep 2021 12:44:02.950    8 Sep 2021 13:08:48.218          1485.268
                      12    8 Sep 2021 13:36:34.536    8 Sep 2021 14:01:19.810          1485.274
                      13    8 Sep 2021 14:29:06.127    8 Sep 2021 14:53:51.395          1485.268
                      14    8 Sep 2021 15:21:37.713    8 Sep 2021 15:46:22.987          1485.274
                      15    8 Sep 2021 16:14:09.304    8 Sep 2021 16:38:54.572          1485.268
                      16    8 Sep 2021 17:06:40.890    8 Sep 2021 17:31:26.164          1485.274
                      17    8 Sep 2021 17:59:12.480    8 Sep 2021 18:23:57.749          1485.268
                      18    8 Sep 2021 18:51:44.067    8 Sep 2021 19:16:29.341          1485.274
                      19    8 Sep 2021 19:44:15.657    8 Sep 2021 20:09:00.926          1485.268
                      20    8 Sep 2021 20:36:47.244    8 Sep 2021 21:01:32.518          1485.274
                      21    8 Sep 2021 21:29:18.834    8 Sep 2021 21:54:04.102          1485.268
                      22    8 Sep 2021 22:21:50.420    8 Sep 2021 22:46:35.694          1485.274
                      23    8 Sep 2021 23:14:22.011    8 Sep 2021 23:39:07.279          1485.268
                      24    9 Sep 2021 00:06:53.597    9 Sep 2021 00:31:38.871          1485.274
                      25    9 Sep 2021 00:59:25.188    9 Sep 2021 01:24:10.456          1485.268
                      26    9 Sep 2021 01:51:56.774    9 Sep 2021 02:16:42.048          1485.274
                      27    9 Sep 2021 02:44:28.364    9 Sep 2021 03:09:13.633          1485.268
                      28    9 Sep 2021 03:36:59.951    9 Sep 2021 04:00:00.000          1380.049

Min Duration          28    9 Sep 2021 03:36:59.951    9 Sep 2021 04:00:00.000          1380.049
Max Duration          12    8 Sep 2021 13:36:34.536    8 Sep 2021 14:01:19.810          1485.274
Mean Duration                                                                           1478.909
Total Duration                                                                         41409.439


Satellite304-To-Satellite701
----------------------------
                  Access       Start Time (UTCG)           Stop Time (UTCG)       Duration (sec)
                  ------    -----------------------    -----------------------    --------------
                       1    8 Sep 2021 04:00:00.000    8 Sep 2021 04:10:45.787           645.787
                       2    8 Sep 2021 04:52:16.094    8 Sep 2021 05:03:17.375           661.281
