routing/visibility/v305.txt

Satellite305-To-Satellite105
----------------------------
                  Access       Start Time (UTCG)           Stop Time (UTCG)       Duration (sec)
                  ------    -----------------------    -----------------------    --------------
                       1    8 Sep 2021 04:31:30.105    8 Sep 2021 04:39:24.515           474.410
                       2    8 Sep 2021 05:24:01.693    8 Sep 2021 05:31:56.103           474.410
                       3    8 Sep 2021 06:16:33.286    8 Sep 2021 06:24:27.687           474.402
                       4    8 Sep 2021 07:09:04.872    8 Sep 2021 07:16:59.281           474.409
                       5    8 Sep 2021 08:01:36.458    8 Sep 2021 08:09:30.869           474.411
                       6    8 Sep 2021 08:54:08.047    8 Sep 2021 09:02:02.457           474.410
                       7    8 Sep 2021 09:46:39.637    8 Sep 2021 09:54:34.044           474.408
                       8    8 Sep 2021 10:39:11.226    8 Sep 2021 10:47:05.634           474.407
                       9    8 Sep 2021 11:31:42.812    8 Sep 2021 11:39:37.222           474.410
                      10    8 Sep 2021 12:24:14.400    8 Sep 2021 12:32:08.811           474.411
                      11    8 Sep 2021 13:16:45.990    8 Sep 2021 13:24:40.395           474.405
                      12    8 Sep 2021 14:09:17.576    8 Sep 2021 14:17:11.988           474.411
                      13    8 Sep 2021 15:01:49.165    8 Sep 2021 15:09:43.576           474.411
                      14    8 Sep 2021 15:54:20.754    8 Sep 2021 16:02:15.163           474.409
                      15    8 Sep 2021 16:46:52.345    8 Sep 2021 16:54:46.752           474.407
                      16    8 Sep 2021 17:39:23.934    8 Sep 2021 17:47:18.341           474.407
                      17    8 Sep 2021 18:31:55.519    8 Sep 2021 18:39:49.930           474.411
                      18    8 Sep 2021 19:24:27.107    8 Sep 2021 19:32:21.518           474.411
                      19    8 Sep 2021 20:16:58.695    8 Sep 2021 20:24:53.103           474.408
                      20    8 Sep 2021 21:09:30.284    8 Sep 2021 21:17:24.695           474.411
                      21    8 Sep 2021 22:02:01.872    8 Sep 2021 22:09:56.283           474.411
                      22    8 Sep 2021 22:54:33.461    8 Sep 2021 23:02:27.870           474.408
                      23    8 Sep 2021 23:47:05.053    8 Sep 2021 23:54:59.459           474.406
                      24    9 Sep 2021 00:39:36.642    9 Sep 2021 00:47:31.048           474.406
                      25    9 Sep 2021 01:32:08.226    9 Sep 2021 01:40:02.633           474.407
                      26    9 Sep 2021 02:24:39.818    9 Sep 2021 02:32:34.222           474.405
                      27    9 Sep 2021 03:17:11.403    9 Sep 2021 03:25:05.813           474.410

Min Duration           3    8 Sep 2021 06:16:33.286    8 Sep 2021 06:24:27.687           474.402
Max Duration          12    8 Sep 2021 14:09:17.576    8 Sep 2021 14:17:11.988           474.411
Mean Duration                                                                            474.409
Total Duration                                                                         12809.032


Satellite305-To-Satellite106
----------------------------
                  Access       Start Time (UTCG)           Stop Time (UTCG)       Duration (sec)
                  ------    -----------------------    -----------------------    --------------
                       1    8 Sep 2021 04:15:19.012    8 Sep 2021 04:45:05.291          1786.279
                       2    8 Sep 2021 05:07:50.600    8 Sep 2021 05:37:36.878          1786.278
                       3    8 Sep 2021 06:00:22.188    8 Sep 2021 06:30:08.469          1786.280
                       4    8 Sep 2021 06:52:53.775    8 Sep 2021 07:22:40.056          1786.280
                       5    8 Sep 2021 07:45:25.366    8 Sep 2021 08:15:11.645          1786.279
                       6    8 Sep 2021 08:37:56.952    8 Sep 2021 09:07:43.233          1786.281
                       7    8 Sep 2021 09:30:28.543    8 Sep 2021 10:00:14.822          1786.279
                       8    8 Sep 2021 10:23:00.129    8 Sep 2021 10:52:46.410          1786.281
                       9    8 Sep 2021 11:15:31.720    8 Sep 2021 11:45:17.999          1786.279
                      10    8 Sep 2021 12:08:03.306    8 Sep 2021 12:37:49.587          1786.281
                      11    8 Sep 2021 13:00:34.897    8 Sep 2021 13:30:21.176          1786.279
                      12    8 Sep 2021 13:53:06.483    8 Sep 2021 14:22:52.763          1786.281
                      13    8 Sep 2021 14:45:38.074    8 Sep 2021 15:15:24.353          1786.279
                      14    8 Sep 2021 15:38:09.659    8 Sep 2021 16:07:55.940          1786.281
                      15    8 Sep 2021 16:30:41.251    8 Sep 2021 17:00:27.529          1786.279
                      16    8 Sep 2021 17:23:12.836    8 Sep 2021 17:52:59.117          1786.281
                      17    8 Sep 2021 18:15:44.428    8 Sep 2021 18:45:30.706          1786.279
                      18    8 Sep 2021 19:08:16.013    8 Sep 2021 19:38:02.294          1786.281
                      19    8 Sep 2021 20:00:47.604    8 Sep 2021 20:30:33.883          1786.279
                      20    8 Sep 2021 20:53:19.190    8 Sep 2021 21:23:05.471          1786.281
                      21    8 Sep 2021 21:45:50.781    8 Sep 2021 22:15:37.060          1786.278
                      22    8 Sep 2021 22:38:22.366    8 Sep 2021 23:08:08.647          1786.281
                      23    8 Sep 2021 23:30:53.958    9 Sep 2021 00:00:40.237          1786.278
                      24    9 Sep 2021 00:23:25.543    9 Sep 2021 00:53:11.824          1786.281
                      25    9 Sep 2021 01:15:57.135    9 Sep 2021 01:45:43.413          1786.278
                      26    9 Sep 2021 02:08:28.720    9 Sep 2021 02:38:15.001          1786.281
                      27    9 Sep 2021 03:01:00.312    9 Sep 2021 03:30:46.590          1786.278
                      28    9 Sep 2021 03:53:31.897    9 Sep 2021 04:00:00.000           388.103

Min Duration          28    9 Sep 2021 03:53:31.897    9 Sep 2021 04:00:00.000           388.103
Max Duration          26    9 Sep 2021 02:08:28.720    9 Sep 2021 02:38:15.001          1786.281
Mean Duration                                                                           1736.345
Total Duration                                                                         48617.654


Satellite305-To-Satellite107
----------------------------
                  Access       Start Time (UTCG)           Stop Time (UTCG)       Duration (sec)
                  ------    -----------------------    -----------------------    --------------
                       1    8 Sep 2021 04:06:06.340    8 Sep 2021 04:43:47.643          2261.303
                       2    8 Sep 2021 04:58:37.931    8 Sep 2021 05:36:19.232          2261.301
                       3    8 Sep 2021 05:51:09.519    8 Sep 2021 06:28:50.820          2261.301
                       4    8 Sep 2021 06:43:41.107    8 Sep 2021 07:21:22.409          2261.301
                       5    8 Sep 2021 07:36:12.696    8 Sep 2021 08:13:53.997          2261.301
                       6    8 Sep 2021 08:28:44.284    8 Sep 2021 09:06:25.585          2261.301
                       7    8 Sep 2021 09:21:15.872    8 Sep 2021 09:58:57.174          2261.301
                       8    8 Sep 2021 10:13:47.461    8 Sep 2021 10:51:28.762          2261.301
                       9    8 Sep 2021 11:06:19.049    8 Sep 2021 11:44:00.351          2261.301
                      10    8 Sep 2021 11:58:50.638    8 Sep 2021 12:36:31.939          2261.301
                      11    8 Sep 2021 12:51:22.226    8 Sep 2021 13:29:03.527          2261.301
                      12    8 Sep 2021 13:43:53.814    8 Sep 2021 14:21:35.116          2261.301
                      13    8 Sep 2021 14:36:25.403    8 Sep 2021 15:14:06.704          2261.301
                      14    8 Sep 2021 15:28:56.991    8 Sep 2021 16:06:38.292          2261.301
                      15    8 Sep 2021 16:21:28.580    8 Sep 2021 16:59:09.881          2261.301
                      16    8 Sep 2021 17:14:00.168    8 Sep 2021 17:51:41.469          2261.301
                      17    8 Sep 2021 18:06:31.756    8 Sep 2021 18:44:13.058          2261.301
                      18    8 Sep 2021 18:59:03.345    8 Sep 2021 19:36:44.646          2261.301
                      19    8 Sep 2021 19:51:34.933    8 Sep 2021 20:29:16.234          2261.301
                      20    8 Sep 2021 20:44:06.522    8 Sep 2021 21:21:47.823          2261.301
                      21    8 Sep 2021 21:36:38.110    8 Sep 2021 22:14:19.411          2261.301
                      22    8 Sep 2021 22:29:09.698    8 Sep 2021 23:06:51.000          2261.301
                      23    8 Sep 2021 23:21:41.287    8 Sep 2021 23:59:22.588          2261.301
                      24    9 Sep 2021 00:14:12.875    9 Sep 2021 00:51:54.176          2261.301
                      25    9 Sep 2021 01:06:44.464    9 Sep 2021 01:44:25.765          2261.301
                      26    9 Sep 2021 01:59:16.052    9 Sep 2021 02:36:57.353          2261.301
                      27    9 Sep 2021 02:51:47.640    9 Sep 2021 03:29:28.942          2261.301
                      28    9 Sep 2021 03:44:19.229    9 Sep 2021 04:00:00.000           940.771

Min Duration          28    9 Sep 2021 03:44:19.229    9 Sep 2021 04:00:00.000           940.771
Max Duration           1    8 Sep 2021 04:06:06.340    8 Sep 2021 04:43:47.643          2261.303
Mean Duration                                                                           2214.140
Total Duration                                                                         61995.907


Satellite305-To-Satellite108
----------------------------
                  Access       Start Time (UTCG)           Stop Time (UTCG)       Duration (sec)
                  ------    -----------------------    -----------------------    --------------
                       1    8 Sep 2021 04:04:45.988    8 Sep 2021 04:34:37.675          1791.687
                       2    8 Sep 2021 04:57:17.581    8 Sep 2021 05:27:09.267          1791.686
                       3    8 Sep 2021 05:49:49.168    8 Sep 2021 06:19:40.855          1791.687
                       4    8 Sep 2021 06:42:20.756    8 Sep 2021 07:12:12.443          1791.687
                       5    8 Sep 2021 07:34:52.344    8 Sep 2021 08:04:44.031          1791.687
                       6    8 Sep 2021 08:27:23.932    8 Sep 2021 08:57:15.619          1791.687
                       7    8 Sep 2021 09:19:55.520    8 Sep 2021 09:49:47.207          1791.687
                       8    8 Sep 2021 10:12:27.108    8 Sep 2021 10:42:18.795          1791.687
                       9    8 Sep 2021 11:04:58.696    8 Sep 2021 11:34:50.383          1791.687
                      10    8 Sep 2021 11:57:30.285    8 Sep 2021 12:27:21.972          1791.687
                      11    8 Sep 2021 12:50:01.873    8 Sep 2021 13:19:53.560          1791.687
                      12    8 Sep 2021 13:42:33.461    8 Sep 2021 14:12:25.148          1791.687
                      13    8 Sep 2021 14:35:05.049    8 Sep 2021 15:04:56.736          1791.687
                      14    8 Sep 2021 15:27:36.637    8 Sep 2021 15:57:28.323          1791.686
                      15    8 Sep 2021 16:20:08.229    8 Sep 2021 16:49:59.911          1791.682
                      16    8 Sep 2021 17:12:39.818    8 Sep 2021 17:42:31.500          1791.682
                      17    8 Sep 2021 18:05:11.406    8 Sep 2021 18:35:03.093          1791.687
                      18    8 Sep 2021 18:57:42.994    8 Sep 2021 19:27:34.681          1791.687
                      19    8 Sep 2021 19:50:14.582    8 Sep 2021 20:20:06.269          1791.687
                      20    8 Sep 2021 20:42:46.171    8 Sep 2021 21:12:37.858          1791.687
                      21    8 Sep 2021 21:35:17.759    8 Sep 2021 22:05:09.446          1791.687
                      22    8 Sep 2021 22:27:49.347    8 Sep 2021 22:57:41.034          1791.687
                      23    8 Sep 2021 23:20:20.935    8 Sep 2021 23:50:12.622          1791.687
                      24    9 Sep 2021 00:12:52.523    9 Sep 2021 00:42:44.210          1791.687
                      25    9 Sep 2021 01:05:24.111    9 Sep 2021 01:35:15.798          1791.687
                      26    9 Sep 2021 01:57:55.699    9 Sep 2021 02:27:47.386          1791.687
                      27    9 Sep 2021 02:50:27.287    9 Sep 2021 03:20:18.974          1791.687
                      28    9 Sep 2021 03:42:58.876    9 Sep 2021 04:00:00.000          1021.124

Min Duration          28    9 Sep 2021 03:42:58.876    9 Sep 2021 04:00:00.000          1021.124
Max Duration          13    8 Sep 2021 14:35:05.049    8 Sep 2021 15:04:56.736          1791.687
Mean Duration                                                                           1764.167
Total Duration                                                                         49396.662


Satellite305-To-Satellite109
----------------------------
                  Access       Start Time (UTCG)           Stop Time (UTCG)       Duration (sec)
                  ------    -----------------------    -----------------------    --------------
                       1    8 Sep 2021 04:10:33.839    8 Sep 2021 04:18:19.509           465.670
                       2    8 Sep 2021 05:03:05.430    8 Sep 2021 05:10:51.100           465.671
                       3    8 Sep 2021 05:55:37.014    8 Sep 2021 06:03:22.689           465.675
                       4    8 Sep 2021 06:48:08.603    8 Sep 2021 06:55:54.277           465.674
                       5    8 Sep 2021 07:40:40.193    8 Sep 2021 07:48:25.865           465.672
                       6    8 Sep 2021 08:33:11.782    8 Sep 2021 08:40:57.453           465.671
                       7    8 Sep 2021 09:25:43.368    8 Sep 2021 09:33:29.041           465.673
                       8    8 Sep 2021 10:18:14.956    8 Sep 2021 10:26:00.631           465.675
                       9    8 Sep 2021 11:10:46.546    8 Sep 2021 11:18:32.216           465.670
                      10    8 Sep 2021 12:03:18.137    8 Sep 2021 12:11:03.807           465.671
                      11    8 Sep 2021 12:55:49.721    8 Sep 2021 13:03:35.396           465.675
                      12    8 Sep 2021 13:48:21.310    8 Sep 2021 13:56:06.984           465.674
                      13    8 Sep 2021 14:40:52.900    8 Sep 2021 14:48:38.572           465.672
                      14    8 Sep 2021 15:33:24.489    8 Sep 2021 15:41:10.160           465.671
                      15    8 Sep 2021 16:25:56.075    8 Sep 2021 16:33:41.749           465.674
                      16    8 Sep 2021 17:18:27.663    8 Sep 2021 17:26:13.338           465.675
                      17    8 Sep 2021 18:10:59.253    8 Sep 2021 18:18:44.923           465.670
                      18    8 Sep 2021 19:03:30.843    8 Sep 2021 19:11:16.514           465.671
                      19    8 Sep 2021 19:56:02.428    8 Sep 2021 20:03:48.103           465.675
                      20    8 Sep 2021 20:48:34.017    8 Sep 2021 20:56:19.691           465.674
                      21    8 Sep 2021 21:41:05.607    8 Sep 2021 21:48:51.280           465.672
                      22    8 Sep 2021 22:33:37.196    8 Sep 2021 22:41:22.867           465.671
                      23    8 Sep 2021 23:26:08.782    8 Sep 2021 23:33:54.456           465.674
                      24    9 Sep 2021 00:18:40.370    9 Sep 2021 00:26:26.045           465.675
                      25    9 Sep 2021 01:11:11.959    9 Sep 2021 01:18:57.629           465.670
                      26    9 Sep 2021 02:03:43.550    9 Sep 2021 02:11:29.221           465.671
                      27    9 Sep 2021 02:56:15.135    9 Sep 2021 03:04:00.810           465.675
                      28    9 Sep 2021 03:48:46.724    9 Sep 2021 03:56:32.399           465.674

Min Duration           1    8 Sep 2021 04:10:33.839    8 Sep 2021 04:18:19.509           465.670
Max Duration           3    8 Sep 2021 05:55:37.014    8 Sep 2021 06:03:22.689           465.675
Mean Duration                                                                            465.673
Total Duration                                                                         13038.833


Satellite305-To-Satellite205
----------------------------
                  Access       Start Time (UTCG)           Stop Time (UTCG)       Duration (sec)
                  ------    -----------------------    -----------------------    --------------
                       1    8 Sep 2021 04:00:00.000    9 Sep 2021 04:00:00.000         86400.000

Min Duration           1    8 Sep 2021 04:00:00.000    9 Sep 2021 04:00:00.000         86400.000
Max Duration           1    8 Sep 2021 04:00:00.000    9 Sep 2021 04:00:00.000         86400.000
Mean Duration                                                                          86400.000
Total Duration                                                                         86400.000


Satellite305-To-Satellite206
----------------------------
                  Access       Start Time (UTCG)           Stop Time (UTCG)       Duration (sec)
                  ------    -----------------------    -----------------------    --------------
                       1    8 Sep 2021 04:00:00.000    9 Sep 2021 04:00:00.000         86400.000

Min Duration           1    8 Sep 2021 04:00:00.000    9 Sep 2021 04:00:00.000         86400.000
Max Duration           1    8 Sep 2021 04:00:00.000    9 Sep 2021 04:00:00.000         86400.000
Mean Duration                                                                          86400.000
Total Duration                                                                         86400.000


Satellite305-To-Satellite207
----------------------------
                  Access       Start Time (UTCG)           Stop Time (UTCG)       Duration (sec)
                  ------    -----------------------    -----------------------    --------------
                       1    8 Sep 2021 04:00:00.000    9 Sep 2021 04:00:00.000         86400.000

Min Duration           1    8 Sep 2021 04:00:00.000    9 Sep 2021 04:00:00.000         86400.000
Max Duration           1    8 Sep 2021 04:00:00.000    9 Sep 2021 04:00:00.000         86400.000
Mean Duration                                                                          86400.000
Total Duration                                                                         86400.000


Satellite305-To-Satellite304
----------------------------
                  Access       Start Time (UTCG)           Stop Time (UTCG)       Duration (sec)
                  ------    -----------------------    -----------------------    --------------
                       1    8 Sep 2021 04:00:00.000    9 Sep 2021 04:00:00.000         86400.000

Min Duration           1    8 Sep 2021 04:00:00.000    9 Sep 2021 04:00:00.000         86400.000
Max Duration           1    8 Sep 2021 04:00:00.000    9 Sep 2021 04:00:00.000         86400.000
Mean Duration                                                                          86400.000
Total Duration                                                                         86400.000


Satellite305-To-Satellite306
----------------------------
                  Access       Start Time (UTCG)           Stop Time (UTCG)       Duration (sec)
                  ------    -----------------------    -----------------------    --------------
                       1    8 Sep 2021 04:00:00.000    9 Sep 2021 04:00:00.000         86400.000

Min Duration           1    8 Sep 2021 04:00:00.000    9 Sep 2021 04:00:00.000         86400.000
Max Duration           1    8 Sep 2021 04:00:00.000    9 Sep 2021 04:00:00.000         86400.000
Mean Duration                                                                          86400.000
Total Duration                                                                         86400.000


Satellite305-To-Satellite403
----------------------------
                  Access       Start Time (UTCG)           Stop Time (UTCG)       Duration (sec)
                  ------    -----------------------    -----------------------    --------------
                       1    8 Sep 2021 04:00:00.000    9 Sep 2021 04:00:00.000         86400.000

Min Duration           1    8 Sep 2021 04:00:00.000    9 Sep 2021 04:00:00.000         86400.000
Max Duration           1    8 Sep 2021 04:00:00.000    9 Sep 2021 04:00:00.000         86400.000
Mean Duration                                                                          86400.000
Total Duration                                                                         86400.000


Satellite305-To-Satellite404
----------------------------
                  Access       Start Time (UTCG)           Stop Time (UTCG)       Duration (sec)
                  ------    -----------------------    -----------------------    --------------
                       1    8 Sep 2021 04:00:00.000    9 Sep 2021 04:00:00.000         86400.000

Min Duration           1    8 Sep 2021 04:00:00.000    9 Sep 2021 04:00:00.000         86400.000
Max Duration           1    8 Sep 2021 04:00:00.000    9 Sep 2021 04:00:00.000         86400.000
Mean Duration                                                                          86400.000
Total Duration                                                                         86400.000


Satellite305-To-Satellite405
----------------------------
                  Access       Start Time (UTCG)           Stop Time (UTCG)       Duration (sec)
                  ------    -----------------------    -----------------------    --------------
                       1    8 Sep 2021 04:00:00.000    9 Sep 2021 04:00:00.000         86400.000

Min Duration           1    8 Sep 2021 04:00:00.000    9 Sep 2021 04:00:00.000         86400.000
Max Duration           1    8 Sep 2021 04:00:00.000    9 Sep 2021 04:00:00.000         86400.000
Mean Duration                                                                          86400.000
Total Duration                                                                         86400.000


Satellite305-To-Satellite501
----------------------------
                  Access       Start Time (UTCG)           Stop Time (UTCG)       Duration (sec)
                  ------    -----------------------    -----------------------    --------------
                       1    8 Sep 2021 04:00:00.000    8 Sep 2021 04:05:11.615           311.615
                       2    8 Sep 2021 04:49:57.532    8 Sep 2021 04:57:43.203           465.671
                       3    8 Sep 2021 05:42:29.118    8 Sep 2021 05:50:14.790           465.672
                       4    8 Sep 2021 06:35:00.705    8 Sep 2021 06:42:46.380           465.675
                       5    8 Sep 2021 07:27:32.298    8 Sep 2021 07:35:17.967           465.669
                       6    8 Sep 2021 08:20:03.886    8 Sep 2021 08:27:49.557           465.670
                       7    8 Sep 2021 09:12:35.470    8 Sep 2021 09:20:21.145           465.675
                       8    8 Sep 2021 10:05:07.059    8 Sep 2021 10:12:52.734           465.674
                       9    8 Sep 2021 10:57:38.650    8 Sep 2021 11:05:24.322           465.672
                      10    8 Sep 2021 11:50:10.239    8 Sep 2021 11:57:55.910           465.671
                      11    8 Sep 2021 12:42:41.825    8 Sep 2021 12:50:27.497           465.672
                      12    8 Sep 2021 13:35:13.412    8 Sep 2021 13:42:59.087           465.675
                      13    8 Sep 2021 14:27:45.004    8 Sep 2021 14:35:30.673           465.669
                      14    8 Sep 2021 15:20:16.594    8 Sep 2021 15:28:02.264           465.670
                      15    8 Sep 2021 16:12:48.177    8 Sep 2021 16:20:33.852           465.675
                      16    8 Sep 2021 17:05:19.766    8 Sep 2021 17:13:05.441           465.674
                      17    8 Sep 2021 17:57:51.357    8 Sep 2021 18:05:37.029           465.672
                      18    8 Sep 2021 18:50:22.946    8 Sep 2021 18:58:08.617           465.671
                      19    8 Sep 2021 19:42:54.532    8 Sep 2021 19:50:40.205           465.673
                      20    8 Sep 2021 20:35:26.119    8 Sep 2021 20:43:11.794           465.675
                      21    8 Sep 2021 21:27:57.711    8 Sep 2021 21:35:43.380           465.669
                      22    8 Sep 2021 22:20:29.301    8 Sep 2021 22:28:14.971           465.671
                      23    8 Sep 2021 23:13:00.885    8 Sep 2021 23:20:46.560           465.675
                      24    9 Sep 2021 00:05:32.474    9 Sep 2021 00:13:18.148           465.674
                      25    9 Sep 2021 00:58:04.064    9 Sep 2021 01:05:49.736           465.672
                      26    9 Sep 2021 01:50:35.653    9 Sep 2021 01:58:21.324           465.671
                      27    9 Sep 2021 02:43:07.239    9 Sep 2021 02:50:52.912           465.673
                      28    9 Sep 2021 03:35:38.827    9 Sep 2021 03:43:24.501           465.675

Min Duration           1    8 Sep 2021 04:00:00.000    8 Sep 2021 04:05:11.615           311.615
Max Duration           7    8 Sep 2021 09:12:35.470    8 Sep 2021 09:20:21.145           465.675
Mean Duration                                                                            460.170
Total Duration                                                                         12884.769


Satellite305-To-Satellite502
----------------------------
                  Access       Start Time (UTCG)           Stop Time (UTCG)       Duration (sec)
                  ------    -----------------------    -----------------------    --------------
                       1    8 Sep 2021 04:00:00.000    8 Sep 2021 04:10:59.462           659.462
                       2    8 Sep 2021 04:33:39.363    8 Sep 2021 05:03:31.050          1791.687
                       3    8 Sep 2021 05:26:10.951    8 Sep 2021 05:56:02.638          1791.687
                       4    8 Sep 2021 06:18:42.539    8 Sep 2021 06:48:34.226          1791.687
                       5    8 Sep 2021 07:11:14.127    8 Sep 2021 07:41:05.814          1791.687
                       6    8 Sep 2021 08:03:45.716    8 Sep 2021 08:33:37.403          1791.687
                       7    8 Sep 2021 08:56:17.304    8 Sep 2021 09:26:08.990          1791.686
                       8    8 Sep 2021 09:48:48.896    8 Sep 2021 10:18:40.578          1791.682
                       9    8 Sep 2021 10:41:20.484    8 Sep 2021 11:11:12.171          1791.687
                      10    8 Sep 2021 11:33:52.072    8 Sep 2021 12:03:43.759          1791.687
                      11    8 Sep 2021 12:26:23.660    8 Sep 2021 12:56:15.348          1791.687
                      12    8 Sep 2021 13:18:55.249    8 Sep 2021 13:48:46.936          1791.687
                      13    8 Sep 2021 14:11:26.837    8 Sep 2021 14:41:18.524          1791.687
                      14    8 Sep 2021 15:03:58.425    8 Sep 2021 15:33:50.112          1791.687
                      15    8 Sep 2021 15:56:30.013    8 Sep 2021 16:26:21.700          1791.687
                      16    8 Sep 2021 16:49:01.601    8 Sep 2021 17:18:53.288          1791.687
                      17    8 Sep 2021 17:41:33.189    8 Sep 2021 18:11:24.876          1791.687
                      18    8 Sep 2021 18:34:04.777    8 Sep 2021 19:03:56.464          1791.687
                      19    8 Sep 2021 19:26:36.365    8 Sep 2021 19:56:28.053          1791.687
                      20    8 Sep 2021 20:19:07.954    8 Sep 2021 20:48:59.641          1791.687
                      21    8 Sep 2021 21:11:39.542    8 Sep 2021 21:41:31.229          1791.687
                      22    8 Sep 2021 22:04:11.130    8 Sep 2021 22:34:02.817          1791.687
                      23    8 Sep 2021 22:56:42.718    8 Sep 2021 23:26:34.405          1791.687
                      24    8 Sep 2021 23:49:14.307    9 Sep 2021 00:19:05.992          1791.686
                      25    9 Sep 2021 00:41:45.898    9 Sep 2021 01:11:37.581          1791.682
                      26    9 Sep 2021 01:34:17.487    9 Sep 2021 02:04:09.169          1791.682
                      27    9 Sep 2021 02:26:49.075    9 Sep 2021 02:56:40.762          1791.687
                      28    9 Sep 2021 03:19:20.663    9 Sep 2021 03:49:12.350          1791.687

Min Duration           1    8 Sep 2021 04:00:00.000    8 Sep 2021 04:10:59.462           659.462
Max Duration           6    8 Sep 2021 08:03:45.716    8 Sep 2021 08:33:37.403          1791.687
Mean Duration                                                                           1751.250
Total Duration                                                                         49034.996


Satellite305-To-Satellite503
----------------------------
                  Access       Start Time (UTCG)           Stop Time (UTCG)       Duration (sec)
                  ------    -----------------------    -----------------------    --------------
                       1    8 Sep 2021 04:00:00.000    8 Sep 2021 04:09:39.110           579.110
                       2    8 Sep 2021 04:24:29.397    8 Sep 2021 05:02:10.699          2261.302
                       3    8 Sep 2021 05:17:00.986    8 Sep 2021 05:54:42.288          2261.301
                       4    8 Sep 2021 06:09:32.575    8 Sep 2021 06:47:13.876          2261.301
                       5    8 Sep 2021 07:02:04.163    8 Sep 2021 07:39:45.464          2261.301
                       6    8 Sep 2021 07:54:35.752    8 Sep 2021 08:32:17.053          2261.301
                       7    8 Sep 2021 08:47:07.340    8 Sep 2021 09:24:48.641          2261.301
                       8    8 Sep 2021 09:39:38.928    8 Sep 2021 10:17:20.230          2261.301
                       9    8 Sep 2021 10:32:10.517    8 Sep 2021 11:09:51.818          2261.301
                      10    8 Sep 2021 11:24:42.105    8 Sep 2021 12:02:23.406          2261.301
                      11    8 Sep 2021 12:17:13.694    8 Sep 2021 12:54:54.995          2261.301
                      12    8 Sep 2021 13:09:45.282    8 Sep 2021 13:47:26.583          2261.301
                      13    8 Sep 2021 14:02:16.870    8 Sep 2021 14:39:58.172          2261.301
                      14    8 Sep 2021 14:54:48.459    8 Sep 2021 15:32:29.760          2261.301
                      15    8 Sep 2021 15:47:20.047    8 Sep 2021 16:25:01.348          2261.301
                      16    8 Sep 2021 16:39:51.636    8 Sep 2021 17:17:32.937          2261.301
                      17    8 Sep 2021 17:32:23.224    8 Sep 2021 18:10:04.525          2261.301
                      18    8 Sep 2021 18:24:54.812    8 Sep 2021 19:02:36.114          2261.301
                      19    8 Sep 2021 19:17:26.401    8 Sep 2021 19:55:07.702          2261.301
                      20    8 Sep 2021 20:09:57.989    8 Sep 2021 20:47:39.290          2261.301
                      21    8 Sep 2021 21:02:29.578    8 Sep 2021 21:40:10.879          2261.301
                      22    8 Sep 2021 21:55:01.166    8 Sep 2021 22:32:42.467          2261.301
                      23    8 Sep 2021 22:47:32.754    8 Sep 2021 23:25:14.056          2261.301
                      24    8 Sep 2021 23:40:04.343    9 Sep 2021 00:17:45.644          2261.301
                      25    9 Sep 2021 00:32:35.931    9 Sep 2021 01:10:17.232          2261.301
                      26    9 Sep 2021 01:25:07.520    9 Sep 2021 02:02:48.821          2261.301
                      27    9 Sep 2021 02:17:39.108    9 Sep 2021 02:55:20.409          2261.301
                      28    9 Sep 2021 03:10:10.696    9 Sep 2021 03:47:51.998          2261.301

Min Duration           1    8 Sep 2021 04:00:00.000    8 Sep 2021 04:09:39.110           579.110
Max Duration           2    8 Sep 2021 04:24:29.397    8 Sep 2021 05:02:10.699          2261.302
Mean Duration                                                                           2201.223
Total Duration                                                                         61634.244


Satellite305-To-Satellite504
----------------------------
                  Access       Start Time (UTCG)           Stop Time (UTCG)       Duration (sec)
                  ------    -----------------------    -----------------------    --------------
                       1    8 Sep 2021 04:00:00.000    8 Sep 2021 04:00:26.442            26.442
                       2    8 Sep 2021 04:23:11.748    8 Sep 2021 04:52:58.029          1786.281
                       3    8 Sep 2021 05:15:43.340    8 Sep 2021 05:45:29.618          1786.279
                       4    8 Sep 2021 06:08:14.925    8 Sep 2021 06:38:01.206          1786.281
                       5    8 Sep 2021 07:00:46.517    8 Sep 2021 07:30:32.795          1786.279
                       6    8 Sep 2021 07:53:18.102    8 Sep 2021 08:23:04.383          1786.281
                       7    8 Sep 2021 08:45:49.693    8 Sep 2021 09:15:35.972          1786.279
                       8    8 Sep 2021 09:38:21.279    8 Sep 2021 10:08:07.560          1786.281
                       9    8 Sep 2021 10:30:52.870    8 Sep 2021 11:00:39.149          1786.279
                      10    8 Sep 2021 11:23:24.456    8 Sep 2021 11:53:10.737          1786.281
                      11    8 Sep 2021 12:15:56.047    8 Sep 2021 12:45:42.326          1786.279
                      12    8 Sep 2021 13:08:27.632    8 Sep 2021 13:38:13.913          1786.281
                      13    8 Sep 2021 14:00:59.224    8 Sep 2021 14:30:45.502          1786.279
                      14    8 Sep 2021 14:53:30.809    8 Sep 2021 15:23:17.090          1786.281
                      15    8 Sep 2021 15:46:02.401    8 Sep 2021 16:15:48.679          1786.278
                      16    8 Sep 2021 16:38:33.986    8 Sep 2021 17:08:20.267          1786.281
                      17    8 Sep 2021 17:31:05.578    8 Sep 2021 18:00:51.856          1786.278
                      18    8 Sep 2021 18:23:37.163    8 Sep 2021 18:53:23.444          1786.281
                      19    8 Sep 2021 19:16:08.754    8 Sep 2021 19:45:55.033          1786.278
                      20    8 Sep 2021 20:08:40.340    8 Sep 2021 20:38:26.621          1786.281
                      21    8 Sep 2021 21:01:11.931    8 Sep 2021 21:30:58.210          1786.278
                      22    8 Sep 2021 21:53:43.516    8 Sep 2021 22:23:29.797          1786.281
                      23    8 Sep 2021 22:46:15.108    8 Sep 2021 23:16:01.386          1786.278
                      24    8 Sep 2021 23:38:46.693    9 Sep 2021 00:08:32.974          1786.281
                      25    9 Sep 2021 00:31:18.285    9 Sep 2021 01:01:04.563          1786.278
                      26    9 Sep 2021 01:23:49.870    9 Sep 2021 01:53:36.151          1786.281
                      27    9 Sep 2021 02:16:21.461    9 Sep 2021 02:46:07.740          1786.278
                      28    9 Sep 2021 03:08:53.047    9 Sep 2021 03:38:39.328          1786.281

Min Duration           1    8 Sep 2021 04:00:00.000    8 Sep 2021 04:00:26.442            26.442
Max Duration          28    9 Sep 2021 03:08:53.047    9 Sep 2021 03:38:39.328          1786.281
Mean Duration                                                                           1723.428
Total Duration                                                                         48255.995


Satellite305-To-Satellite505
----------------------------
                  Access       Start Time (UTCG)           Stop Time (UTCG)       Duration (sec)
                  ------    -----------------------    -----------------------    --------------
                       1    8 Sep 2021 04:28:52.529    8 Sep 2021 04:36:46.936           474.407
                       2    8 Sep 2021 05:21:24.113    8 Sep 2021 05:29:18.524           474.411
                       3    8 Sep 2021 06:13:55.702    8 Sep 2021 06:21:50.111           474.409
                       4    8 Sep 2021 07:06:27.293    8 Sep 2021 07:14:21.700           474.407
                       5    8 Sep 2021 07:58:58.882    8 Sep 2021 08:06:53.289           474.407
                       6    8 Sep 2021 08:51:30.467    8 Sep 2021 08:59:24.878           474.411
                       7    8 Sep 2021 09:44:02.055    8 Sep 2021 09:51:56.466           474.411
                       8    8 Sep 2021 10:36:33.643    8 Sep 2021 10:44:28.051           474.408
                       9    8 Sep 2021 11:29:05.232    8 Sep 2021 11:36:59.643           474.411
                      10    8 Sep 2021 12:21:36.820    8 Sep 2021 12:29:31.231           474.411
                      11    8 Sep 2021 13:14:08.410    8 Sep 2021 13:22:02.818           474.409
                      12    8 Sep 2021 14:06:40.001    8 Sep 2021 14:14:34.407           474.407
                      13    8 Sep 2021 14:59:11.590    8 Sep 2021 15:07:05.996           474.406
                      14    8 Sep 2021 15:51:43.174    8 Sep 2021 15:59:37.580           474.406
                      15    8 Sep 2021 16:44:14.765    8 Sep 2021 16:52:09.169           474.403
                      16    8 Sep 2021 17:36:46.351    8 Sep 2021 17:44:40.760           474.409
                      17    8 Sep 2021 18:29:17.939    8 Sep 2021 18:37:12.350           474.411
                      18    8 Sep 2021 19:21:49.528    8 Sep 2021 19:29:43.938           474.411
                      19    8 Sep 2021 20:14:21.117    8 Sep 2021 20:22:15.525           474.408
                      20    8 Sep 2021 21:06:52.707    8 Sep 2021 21:14:47.115           474.408
                      21    8 Sep 2021 21:59:24.294    8 Sep 2021 22:07:18.704           474.410
                      22    8 Sep 2021 22:51:55.881    8 Sep 2021 22:59:50.290           474.409
                      23    8 Sep 2021 23:44:27.474    8 Sep 2021 23:52:21.876           474.402
                      24    9 Sep 2021 00:36:59.059    9 Sep 2021 00:44:53.469           474.410
                      25    9 Sep 2021 01:29:30.646    9 Sep 2021 01:37:25.057           474.411
                      26    9 Sep 2021 02:22:02.235    9 Sep 2021 02:29:56.645           474.410
                      27    9 Sep 2021 03:14:33.825    9 Sep 2021 03:22:28.233           474.408

Min Duration          23    8 Sep 2021 23:44:27.474    8 Sep 2021 23:52:21.876           474.402
Max Duration           9    8 Sep 2021 11:29:05.232    8 Sep 2021 11:36:59.643           474.411
Mean Duration                                                                            474.409
Total Duration                                                                         12809.031


Satellite305-To-Satellite601
----------------------------
                  Access       Start Time (UTCG)           Stop Time (UTCG)       Duration (sec)
                  ------    -----------------------    -----------------------    --------------
                       1    8 Sep 2021 04:00:00.000    8 Sep 2021 04:13:02.021           782.021
                       2    8 Sep 2021 04:40:48.332    8 Sep 2021 05:05:33.606          1485.274
                       3    8 Sep 2021 05:33:19.924    8 Sep 2021 05:58:05.197          1485.273
                       4    8 Sep 2021 06:25:51.509    8 Sep 2021 06:50:36.782          1485.273
                       5    8 Sep 2021 07:18:23.100    8 Sep 2021 07:43:08.374          1485.274
                       6    8 Sep 2021 08:10:54.689    8 Sep 2021 08:35:39.959          1485.270
                       7    8 Sep 2021 09:03:26.277    8 Sep 2021 09:28:11.551          1485.274
                       8    8 Sep 2021 09:55:57.867    8 Sep 2021 10:20:43.136          1485.269
                       9    8 Sep 2021 10:48:29.454    8 Sep 2021 11:13:14.728          1485.274
                      10    8 Sep 2021 11:41:01.044    8 Sep 2021 12:05:46.312          1485.268
                      11    8 Sep 2021 12:33:32.630    8 Sep 2021 12:58:17.904          1485.274
                      12    8 Sep 2021 13:26:04.221    8 Sep 2021 13:50:49.489          1485.268
                      13    8 Sep 2021 14:18:35.807    8 Sep 2021 14:43:21.081          1485.274
                      14    8 Sep 2021 15:11:07.398    8 Sep 2021 15:35:52.666          1485.268
                      15    8 Sep 2021 16:03:38.984    8 Sep 2021 16:28:24.258          1485.274
                      16    8 Sep 2021 16:56:10.574    8 Sep 2021 17:20:55.843          1485.268
                      17    8 Sep 2021 17:48:42.161    8 Sep 2021 18:13:27.435          1485.274
                      18    8 Sep 2021 18:41:13.751    8 Sep 2021 19:05:59.019          1485.268
                      19    8 Sep 2021 19:33:45.338    8 Sep 2021 19:58:30.612          1485.274
                      20    8 Sep 2021 20:26:16.928    8 Sep 2021 20:51:02.196          1485.268
                      21    8 Sep 2021 21:18:48.514    8 Sep 2021 21:43:33.788          1485.274
                      22    8 Sep 2021 22:11:20.105    8 Sep 2021 22:36:05.373          1485.268
                      23    8 Sep 2021 23:03:51.691    8 Sep 2021 23:28:36.965          1485.274
                      24    8 Sep 2021 23:56:23.282    9 Sep 2021 00:21:08.550          1485.268
                      25    9 Sep 2021 00:48:54.868    9 Sep 2021 01:13:40.142          1485.274
                      26    9 Sep 2021 01:41:26.458    9 Sep 2021 02:06:11.727          1485.268
                      27    9 Sep 2021 02:33:58.045    9 Sep 2021 02:58:43.319          1485.274
                      28    9 Sep 2021 03:26:29.635    9 Sep 2021 03:51:14.903          1485.268

Min Duration           1    8 Sep 2021 04:00:00.000    8 Sep 2021 04:13:02.021           782.021
Max Duration          13    8 Sep 2021 14:18:35.807    8 Sep 2021 14:43:21.081          1485.274
Mean Duration                                                                           1460.155
Total Duration                                                                         40884.350


Satellite305-To-Satellite602
----------------------------
                  Access       Start Time (UTCG)           Stop Time (UTCG)       Duration (sec)
                  ------    -----------------------    -----------------------    --------------
                       1    8 Sep 2021 04:00:00.000    8 Sep 2021 04:07:49.832           469.832
                       2    8 Sep 2021 04:35:30.204    8 Sep 2021 05:00:21.424          1491.221
                       3    8 Sep 2021 05:28:01.788    8 Sep 2021 05:52:53.009          1491.221
                       4    8 Sep 2021 06:20:33.380    8 Sep 2021 06:45:24.601          1491.221
                       5    8 Sep 2021 07:13:04.965    8 Sep 2021 07:37:56.186          1491.221
                       6    8 Sep 2021 08:05:36.557    8 Sep 2021 08:30:27.778          1491.221
                       7    8 Sep 2021 08:58:08.142    8 Sep 2021 09:22:59.362          1491.221
                       8    8 Sep 2021 09:50:39.734    8 Sep 2021 10:15:30.955          1491.221
                       9    8 Sep 2021 10:43:11.318    8 Sep 2021 11:08:02.539          1491.221
                      10    8 Sep 2021 11:35:42.911    8 Sep 2021 12:00:34.132          1491.221
                      11    8 Sep 2021 12:28:14.495    8 Sep 2021 12:53:05.716          1491.221
                      12    8 Sep 2021 13:20:46.087    8 Sep 2021 13:45:37.308          1491.221
                      13    8 Sep 2021 14:13:17.672    8 Sep 2021 14:38:08.893          1491.221
                      14    8 Sep 2021 15:05:49.264    8 Sep 2021 15:30:40.485          1491.221
                      15    8 Sep 2021 15:58:20.849    8 Sep 2021 16:23:12.070          1491.221
                      16    8 Sep 2021 16:50:52.441    8 Sep 2021 17:15:43.662          1491.221
                      17    8 Sep 2021 17:43:24.026    8 Sep 2021 18:08:15.246          1491.221
                      18    8 Sep 2021 18:35:55.618    8 Sep 2021 19:00:46.839          1491.221
                      19    8 Sep 2021 19:28:27.202    8 Sep 2021 19:53:18.423          1491.221
                      20    8 Sep 2021 20:20:58.795    8 Sep 2021 20:45:50.016          1491.221
                      21    8 Sep 2021 21:13:30.379    8 Sep 2021 21:38:21.600          1491.221
                      22    8 Sep 2021 22:06:01.971    8 Sep 2021 22:30:53.192          1491.221
                      23    8 Sep 2021 22:58:33.556    8 Sep 2021 23:23:24.777          1491.221
                      24    8 Sep 2021 23:51:05.148    9 Sep 2021 00:15:56.369          1491.221
                      25    9 Sep 2021 00:43:36.733    9 Sep 2021 01:08:27.954          1491.221
                      26    9 Sep 2021 01:36:08.325    9 Sep 2021 02:00:59.546          1491.221
                      27    9 Sep 2021 02:28:39.910    9 Sep 2021 02:53:31.130          1491.221
                      28    9 Sep 2021 03:21:11.502    9 Sep 2021 03:46:02.723          1491.221

Min Duration           1    8 Sep 2021 04:00:00.000    8 Sep 2021 04:07:49.832           469.832
Max Duration          16    8 Sep 2021 16:50:52.441    8 Sep 2021 17:15:43.662          1491.221
Mean Duration                                                                           1454.743
Total Duration                                                                         40732.796


Satellite305-To-Satellite603
----------------------------
                  Access       Start Time (UTCG)           Stop Time (UTCG)       Duration (sec)
                  ------    -----------------------    -----------------------    --------------
                       1    8 Sep 2021 04:32:58.641    8 Sep 2021 04:52:22.668          1164.026
                       2    8 Sep 2021 05:25:30.230    8 Sep 2021 05:44:54.255          1164.025
                       3    8 Sep 2021 06:18:01.818    8 Sep 2021 06:37:25.845          1164.027
                       4    8 Sep 2021 07:10:33.404    8 Sep 2021 07:29:57.431          1164.028
                       5    8 Sep 2021 08:03:04.995    8 Sep 2021 08:22:29.020          1164.025
                       6    8 Sep 2021 08:55:36.580    8 Sep 2021 09:15:00.607          1164.027
                       7    8 Sep 2021 09:48:08.171    8 Sep 2021 10:07:32.195          1164.025
                       8    8 Sep 2021 10:40:39.758    8 Sep 2021 11:00:03.786          1164.027
                       9    8 Sep 2021 11:33:11.349    8 Sep 2021 11:52:35.373          1164.024
                      10    8 Sep 2021 12:25:42.935    8 Sep 2021 12:45:06.961          1164.026
                      11    8 Sep 2021 13:18:14.524    8 Sep 2021 13:37:38.549          1164.025
                      12    8 Sep 2021 14:10:46.113    8 Sep 2021 14:30:10.138          1164.025
                      13    8 Sep 2021 15:03:17.703    8 Sep 2021 15:22:41.727          1164.025
                      14    8 Sep 2021 15:55:49.290    8 Sep 2021 16:15:13.318          1164.029
                      15    8 Sep 2021 16:48:20.878    8 Sep 2021 17:07:44.904          1164.026
                      16    8 Sep 2021 17:40:52.468    8 Sep 2021 18:00:16.492          1164.024
                      17    8 Sep 2021 18:33:24.053    8 Sep 2021 18:52:48.080          1164.026
                      18    8 Sep 2021 19:25:55.643    8 Sep 2021 19:45:19.668          1164.025
                      19    8 Sep 2021 20:18:27.231    8 Sep 2021 20:37:51.258          1164.027
                      20    8 Sep 2021 21:10:58.821    8 Sep 2021 21:30:22.845          1164.024
                      21    8 Sep 2021 22:03:30.408    8 Sep 2021 22:22:54.434          1164.026
                      22    8 Sep 2021 22:56:01.997    8 Sep 2021 23:15:26.022          1164.025
                      23    8 Sep 2021 23:48:33.584    9 Sep 2021 00:07:57.610          1164.026
                      24    9 Sep 2021 00:41:05.175    9 Sep 2021 01:00:29.197          1164.023
                      25    9 Sep 2021 01:33:36.762    9 Sep 2021 01:53:00.786          1164.024
                      26    9 Sep 2021 02:26:08.351    9 Sep 2021 02:45:32.376          1164.026
                      27    9 Sep 2021 03:18:39.940    9 Sep 2021 03:38:03.964          1164.024

Min Duration          24    9 Sep 2021 00:41:05.175    9 Sep 2021 01:00:29.197          1164.023
Max Duration          14    8 Sep 2021 15:55:49.290    8 Sep 2021 16:15:13.318          1164.029
Mean Duration                                                                           1164.026
Total Duration                                                                         31428.689


Satellite305-To-Satellite604
----------------------------
                  Access       Start Time (UTCG)           Stop Time (UTCG)       Duration (sec)
                  ------    -----------------------    -----------------------    --------------
                       1    8 Sep 2021 04:33:54.726    8 Sep 2021 04:40:56.263           421.537
                       2    8 Sep 2021 05:26:26.319    8 Sep 2021 05:33:27.851           421.532
                       3    8 Sep 2021 06:18:57.903    8 Sep 2021 06:25:59.437           421.534
                       4    8 Sep 2021 07:11:29.495    8 Sep 2021 07:18:31.027           421.533
                       5    8 Sep 2021 08:04:01.079    8 Sep 2021 08:11:02.616           421.537
                       6    8 Sep 2021 08:56:32.671    8 Sep 2021 09:03:34.204           421.533
                       7    8 Sep 2021 09:49:04.256    8 Sep 2021 09:56:05.793           421.537
                       8    8 Sep 2021 10:41:35.847    8 Sep 2021 10:48:37.381           421.534
                       9    8 Sep 2021 11:34:07.433    8 Sep 2021 11:41:08.970           421.537
                      10    8 Sep 2021 12:26:39.023    8 Sep 2021 12:33:40.558           421.536
                      11    8 Sep 2021 13:19:10.611    8 Sep 2021 13:26:12.147           421.536
                      12    8 Sep 2021 14:11:42.199    8 Sep 2021 14:18:43.735           421.536
                      13    8 Sep 2021 15:04:13.790    8 Sep 2021 15:11:15.323           421.534
                      14    8 Sep 2021 15:56:45.375    8 Sep 2021 16:03:46.912           421.537
                      15    8 Sep 2021 16:49:16.966    8 Sep 2021 16:56:18.500           421.534
                      16    8 Sep 2021 17:41:48.552    8 Sep 2021 17:48:50.089           421.537
                      17    8 Sep 2021 18:34:20.145    8 Sep 2021 18:41:21.677           421.532
                      18    8 Sep 2021 19:26:51.728    8 Sep 2021 19:33:53.263           421.534
                      19    8 Sep 2021 20:19:23.321    8 Sep 2021 20:26:24.853           421.533
                      20    8 Sep 2021 21:11:54.905    8 Sep 2021 21:18:56.442           421.537
                      21    8 Sep 2021 22:04:26.497    8 Sep 2021 22:11:28.030           421.533
                      22    8 Sep 2021 22:56:58.082    8 Sep 2021 23:03:59.619           421.537
                      23    8 Sep 2021 23:49:29.673    8 Sep 2021 23:56:31.207           421.534
                      24    9 Sep 2021 00:42:01.259    9 Sep 2021 00:49:02.796           421.537
                      25    9 Sep 2021 01:34:32.849    9 Sep 2021 01:41:34.384           421.536
                      26    9 Sep 2021 02:27:04.436    9 Sep 2021 02:34:05.973           421.536
                      27    9 Sep 2021 03:19:36.025    9 Sep 2021 03:26:37.561           421.536

Min Duration          17    8 Sep 2021 18:34:20.145    8 Sep 2021 18:41:21.677           421.532
Max Duration           1    8 Sep 2021 04:33:54.726    8 Sep 2021 04:40:56.263           421.537
Mean Duration                                                                            421.535
Total Duration                                                                         11381.448


Satellite305-To-Satellite609
----------------------------
                  Access       Start Time (UTCG)           Stop Time (UTCG)       Duration (sec)
                  ------    -----------------------    -----------------------    --------------
                       1    8 Sep 2021 04:08:12.443    8 Sep 2021 04:14:06.953           354.510
                       2    8 Sep 2021 05:00:44.035    8 Sep 2021 05:06:38.545           354.510
                       3    8 Sep 2021 05:53:15.624    8 Sep 2021 05:59:10.134           354.510
                       4    8 Sep 2021 06:45:47.210    8 Sep 2021 06:51:41.722           354.512
                       5    8 Sep 2021 07:38:18.797    8 Sep 2021 07:44:13.308           354.511
                       6    8 Sep 2021 08:30:50.388    8 Sep 2021 08:36:44.899           354.511
                       7    8 Sep 2021 09:23:21.973    8 Sep 2021 09:29:16.488           354.515
                       8    8 Sep 2021 10:15:53.562    8 Sep 2021 10:21:48.071           354.510
                       9    8 Sep 2021 11:08:25.153    8 Sep 2021 11:14:19.663           354.511
                      10    8 Sep 2021 12:00:56.742    8 Sep 2021 12:06:51.253           354.511
                      11    8 Sep 2021 12:53:28.328    8 Sep 2021 12:59:22.841           354.514
                      12    8 Sep 2021 13:45:59.916    8 Sep 2021 13:51:54.427           354.511
                      13    8 Sep 2021 14:38:31.507    8 Sep 2021 14:44:26.018           354.511
                      14    8 Sep 2021 15:31:03.092    8 Sep 2021 15:36:57.607           354.515
                      15    8 Sep 2021 16:23:34.680    8 Sep 2021 16:29:29.190           354.510
                      16    8 Sep 2021 17:16:06.272    8 Sep 2021 17:22:00.782           354.511
                      17    8 Sep 2021 18:08:37.861    8 Sep 2021 18:14:32.372           354.511
                      18    8 Sep 2021 19:01:09.448    8 Sep 2021 19:07:03.960           354.512
                      19    8 Sep 2021 19:53:41.034    8 Sep 2021 19:59:35.545           354.511
                      20    8 Sep 2021 20:46:12.626    8 Sep 2021 20:52:07.136           354.511
                      21    8 Sep 2021 21:38:44.211    8 Sep 2021 21:44:38.725           354.515
                      22    8 Sep 2021 22:31:15.799    8 Sep 2021 22:37:10.311           354.512
                      23    8 Sep 2021 23:23:47.390    8 Sep 2021 23:29:41.901           354.511
                      24    9 Sep 2021 00:16:18.980    9 Sep 2021 00:22:13.491           354.511
                      25    9 Sep 2021 01:08:50.566    9 Sep 2021 01:14:45.079           354.513
                      26    9 Sep 2021 02:01:22.153    9 Sep 2021 02:07:16.664           354.511
                      27    9 Sep 2021 02:53:53.744    9 Sep 2021 02:59:48.255           354.511
                      28    9 Sep 2021 03:46:25.329    9 Sep 2021 03:52:19.844           354.515

Min Duration          15    8 Sep 2021 16:23:34.680    8 Sep 2021 16:29:29.190           354.510
Max Duration           7    8 Sep 2021 09:23:21.973    8 Sep 2021 09:29:16.488           354.515
Mean Duration                                                                            354.512
Total Duration                                                                          9926.324


Satellite305-To-Satellite610
----------------------------
                  Access       Start Time (UTCG)           Stop Time (UTCG)       Duration (sec)
                  ------    -----------------------    -----------------------    --------------
                       1    8 Sep 2021 04:00:00.000    8 Sep 2021 04:15:27.026           927.026
                       2    8 Sep 2021 04:48:53.648    8 Sep 2021 05:07:58.612          1144.965
                       3    8 Sep 2021 05:41:25.236    8 Sep 2021 06:00:30.202          1144.966
                       4    8 Sep 2021 06:33:56.824    8 Sep 2021 06:53:01.791          1144.966
                       5    8 Sep 2021 07:26:28.409    8 Sep 2021 07:45:33.379          1144.970
                       6    8 Sep 2021 08:18:59.998    8 Sep 2021 08:38:04.967          1144.969
                       7    8 Sep 2021 09:11:31.587    8 Sep 2021 09:30:36.556          1144.969
                       8    8 Sep 2021 10:04:03.175    8 Sep 2021 10:23:08.144          1144.969
                       9    8 Sep 2021 10:56:34.764    8 Sep 2021 11:15:39.732          1144.969
                      10    8 Sep 2021 11:49:06.352    8 Sep 2021 12:08:11.321          1144.968
                      11    8 Sep 2021 12:41:37.941    8 Sep 2021 13:00:42.909          1144.968
                      12    8 Sep 2021 13:34:09.529    8 Sep 2021 13:53:14.498          1144.968
                      13    8 Sep 2021 14:26:41.118    8 Sep 2021 14:45:46.086          1144.968
                      14    8 Sep 2021 15:19:12.706    8 Sep 2021 15:38:17.674          1144.968
                      15    8 Sep 2021 16:11:44.294    8 Sep 2021 16:30:49.263          1144.968
                      16    8 Sep 2021 17:04:15.883    8 Sep 2021 17:23:20.851          1144.968
                      17    8 Sep 2021 17:56:47.471    8 Sep 2021 18:15:52.440          1144.968
                      18    8 Sep 2021 18:49:19.060    8 Sep 2021 19:08:24.028          1144.968
                      19    8 Sep 2021 19:41:50.648    8 Sep 2021 20:00:55.616          1144.968
                      20    8 Sep 2021 20:34:22.236    8 Sep 2021 20:53:27.205          1144.968
                      21    8 Sep 2021 21:26:53.825    8 Sep 2021 21:45:58.793          1144.968
                      22    8 Sep 2021 22:19:25.413    8 Sep 2021 22:38:30.381          1144.968
                      23    8 Sep 2021 23:11:57.002    8 Sep 2021 23:31:01.970          1144.968
                      24    9 Sep 2021 00:04:28.590    9 Sep 2021 00:23:33.558          1144.968
                      25    9 Sep 2021 00:57:00.178    9 Sep 2021 01:16:05.147          1144.968
                      26    9 Sep 2021 01:49:31.767    9 Sep 2021 02:08:36.735          1144.968
                      27    9 Sep 2021 02:42:03.355    9 Sep 2021 03:01:08.323          1144.968
                      28    9 Sep 2021 03:34:34.944    9 Sep 2021 03:53:39.912          1144.968

Min Duration           1    8 Sep 2021 04:00:00.000    8 Sep 2021 04:15:27.026           927.026
Max Duration           5    8 Sep 2021 07:26:28.409    8 Sep 2021 07:45:33.379          1144.970
Mean Duration                                                                           1137.185
Total Duration                                                                         31841.167


Satellite305-To-Satellite701
----------------------------
                  Access       Start Time (UTCG)           Stop Time (UTCG)       Duration (sec)
                  ------    -----------------------    -----------------------    --------------
                       1    8 Sep 2021 04:00:00.000    8 Sep 2021 04:09:21.733           561.733
                       2    8 Sep 2021 04:43:09.831    8 Sep 2021 05:01:53.322          1123.491
                       3    8 Sep 2021 05:35:41.419    8 Sep 2021 05:54:24.909          1123.490
                       4    8 Sep 2021 06:28:13.006    8 Sep 2021 06:46:56.501          1123.495
