routing/visibility/v307.txt

Satellite307-To-Satellite101
----------------------------
                  Access       Start Time (UTCG)           Stop Time (UTCG)       Duration (sec)
                  ------    -----------------------    -----------------------    --------------
                       1    8 Sep 2021 04:42:04.795    8 Sep 2021 04:49:50.465           465.670
                       2    8 Sep 2021 05:34:36.381    8 Sep 2021 05:42:22.052           465.672
                       3    8 Sep 2021 06:27:07.967    8 Sep 2021 06:34:53.641           465.674
                       4    8 Sep 2021 07:19:39.555    8 Sep 2021 07:27:25.230           465.675
                       5    8 Sep 2021 08:12:11.144    8 Sep 2021 08:19:56.814           465.670
                       6    8 Sep 2021 09:04:42.732    8 Sep 2021 09:12:28.405           465.673
                       7    8 Sep 2021 09:57:14.321    8 Sep 2021 10:04:59.995           465.675
                       8    8 Sep 2021 10:49:45.910    8 Sep 2021 10:57:31.584           465.674
                       9    8 Sep 2021 11:42:17.502    8 Sep 2021 11:50:03.172           465.670
                      10    8 Sep 2021 12:34:49.088    8 Sep 2021 12:42:34.759           465.672
                      11    8 Sep 2021 13:27:20.674    8 Sep 2021 13:35:06.349           465.674
                      12    8 Sep 2021 14:19:52.262    8 Sep 2021 14:27:37.937           465.675
                      13    8 Sep 2021 15:12:23.851    8 Sep 2021 15:20:09.521           465.670
                      14    8 Sep 2021 16:04:55.439    8 Sep 2021 16:12:41.112           465.673
                      15    8 Sep 2021 16:57:27.028    8 Sep 2021 17:05:12.703           465.675
                      16    8 Sep 2021 17:49:58.617    8 Sep 2021 17:57:44.291           465.674
                      17    8 Sep 2021 18:42:30.209    8 Sep 2021 18:50:15.879           465.670
                      18    8 Sep 2021 19:35:01.795    8 Sep 2021 19:42:47.467           465.672
                      19    8 Sep 2021 20:27:33.382    8 Sep 2021 20:35:19.056           465.674
                      20    8 Sep 2021 21:20:04.969    8 Sep 2021 21:27:50.644           465.675
                      21    8 Sep 2021 22:12:36.560    8 Sep 2021 22:20:22.228           465.668
                      22    8 Sep 2021 23:05:08.146    8 Sep 2021 23:12:53.819           465.673
                      23    8 Sep 2021 23:57:39.735    9 Sep 2021 00:05:25.410           465.675
                      24    9 Sep 2021 00:50:11.326    9 Sep 2021 00:57:56.998           465.672
                      25    9 Sep 2021 01:42:42.916    9 Sep 2021 01:50:28.586           465.670
                      26    9 Sep 2021 02:35:14.502    9 Sep 2021 02:43:00.174           465.672
                      27    9 Sep 2021 03:27:46.089    9 Sep 2021 03:35:31.763           465.674

Min Duration          21    8 Sep 2021 22:12:36.560    8 Sep 2021 22:20:22.228           465.668
Max Duration          12    8 Sep 2021 14:19:52.262    8 Sep 2021 14:27:37.937           465.675
Mean Duration                                                                            465.673
Total Duration                                                                         12573.162


Satellite307-To-Satellite107
----------------------------
                  Access       Start Time (UTCG)           Stop Time (UTCG)       Duration (sec)
                  ------    -----------------------    -----------------------    --------------
                       1    8 Sep 2021 04:10:29.469    8 Sep 2021 04:18:23.880           474.411
                       2    8 Sep 2021 05:03:01.057    8 Sep 2021 05:10:55.468           474.411
                       3    8 Sep 2021 05:55:32.647    8 Sep 2021 06:03:27.055           474.408
                       4    8 Sep 2021 06:48:04.237    8 Sep 2021 06:55:58.645           474.408
                       5    8 Sep 2021 07:40:35.824    8 Sep 2021 07:48:30.233           474.410
                       6    8 Sep 2021 08:33:07.411    8 Sep 2021 08:41:01.821           474.410
                       7    8 Sep 2021 09:25:39.004    8 Sep 2021 09:33:33.406           474.402
                       8    8 Sep 2021 10:18:10.590    8 Sep 2021 10:26:04.999           474.409
                       9    8 Sep 2021 11:10:42.176    8 Sep 2021 11:18:36.587           474.411
                      10    8 Sep 2021 12:03:13.765    8 Sep 2021 12:11:08.175           474.410
                      11    8 Sep 2021 12:55:45.355    8 Sep 2021 13:03:39.763           474.408
                      12    8 Sep 2021 13:48:16.945    8 Sep 2021 13:56:11.352           474.407
                      13    8 Sep 2021 14:40:48.530    8 Sep 2021 14:48:42.941           474.410
                      14    8 Sep 2021 15:33:20.118    8 Sep 2021 15:41:14.529           474.411
                      15    8 Sep 2021 16:25:51.708    8 Sep 2021 16:33:46.113           474.405
                      16    8 Sep 2021 17:18:23.295    8 Sep 2021 17:26:17.706           474.411
                      17    8 Sep 2021 18:10:54.883    8 Sep 2021 18:18:49.294           474.411
                      18    8 Sep 2021 19:03:26.472    8 Sep 2021 19:11:20.881           474.409
                      19    8 Sep 2021 19:55:58.063    8 Sep 2021 20:03:52.470           474.407
                      20    8 Sep 2021 20:48:29.652    8 Sep 2021 20:56:24.059           474.407
                      21    8 Sep 2021 21:41:01.237    8 Sep 2021 21:48:55.648           474.411
                      22    8 Sep 2021 22:33:32.825    8 Sep 2021 22:41:27.236           474.411
                      23    8 Sep 2021 23:26:04.413    8 Sep 2021 23:33:58.821           474.408
                      24    9 Sep 2021 00:18:36.002    9 Sep 2021 00:26:30.413           474.411
                      25    9 Sep 2021 01:11:07.590    9 Sep 2021 01:19:02.001           474.411
                      26    9 Sep 2021 02:03:39.180    9 Sep 2021 02:11:33.588           474.408
                      27    9 Sep 2021 02:56:10.771    9 Sep 2021 03:04:05.177           474.406
                      28    9 Sep 2021 03:48:42.360    9 Sep 2021 03:56:36.766           474.406

Min Duration           7    8 Sep 2021 09:25:39.004    8 Sep 2021 09:33:33.406           474.402
Max Duration          16    8 Sep 2021 17:18:23.295    8 Sep 2021 17:26:17.706           474.411
Mean Duration                                                                            474.409
Total Duration                                                                         13283.449


Satellite307-To-Satellite108
----------------------------
                  Access       Start Time (UTCG)           Stop Time (UTCG)       Duration (sec)
                  ------    -----------------------    -----------------------    --------------
                       1    8 Sep 2021 04:00:00.000    8 Sep 2021 04:24:04.654          1444.654
                       2    8 Sep 2021 04:46:49.964    8 Sep 2021 05:16:36.245          1786.280
                       3    8 Sep 2021 05:39:21.551    8 Sep 2021 06:09:07.832          1786.280
                       4    8 Sep 2021 06:31:53.142    8 Sep 2021 07:01:39.422          1786.279
                       5    8 Sep 2021 07:24:24.728    8 Sep 2021 07:54:11.009          1786.281
                       6    8 Sep 2021 08:16:56.319    8 Sep 2021 08:46:42.598          1786.279
                       7    8 Sep 2021 09:09:27.905    8 Sep 2021 09:39:14.186          1786.281
                       8    8 Sep 2021 10:01:59.496    8 Sep 2021 10:31:45.775          1786.279
                       9    8 Sep 2021 10:54:31.082    8 Sep 2021 11:24:17.363          1786.281
                      10    8 Sep 2021 11:47:02.673    8 Sep 2021 12:16:48.952          1786.279
                      11    8 Sep 2021 12:39:34.259    8 Sep 2021 13:09:20.540          1786.281
                      12    8 Sep 2021 13:32:05.850    8 Sep 2021 14:01:52.129          1786.279
                      13    8 Sep 2021 14:24:37.436    8 Sep 2021 14:54:23.716          1786.281
                      14    8 Sep 2021 15:17:09.027    8 Sep 2021 15:46:55.306          1786.279
                      15    8 Sep 2021 16:09:40.612    8 Sep 2021 16:39:26.893          1786.281
                      16    8 Sep 2021 17:02:12.204    8 Sep 2021 17:31:58.482          1786.279
                      17    8 Sep 2021 17:54:43.789    8 Sep 2021 18:24:30.070          1786.281
                      18    8 Sep 2021 18:47:15.381    8 Sep 2021 19:17:01.659          1786.279
                      19    8 Sep 2021 19:39:46.966    8 Sep 2021 20:09:33.247          1786.281
                      20    8 Sep 2021 20:32:18.557    8 Sep 2021 21:02:04.836          1786.278
                      21    8 Sep 2021 21:24:50.143    8 Sep 2021 21:54:36.424          1786.281
                      22    8 Sep 2021 22:17:21.734    8 Sep 2021 22:47:08.013          1786.278
                      23    8 Sep 2021 23:09:53.320    8 Sep 2021 23:39:39.600          1786.281
                      24    9 Sep 2021 00:02:24.911    9 Sep 2021 00:32:11.190          1786.278
                      25    9 Sep 2021 00:54:56.496    9 Sep 2021 01:24:42.777          1786.281
                      26    9 Sep 2021 01:47:28.088    9 Sep 2021 02:17:14.366          1786.278
                      27    9 Sep 2021 02:39:59.673    9 Sep 2021 03:09:45.954          1786.281
                      28    9 Sep 2021 03:32:31.265    9 Sep 2021 04:00:00.000          1648.735

Min Duration           1    8 Sep 2021 04:00:00.000    8 Sep 2021 04:24:04.654          1444.654
Max Duration          27    9 Sep 2021 02:39:59.673    9 Sep 2021 03:09:45.954          1786.281
Mean Duration                                                                           1769.167
Total Duration                                                                         49536.664


Satellite307-To-Satellite109
----------------------------
                  Access       Start Time (UTCG)           Stop Time (UTCG)       Duration (sec)
                  ------    -----------------------    -----------------------    --------------
                       1    8 Sep 2021 04:00:00.000    8 Sep 2021 04:22:47.008          1367.008
                       2    8 Sep 2021 04:37:37.295    8 Sep 2021 05:15:18.596          2261.301
                       3    8 Sep 2021 05:30:08.884    8 Sep 2021 06:07:50.185          2261.301
                       4    8 Sep 2021 06:22:40.472    8 Sep 2021 07:00:21.773          2261.301
                       5    8 Sep 2021 07:15:12.060    8 Sep 2021 07:52:53.362          2261.301
                       6    8 Sep 2021 08:07:43.649    8 Sep 2021 08:45:24.950          2261.301
                       7    8 Sep 2021 09:00:15.237    8 Sep 2021 09:37:56.538          2261.301
                       8    8 Sep 2021 09:52:46.826    8 Sep 2021 10:30:28.127          2261.301
                       9    8 Sep 2021 10:45:18.414    8 Sep 2021 11:22:59.715          2261.301
                      10    8 Sep 2021 11:37:50.002    8 Sep 2021 12:15:31.304          2261.301
                      11    8 Sep 2021 12:30:21.591    8 Sep 2021 13:08:02.892          2261.301
                      12    8 Sep 2021 13:22:53.179    8 Sep 2021 14:00:34.480          2261.301
                      13    8 Sep 2021 14:15:24.767    8 Sep 2021 14:53:06.069          2261.301
                      14    8 Sep 2021 15:07:56.356    8 Sep 2021 15:45:37.657          2261.301
                      15    8 Sep 2021 16:00:27.944    8 Sep 2021 16:38:09.246          2261.301
                      16    8 Sep 2021 16:52:59.533    8 Sep 2021 17:30:40.834          2261.301
                      17    8 Sep 2021 17:45:31.121    8 Sep 2021 18:23:12.422          2261.301
                      18    8 Sep 2021 18:38:02.709    8 Sep 2021 19:15:44.011          2261.301
                      19    8 Sep 2021 19:30:34.298    8 Sep 2021 20:08:15.599          2261.301
                      20    8 Sep 2021 20:23:05.886    8 Sep 2021 21:00:47.188          2261.301
                      21    8 Sep 2021 21:15:37.475    8 Sep 2021 21:53:18.776          2261.301
                      22    8 Sep 2021 22:08:09.063    8 Sep 2021 22:45:50.364          2261.301
                      23    8 Sep 2021 23:00:40.651    8 Sep 2021 23:38:21.953          2261.301
                      24    8 Sep 2021 23:53:12.240    9 Sep 2021 00:30:53.541          2261.301
                      25    9 Sep 2021 00:45:43.828    9 Sep 2021 01:23:25.129          2261.301
                      26    9 Sep 2021 01:38:15.417    9 Sep 2021 02:15:56.718          2261.301
                      27    9 Sep 2021 02:30:47.005    9 Sep 2021 03:08:28.306          2261.301
                      28    9 Sep 2021 03:23:18.593    9 Sep 2021 04:00:00.000          2201.407

Min Duration           1    8 Sep 2021 04:00:00.000    8 Sep 2021 04:22:47.008          1367.008
Max Duration          27    9 Sep 2021 02:30:47.005    9 Sep 2021 03:08:28.306          2261.301
Mean Duration                                                                           2227.223
Total Duration                                                                         62362.247


Satellite307-To-Satellite110
----------------------------
                  Access       Start Time (UTCG)           Stop Time (UTCG)       Duration (sec)
                  ------    -----------------------    -----------------------    --------------
                       1    8 Sep 2021 04:00:00.000    8 Sep 2021 04:13:37.040           817.040
                       2    8 Sep 2021 04:36:16.941    8 Sep 2021 05:06:08.627          1791.686
                       3    8 Sep 2021 05:28:48.533    8 Sep 2021 05:58:40.220          1791.687
                       4    8 Sep 2021 06:21:20.121    8 Sep 2021 06:51:11.808          1791.687
                       5    8 Sep 2021 07:13:51.709    8 Sep 2021 07:43:43.397          1791.687
                       6    8 Sep 2021 08:06:23.298    8 Sep 2021 08:36:14.985          1791.687
                       7    8 Sep 2021 08:58:54.886    8 Sep 2021 09:28:46.573          1791.687
                       8    8 Sep 2021 09:51:26.474    8 Sep 2021 10:21:18.161          1791.687
                       9    8 Sep 2021 10:43:58.062    8 Sep 2021 11:13:49.749          1791.687
                      10    8 Sep 2021 11:36:29.650    8 Sep 2021 12:06:21.337          1791.687
                      11    8 Sep 2021 12:29:01.238    8 Sep 2021 12:58:52.925          1791.687
                      12    8 Sep 2021 13:21:32.826    8 Sep 2021 13:51:24.513          1791.687
                      13    8 Sep 2021 14:14:04.414    8 Sep 2021 14:43:56.102          1791.687
                      14    8 Sep 2021 15:06:36.003    8 Sep 2021 15:36:27.690          1791.687
                      15    8 Sep 2021 15:59:07.591    8 Sep 2021 16:28:59.278          1791.687
                      16    8 Sep 2021 16:51:39.179    8 Sep 2021 17:21:30.866          1791.687
                      17    8 Sep 2021 17:44:10.767    8 Sep 2021 18:14:02.454          1791.687
                      18    8 Sep 2021 18:36:42.356    8 Sep 2021 19:06:34.041          1791.686
                      19    8 Sep 2021 19:29:13.947    8 Sep 2021 19:59:05.630          1791.682
                      20    8 Sep 2021 20:21:45.536    8 Sep 2021 20:51:37.218          1791.682
                      21    8 Sep 2021 21:14:17.124    8 Sep 2021 21:44:08.811          1791.687
                      22    8 Sep 2021 22:06:48.712    8 Sep 2021 22:36:40.399          1791.687
                      23    8 Sep 2021 22:59:20.300    8 Sep 2021 23:29:11.987          1791.687
                      24    8 Sep 2021 23:51:51.889    9 Sep 2021 00:21:43.576          1791.687
                      25    9 Sep 2021 00:44:23.477    9 Sep 2021 01:14:15.164          1791.687
                      26    9 Sep 2021 01:36:55.065    9 Sep 2021 02:06:46.752          1791.687
                      27    9 Sep 2021 02:29:26.653    9 Sep 2021 02:59:18.340          1791.687
                      28    9 Sep 2021 03:21:58.241    9 Sep 2021 03:51:49.928          1791.687

Min Duration           1    8 Sep 2021 04:00:00.000    8 Sep 2021 04:13:37.040           817.040
Max Duration          17    8 Sep 2021 17:44:10.767    8 Sep 2021 18:14:02.454          1791.687
Mean Duration                                                                           1756.878
Total Duration                                                                         49192.579


Satellite307-To-Satellite207
----------------------------
                  Access       Start Time (UTCG)           Stop Time (UTCG)       Duration (sec)
                  ------    -----------------------    -----------------------    --------------
                       1    8 Sep 2021 04:00:00.000    9 Sep 2021 04:00:00.000         86400.000

Min Duration           1    8 Sep 2021 04:00:00.000    9 Sep 2021 04:00:00.000         86400.000
Max Duration           1    8 Sep 2021 04:00:00.000    9 Sep 2021 04:00:00.000         86400.000
Mean Duration                                                                          86400.000
Total Duration                                                                         86400.000


Satellite307-To-Satellite208
----------------------------
                  Access       Start Time (UTCG)           Stop Time (UTCG)       Duration (sec)
                  ------    -----------------------    -----------------------    --------------
                       1    8 Sep 2021 04:00:00.000    9 Sep 2021 04:00:00.000         86400.000

Min Duration           1    8 Sep 2021 04:00:00.000    9 Sep 2021 04:00:00.000         86400.000
Max Duration           1    8 Sep 2021 04:00:00.000    9 Sep 2021 04:00:00.000         86400.000
Mean Duration                                                                          86400.000
Total Duration                                                                         86400.000


Satellite307-To-Satellite209
----------------------------
                  Access       Start Time (UTCG)           Stop Time (UTCG)       Duration (sec)
                  ------    -----------------------    -----------------------    --------------
                       1    8 Sep 2021 04:00:00.000    9 Sep 2021 04:00:00.000         86400.000

Min Duration           1    8 Sep 2021 04:00:00.000    9 Sep 2021 04:00:00.000         86400.000
Max Duration           1    8 Sep 2021 04:00:00.000    9 Sep 2021 04:00:00.000         86400.000
Mean Duration                                                                          86400.000
Total Duration                                                                         86400.000


Satellite307-To-Satellite306
----------------------------
                  Access       Start Time (UTCG)           Stop Time (UTCG)       Duration (sec)
                  ------    -----------------------    -----------------------    --------------
                       1    8 Sep 2021 04:00:00.000    9 Sep 2021 04:00:00.000         86400.000

Min Duration           1    8 Sep 2021 04:00:00.000    9 Sep 2021 04:00:00.000         86400.000
Max Duration           1    8 Sep 2021 04:00:00.000    9 Sep 2021 04:00:00.000         86400.000
Mean Duration                                                                          86400.000
Total Duration                                                                         86400.000


Satellite307-To-Satellite308
----------------------------
                  Access       Start Time (UTCG)           Stop Time (UTCG)       Duration (sec)
                  ------    -----------------------    -----------------------    --------------
                       1    8 Sep 2021 04:00:00.000    9 Sep 2021 04:00:00.000         86400.000

Min Duration           1    8 Sep 2021 04:00:00.000    9 Sep 2021 04:00:00.000         86400.000
Max Duration           1    8 Sep 2021 04:00:00.000    9 Sep 2021 04:00:00.000         86400.000
Mean Duration                                                                          86400.000
Total Duration                                                                         86400.000


Satellite307-To-Satellite405
----------------------------
                  Access       Start Time (UTCG)           Stop Time (UTCG)       Duration (sec)
                  ------    -----------------------    -----------------------    --------------
                       1    8 Sep 2021 04:00:00.000    9 Sep 2021 04:00:00.000         86400.000

Min Duration           1    8 Sep 2021 04:00:00.000    9 Sep 2021 04:00:00.000         86400.000
Max Duration           1    8 Sep 2021 04:00:00.000    9 Sep 2021 04:00:00.000         86400.000
Mean Duration                                                                          86400.000
Total Duration                                                                         86400.000


Satellite307-To-Satellite406
----------------------------
                  Access       Start Time (UTCG)           Stop Time (UTCG)       Duration (sec)
                  ------    -----------------------    -----------------------    --------------
                       1    8 Sep 2021 04:00:00.000    9 Sep 2021 04:00:00.000         86400.000

Min Duration           1    8 Sep 2021 04:00:00.000    9 Sep 2021 04:00:00.000         86400.000
Max Duration           1    8 Sep 2021 04:00:00.000    9 Sep 2021 04:00:00.000         86400.000
Mean Duration                                                                          86400.000
Total Duration                                                                         86400.000


Satellite307-To-Satellite407
----------------------------
                  Access       Start Time (UTCG)           Stop Time (UTCG)       Duration (sec)
                  ------    -----------------------    -----------------------    --------------
                       1    8 Sep 2021 04:00:00.000    9 Sep 2021 04:00:00.000         86400.000

Min Duration           1    8 Sep 2021 04:00:00.000    9 Sep 2021 04:00:00.000         86400.000
Max Duration           1    8 Sep 2021 04:00:00.000    9 Sep 2021 04:00:00.000         86400.000
Mean Duration                                                                          86400.000
Total Duration                                                                         86400.000


Satellite307-To-Satellite503
----------------------------
                  Access       Start Time (UTCG)           Stop Time (UTCG)       Duration (sec)
                  ------    -----------------------    -----------------------    --------------
                       1    8 Sep 2021 04:28:56.893    8 Sep 2021 04:36:42.563           465.670
                       2    8 Sep 2021 05:21:28.481    8 Sep 2021 05:29:14.155           465.673
                       3    8 Sep 2021 06:14:00.070    8 Sep 2021 06:21:45.745           465.675
                       4    8 Sep 2021 07:06:31.659    8 Sep 2021 07:14:17.333           465.674
                       5    8 Sep 2021 07:59:03.251    8 Sep 2021 08:06:48.921           465.670
                       6    8 Sep 2021 08:51:34.837    8 Sep 2021 08:59:20.509           465.672
                       7    8 Sep 2021 09:44:06.424    8 Sep 2021 09:51:52.098           465.674
                       8    8 Sep 2021 10:36:38.012    8 Sep 2021 10:44:23.687           465.675
                       9    8 Sep 2021 11:29:09.600    8 Sep 2021 11:36:55.270           465.670
                      10    8 Sep 2021 12:21:41.188    8 Sep 2021 12:29:26.861           465.673
                      11    8 Sep 2021 13:14:12.777    8 Sep 2021 13:21:58.452           465.675
                      12    8 Sep 2021 14:06:44.368    8 Sep 2021 14:14:30.040           465.672
                      13    8 Sep 2021 14:59:15.958    8 Sep 2021 15:07:01.628           465.670
                      14    8 Sep 2021 15:51:47.544    8 Sep 2021 15:59:33.216           465.672
                      15    8 Sep 2021 16:44:19.131    8 Sep 2021 16:52:04.805           465.674
                      16    8 Sep 2021 17:36:50.719    8 Sep 2021 17:44:36.394           465.675
                      17    8 Sep 2021 18:29:22.311    8 Sep 2021 18:37:07.977           465.667
                      18    8 Sep 2021 19:21:53.896    8 Sep 2021 19:29:39.568           465.673
                      19    8 Sep 2021 20:14:25.484    8 Sep 2021 20:22:11.159           465.675
                      20    8 Sep 2021 21:06:57.075    8 Sep 2021 21:14:42.747           465.672
                      21    8 Sep 2021 21:59:28.665    8 Sep 2021 22:07:14.335           465.670
                      22    8 Sep 2021 22:52:00.251    8 Sep 2021 22:59:45.923           465.672
                      23    8 Sep 2021 23:44:31.838    8 Sep 2021 23:52:17.512           465.674
                      24    9 Sep 2021 00:37:03.426    9 Sep 2021 00:44:49.101           465.675
                      25    9 Sep 2021 01:29:35.015    9 Sep 2021 01:37:20.686           465.671
                      26    9 Sep 2021 02:22:06.603    9 Sep 2021 02:29:52.275           465.672
                      27    9 Sep 2021 03:14:38.191    9 Sep 2021 03:22:23.866           465.675

Min Duration          17    8 Sep 2021 18:29:22.311    8 Sep 2021 18:37:07.977           465.667
Max Duration          24    9 Sep 2021 00:37:03.426    9 Sep 2021 00:44:49.101           465.675
Mean Duration                                                                            465.673
Total Duration                                                                         12573.160


Satellite307-To-Satellite504
----------------------------
                  Access       Start Time (UTCG)           Stop Time (UTCG)       Duration (sec)
                  ------    -----------------------    -----------------------    --------------
                       1    8 Sep 2021 04:12:38.731    8 Sep 2021 04:42:30.415          1791.684
                       2    8 Sep 2021 05:05:10.319    8 Sep 2021 05:35:02.003          1791.684
                       3    8 Sep 2021 05:57:41.907    8 Sep 2021 06:27:33.591          1791.684
                       4    8 Sep 2021 06:50:13.495    8 Sep 2021 07:20:05.180          1791.684
                       5    8 Sep 2021 07:42:45.084    8 Sep 2021 08:12:36.768          1791.684
                       6    8 Sep 2021 08:35:16.672    8 Sep 2021 09:05:08.356          1791.684
                       7    8 Sep 2021 09:27:48.260    8 Sep 2021 09:57:39.943          1791.682
                       8    8 Sep 2021 10:20:19.849    8 Sep 2021 10:50:11.531          1791.682
                       9    8 Sep 2021 11:12:51.437    8 Sep 2021 11:42:43.119          1791.682
                      10    8 Sep 2021 12:05:23.025    8 Sep 2021 12:35:14.712          1791.687
                      11    8 Sep 2021 12:57:54.614    8 Sep 2021 13:27:46.301          1791.687
                      12    8 Sep 2021 13:50:26.202    8 Sep 2021 14:20:17.889          1791.687
                      13    8 Sep 2021 14:42:57.790    8 Sep 2021 15:12:49.477          1791.687
                      14    8 Sep 2021 15:35:29.378    8 Sep 2021 16:05:21.065          1791.687
                      15    8 Sep 2021 16:28:00.966    8 Sep 2021 16:57:52.653          1791.687
                      16    8 Sep 2021 17:20:32.554    8 Sep 2021 17:50:24.241          1791.687
                      17    8 Sep 2021 18:13:04.142    8 Sep 2021 18:42:55.829          1791.687
                      18    8 Sep 2021 19:05:35.731    8 Sep 2021 19:35:27.418          1791.687
                      19    8 Sep 2021 19:58:07.319    8 Sep 2021 20:27:59.006          1791.687
                      20    8 Sep 2021 20:50:38.907    8 Sep 2021 21:20:30.594          1791.687
                      21    8 Sep 2021 21:43:10.495    8 Sep 2021 22:13:02.182          1791.687
                      22    8 Sep 2021 22:35:42.083    8 Sep 2021 23:05:33.770          1791.687
                      23    8 Sep 2021 23:28:13.671    8 Sep 2021 23:58:05.359          1791.687
                      24    9 Sep 2021 00:20:45.260    9 Sep 2021 00:50:36.947          1791.687
                      25    9 Sep 2021 01:13:16.848    9 Sep 2021 01:43:08.534          1791.686
                      26    9 Sep 2021 02:05:48.440    9 Sep 2021 02:35:40.122          1791.682
                      27    9 Sep 2021 02:58:20.028    9 Sep 2021 03:28:11.710          1791.682
                      28    9 Sep 2021 03:50:51.616    9 Sep 2021 04:00:00.000           548.384

Min Duration          28    9 Sep 2021 03:50:51.616    9 Sep 2021 04:00:00.000           548.384
Max Duration          24    9 Sep 2021 00:20:45.260    9 Sep 2021 00:50:36.947          1791.687
Mean Duration                                                                           1747.282
Total Duration                                                                         48923.891


Satellite307-To-Satellite505
----------------------------
                  Access       Start Time (UTCG)           Stop Time (UTCG)       Duration (sec)
                  ------    -----------------------    -----------------------    --------------
                       1    8 Sep 2021 04:03:28.762    8 Sep 2021 04:41:10.064          2261.301
                       2    8 Sep 2021 04:56:00.351    8 Sep 2021 05:33:41.652          2261.301
                       3    8 Sep 2021 05:48:31.939    8 Sep 2021 06:26:13.241          2261.301
                       4    8 Sep 2021 06:41:03.528    8 Sep 2021 07:18:44.829          2261.301
                       5    8 Sep 2021 07:33:35.116    8 Sep 2021 08:11:16.418          2261.301
                       6    8 Sep 2021 08:26:06.705    8 Sep 2021 09:03:48.006          2261.301
                       7    8 Sep 2021 09:18:38.293    8 Sep 2021 09:56:19.594          2261.301
                       8    8 Sep 2021 10:11:09.881    8 Sep 2021 10:48:51.183          2261.301
                       9    8 Sep 2021 11:03:41.470    8 Sep 2021 11:41:22.771          2261.301
                      10    8 Sep 2021 11:56:13.058    8 Sep 2021 12:33:54.359          2261.301
                      11    8 Sep 2021 12:48:44.647    8 Sep 2021 13:26:25.948          2261.301
                      12    8 Sep 2021 13:41:16.235    8 Sep 2021 14:18:57.536          2261.301
                      13    8 Sep 2021 14:33:47.823    8 Sep 2021 15:11:29.125          2261.301
                      14    8 Sep 2021 15:26:19.412    8 Sep 2021 16:04:00.713          2261.301
                      15    8 Sep 2021 16:18:51.000    8 Sep 2021 16:56:32.301          2261.301
                      16    8 Sep 2021 17:11:22.589    8 Sep 2021 17:49:03.890          2261.301
                      17    8 Sep 2021 18:03:54.177    8 Sep 2021 18:41:35.478          2261.301
                      18    8 Sep 2021 18:56:25.765    8 Sep 2021 19:34:07.067          2261.301
                      19    8 Sep 2021 19:48:57.354    8 Sep 2021 20:26:38.655          2261.301
                      20    8 Sep 2021 20:41:28.942    8 Sep 2021 21:19:10.243          2261.301
                      21    8 Sep 2021 21:34:00.531    8 Sep 2021 22:11:41.832          2261.301
                      22    8 Sep 2021 22:26:32.119    8 Sep 2021 23:04:13.420          2261.301
                      23    8 Sep 2021 23:19:03.707    8 Sep 2021 23:56:45.009          2261.301
                      24    9 Sep 2021 00:11:35.296    9 Sep 2021 00:49:16.597          2261.301
                      25    9 Sep 2021 01:04:06.884    9 Sep 2021 01:41:48.185          2261.301
                      26    9 Sep 2021 01:56:38.473    9 Sep 2021 02:34:19.774          2261.301
                      27    9 Sep 2021 02:49:10.061    9 Sep 2021 03:26:51.362          2261.301
                      28    9 Sep 2021 03:41:41.649    9 Sep 2021 04:00:00.000          1098.351

Min Duration          28    9 Sep 2021 03:41:41.649    9 Sep 2021 04:00:00.000          1098.351
Max Duration           1    8 Sep 2021 04:03:28.762    8 Sep 2021 04:41:10.064          2261.301
Mean Duration                                                                           2219.767
Total Duration                                                                         62153.485


Satellite307-To-Satellite506
----------------------------
                  Access       Start Time (UTCG)           Stop Time (UTCG)       Duration (sec)
                  ------    -----------------------    -----------------------    --------------
                       1    8 Sep 2021 04:02:11.115    8 Sep 2021 04:31:57.395          1786.279
                       2    8 Sep 2021 04:54:42.701    8 Sep 2021 05:24:28.982          1786.281
                       3    8 Sep 2021 05:47:14.293    8 Sep 2021 06:17:00.572          1786.279
                       4    8 Sep 2021 06:39:45.878    8 Sep 2021 07:09:32.159          1786.281
                       5    8 Sep 2021 07:32:17.470    8 Sep 2021 08:02:03.748          1786.279
                       6    8 Sep 2021 08:24:49.055    8 Sep 2021 08:54:35.336          1786.281
                       7    8 Sep 2021 09:17:20.646    8 Sep 2021 09:47:06.925          1786.279
                       8    8 Sep 2021 10:09:52.232    8 Sep 2021 10:39:38.513          1786.281
                       9    8 Sep 2021 11:02:23.823    8 Sep 2021 11:32:10.102          1786.279
                      10    8 Sep 2021 11:54:55.409    8 Sep 2021 12:24:41.690          1786.281
                      11    8 Sep 2021 12:47:27.000    8 Sep 2021 13:17:13.279          1786.279
                      12    8 Sep 2021 13:39:58.585    8 Sep 2021 14:09:44.866          1786.281
                      13    8 Sep 2021 14:32:30.177    8 Sep 2021 15:02:16.455          1786.279
                      14    8 Sep 2021 15:25:01.762    8 Sep 2021 15:54:48.043          1786.281
                      15    8 Sep 2021 16:17:33.354    8 Sep 2021 16:47:19.632          1786.279
                      16    8 Sep 2021 17:10:04.939    8 Sep 2021 17:39:51.220          1786.281
                      17    8 Sep 2021 18:02:36.531    8 Sep 2021 18:32:22.809          1786.278
                      18    8 Sep 2021 18:55:08.116    8 Sep 2021 19:24:54.397          1786.281
                      19    8 Sep 2021 19:47:39.707    8 Sep 2021 20:17:25.986          1786.278
                      20    8 Sep 2021 20:40:11.293    8 Sep 2021 21:09:57.574          1786.281
                      21    8 Sep 2021 21:32:42.884    8 Sep 2021 22:02:29.163          1786.278
                      22    8 Sep 2021 22:25:14.469    8 Sep 2021 22:55:00.750          1786.281
                      23    8 Sep 2021 23:17:46.061    8 Sep 2021 23:47:32.339          1786.278
                      24    9 Sep 2021 00:10:17.646    9 Sep 2021 00:40:03.927          1786.281
                      25    9 Sep 2021 01:02:49.238    9 Sep 2021 01:32:35.516          1786.278
                      26    9 Sep 2021 01:55:20.823    9 Sep 2021 02:25:07.104          1786.281
                      27    9 Sep 2021 02:47:52.414    9 Sep 2021 03:17:38.693          1786.278
                      28    9 Sep 2021 03:40:24.000    9 Sep 2021 04:00:00.000          1176.000

Min Duration          28    9 Sep 2021 03:40:24.000    9 Sep 2021 04:00:00.000          1176.000
Max Duration          26    9 Sep 2021 01:55:20.823    9 Sep 2021 02:25:07.104          1786.281
Mean Duration                                                                           1764.484
Total Duration                                                                         49405.553


Satellite307-To-Satellite507
----------------------------
                  Access       Start Time (UTCG)           Stop Time (UTCG)       Duration (sec)
                  ------    -----------------------    -----------------------    --------------
                       1    8 Sep 2021 04:07:51.894    8 Sep 2021 04:15:46.300           474.407
                       2    8 Sep 2021 05:00:23.478    8 Sep 2021 05:08:17.889           474.411
                       3    8 Sep 2021 05:52:55.069    8 Sep 2021 06:00:49.473           474.404
                       4    8 Sep 2021 06:45:26.655    8 Sep 2021 06:53:21.064           474.409
                       5    8 Sep 2021 07:37:58.243    8 Sep 2021 07:45:52.654           474.411
                       6    8 Sep 2021 08:30:29.831    8 Sep 2021 08:38:24.242           474.411
                       7    8 Sep 2021 09:23:01.421    8 Sep 2021 09:30:55.829           474.408
                       8    8 Sep 2021 10:15:33.011    8 Sep 2021 10:23:27.419           474.408
                       9    8 Sep 2021 11:08:04.598    8 Sep 2021 11:15:59.008           474.410
                      10    8 Sep 2021 12:00:36.185    8 Sep 2021 12:08:30.594           474.409
                      11    8 Sep 2021 12:53:07.778    8 Sep 2021 13:01:02.180           474.402
                      12    8 Sep 2021 13:45:39.363    8 Sep 2021 13:53:33.773           474.410
                      13    8 Sep 2021 14:38:10.950    8 Sep 2021 14:46:05.361           474.411
                      14    8 Sep 2021 15:30:42.539    8 Sep 2021 15:38:36.949           474.410
                      15    8 Sep 2021 16:23:14.129    8 Sep 2021 16:31:08.537           474.408
                      16    8 Sep 2021 17:15:45.718    8 Sep 2021 17:23:40.126           474.408
                      17    8 Sep 2021 18:08:17.305    8 Sep 2021 18:16:11.715           474.410
                      18    8 Sep 2021 19:00:48.892    8 Sep 2021 19:08:43.303           474.410
                      19    8 Sep 2021 19:53:20.485    8 Sep 2021 20:01:14.887           474.402
                      20    8 Sep 2021 20:45:52.072    8 Sep 2021 20:53:46.480           474.408
                      21    8 Sep 2021 21:38:23.657    8 Sep 2021 21:46:18.068           474.411
                      22    8 Sep 2021 22:30:55.246    8 Sep 2021 22:38:49.656           474.410
                      23    8 Sep 2021 23:23:26.837    8 Sep 2021 23:31:21.244           474.407
                      24    9 Sep 2021 00:15:58.426    9 Sep 2021 00:23:52.833           474.407
                      25    9 Sep 2021 01:08:30.011    9 Sep 2021 01:16:24.422           474.411
                      26    9 Sep 2021 02:01:01.599    9 Sep 2021 02:08:56.010           474.411
                      27    9 Sep 2021 02:53:33.191    9 Sep 2021 03:01:27.595           474.404
                      28    9 Sep 2021 03:46:04.776    9 Sep 2021 03:53:59.187           474.411

Min Duration          19    8 Sep 2021 19:53:20.485    8 Sep 2021 20:01:14.887           474.402
Max Duration          28    9 Sep 2021 03:46:04.776    9 Sep 2021 03:53:59.187           474.411
Mean Duration                                                                            474.409
Total Duration                                                                         13283.439


Satellite307-To-Satellite601
----------------------------
                  Access       Start Time (UTCG)           Stop Time (UTCG)       Duration (sec)
                  ------    -----------------------    -----------------------    --------------
                       1    8 Sep 2021 04:39:43.399    8 Sep 2021 04:45:37.910           354.511
                       2    8 Sep 2021 05:32:14.985    8 Sep 2021 05:38:09.497           354.511
                       3    8 Sep 2021 06:24:46.575    8 Sep 2021 06:30:41.087           354.512
                       4    8 Sep 2021 07:17:18.164    8 Sep 2021 07:23:12.676           354.511
                       5    8 Sep 2021 08:09:49.750    8 Sep 2021 08:15:44.260           354.510
                       6    8 Sep 2021 09:02:21.342    8 Sep 2021 09:08:15.852           354.509
                       7    8 Sep 2021 09:54:52.931    8 Sep 2021 10:00:47.441           354.510
                       8    8 Sep 2021 10:47:24.515    8 Sep 2021 10:53:19.029           354.514
                       9    8 Sep 2021 11:39:56.104    8 Sep 2021 11:45:50.615           354.511
                      10    8 Sep 2021 12:32:27.696    8 Sep 2021 12:38:22.206           354.510
                      11    8 Sep 2021 13:24:59.280    8 Sep 2021 13:30:53.794           354.515
                      12    8 Sep 2021 14:17:30.868    8 Sep 2021 14:23:25.378           354.510
                      13    8 Sep 2021 15:10:02.460    8 Sep 2021 15:15:56.970           354.510
                      14    8 Sep 2021 16:02:34.049    8 Sep 2021 16:08:28.560           354.510
                      15    8 Sep 2021 16:55:05.635    8 Sep 2021 17:01:00.148           354.513
                      16    8 Sep 2021 17:47:37.222    8 Sep 2021 17:53:31.733           354.511
                      17    8 Sep 2021 18:40:08.814    8 Sep 2021 18:46:03.324           354.511
                      18    8 Sep 2021 19:32:40.399    8 Sep 2021 19:38:34.913           354.515
                      19    8 Sep 2021 20:25:11.987    8 Sep 2021 20:31:06.497           354.510
                      20    8 Sep 2021 21:17:43.578    8 Sep 2021 21:23:38.089           354.511
                      21    8 Sep 2021 22:10:15.168    8 Sep 2021 22:16:09.678           354.511
                      22    8 Sep 2021 23:02:46.753    8 Sep 2021 23:08:41.267           354.514
                      23    8 Sep 2021 23:55:18.341    9 Sep 2021 00:01:12.852           354.511
                      24    9 Sep 2021 00:47:49.932    9 Sep 2021 00:53:44.443           354.511
                      25    9 Sep 2021 01:40:21.517    9 Sep 2021 01:46:16.032           354.515
                      26    9 Sep 2021 02:32:53.106    9 Sep 2021 02:38:47.615           354.510
                      27    9 Sep 2021 03:25:24.697    9 Sep 2021 03:31:19.208           354.511

Min Duration           6    8 Sep 2021 09:02:21.342    8 Sep 2021 09:08:15.852           354.509
Max Duration          18    8 Sep 2021 19:32:40.399    8 Sep 2021 19:38:34.913           354.515
Mean Duration                                                                            354.511
Total Duration                                                                          9571.807


Satellite307-To-Satellite602
----------------------------
                  Access       Start Time (UTCG)           Stop Time (UTCG)       Duration (sec)
                  ------    -----------------------    -----------------------    --------------
                       1    8 Sep 2021 04:27:53.012    8 Sep 2021 04:46:57.978          1144.966
                       2    8 Sep 2021 05:20:24.601    8 Sep 2021 05:39:29.568          1144.967
                       3    8 Sep 2021 06:12:56.189    8 Sep 2021 06:32:01.156          1144.967
                       4    8 Sep 2021 07:05:27.777    8 Sep 2021 07:24:32.742          1144.965
                       5    8 Sep 2021 07:57:59.366    8 Sep 2021 08:17:04.332          1144.966
                       6    8 Sep 2021 08:50:30.954    8 Sep 2021 09:09:35.920          1144.966
                       7    8 Sep 2021 09:43:02.539    8 Sep 2021 10:02:07.509          1144.970
                       8    8 Sep 2021 10:35:34.128    8 Sep 2021 10:54:39.097          1144.969
                       9    8 Sep 2021 11:28:05.716    8 Sep 2021 11:47:10.685          1144.969
                      10    8 Sep 2021 12:20:37.305    8 Sep 2021 12:39:42.274          1144.969
                      11    8 Sep 2021 13:13:08.894    8 Sep 2021 13:32:13.862          1144.969
                      12    8 Sep 2021 14:05:40.482    8 Sep 2021 14:24:45.451          1144.968
                      13    8 Sep 2021 14:58:12.071    8 Sep 2021 15:17:17.039          1144.968
                      14    8 Sep 2021 15:50:43.659    8 Sep 2021 16:09:48.627          1144.968
                      15    8 Sep 2021 16:43:15.247    8 Sep 2021 17:02:20.216          1144.968
                      16    8 Sep 2021 17:35:46.836    8 Sep 2021 17:54:51.804          1144.968
                      17    8 Sep 2021 18:28:18.424    8 Sep 2021 18:47:23.393          1144.968
                      18    8 Sep 2021 19:20:50.013    8 Sep 2021 19:39:54.981          1144.968
                      19    8 Sep 2021 20:13:21.601    8 Sep 2021 20:32:26.569          1144.968
                      20    8 Sep 2021 21:05:53.189    8 Sep 2021 21:24:58.158          1144.968
                      21    8 Sep 2021 21:58:24.778    8 Sep 2021 22:17:29.746          1144.968
                      22    8 Sep 2021 22:50:56.366    8 Sep 2021 23:10:01.335          1144.968
                      23    8 Sep 2021 23:43:27.955    9 Sep 2021 00:02:32.923          1144.968
                      24    9 Sep 2021 00:35:59.543    9 Sep 2021 00:55:04.511          1144.968
                      25    9 Sep 2021 01:28:31.131    9 Sep 2021 01:47:36.100          1144.968
                      26    9 Sep 2021 02:21:02.720    9 Sep 2021 02:40:07.688          1144.968
                      27    9 Sep 2021 03:13:34.308    9 Sep 2021 03:32:39.276          1144.968

Min Duration           4    8 Sep 2021 07:05:27.777    8 Sep 2021 07:24:32.742          1144.965
Max Duration           7    8 Sep 2021 09:43:02.539    8 Sep 2021 10:02:07.509          1144.970
Mean Duration                                                                           1144.968
Total Duration                                                                         30914.136


Satellite307-To-Satellite603
----------------------------
                  Access       Start Time (UTCG)           Stop Time (UTCG)       Duration (sec)
                  ------    -----------------------    -----------------------    --------------
                       1    8 Sep 2021 04:19:47.701    8 Sep 2021 04:44:32.974          1485.273
                       2    8 Sep 2021 05:12:19.285    8 Sep 2021 05:37:04.558          1485.273
                       3    8 Sep 2021 06:04:50.876    8 Sep 2021 06:29:36.150          1485.274
                       4    8 Sep 2021 06:57:22.465    8 Sep 2021 07:22:07.735          1485.270
                       5    8 Sep 2021 07:49:54.053    8 Sep 2021 08:14:39.327          1485.274
                       6    8 Sep 2021 08:42:25.643    8 Sep 2021 09:07:10.912          1485.269
                       7    8 Sep 2021 09:34:57.230    8 Sep 2021 09:59:42.504          1485.274
                       8    8 Sep 2021 10:27:28.820    8 Sep 2021 10:52:14.089          1485.268
                       9    8 Sep 2021 11:20:00.407    8 Sep 2021 11:44:45.681          1485.274
                      10    8 Sep 2021 12:12:31.997    8 Sep 2021 12:37:17.265          1485.268
                      11    8 Sep 2021 13:05:03.583    8 Sep 2021 13:29:48.857          1485.274
                      12    8 Sep 2021 13:57:35.174    8 Sep 2021 14:22:20.442          1485.268
                      13    8 Sep 2021 14:50:06.760    8 Sep 2021 15:14:52.034          1485.274
                      14    8 Sep 2021 15:42:38.351    8 Sep 2021 16:07:23.619          1485.268
                      15    8 Sep 2021 16:35:09.937    8 Sep 2021 16:59:55.211          1485.274
                      16    8 Sep 2021 17:27:41.527    8 Sep 2021 17:52:26.796          1485.268
                      17    8 Sep 2021 18:20:13.114    8 Sep 2021 18:44:58.388          1485.274
                      18    8 Sep 2021 19:12:44.704    8 Sep 2021 19:37:29.972          1485.268
                      19    8 Sep 2021 20:05:16.291    8 Sep 2021 20:30:01.565          1485.274
                      20    8 Sep 2021 20:57:47.881    8 Sep 2021 21:22:33.149          1485.268
                      21    8 Sep 2021 21:50:19.467    8 Sep 2021 22:15:04.741          1485.274
                      22    8 Sep 2021 22:42:51.058    8 Sep 2021 23:07:36.326          1485.268
                      23    8 Sep 2021 23:35:22.644    9 Sep 2021 00:00:07.918          1485.274
                      24    9 Sep 2021 00:27:54.235    9 Sep 2021 00:52:39.503          1485.268
                      25    9 Sep 2021 01:20:25.821    9 Sep 2021 01:45:11.095          1485.274
                      26    9 Sep 2021 02:12:57.411    9 Sep 2021 02:37:42.680          1485.268
                      27    9 Sep 2021 03:05:28.998    9 Sep 2021 03:30:14.272          1485.274
                      28    9 Sep 2021 03:58:00.585    9 Sep 2021 04:00:00.000           119.415

Min Duration          28    9 Sep 2021 03:58:00.585    9 Sep 2021 04:00:00.000           119.415
Max Duration          13    8 Sep 2021 14:50:06.760    8 Sep 2021 15:14:52.034          1485.274
Mean Duration                                                                           1436.491
Total Duration                                                                         40221.745


Satellite307-To-Satellite604
----------------------------
                  Access       Start Time (UTCG)           Stop Time (UTCG)       Duration (sec)
                  ------    -----------------------    -----------------------    --------------
                       1    8 Sep 2021 04:14:29.568    8 Sep 2021 04:39:20.789          1491.221
                       2    8 Sep 2021 05:07:01.153    8 Sep 2021 05:31:52.374          1491.221
                       3    8 Sep 2021 05:59:32.745    8 Sep 2021 06:24:23.966          1491.221
                       4    8 Sep 2021 06:52:04.329    8 Sep 2021 07:16:55.550          1491.221
                       5    8 Sep 2021 07:44:35.922    8 Sep 2021 08:09:27.143          1491.221
                       6    8 Sep 2021 08:37:07.506    8 Sep 2021 09:01:58.727          1491.221
                       7    8 Sep 2021 09:29:39.098    8 Sep 2021 09:54:30.319          1491.221
                       8    8 Sep 2021 10:22:10.683    8 Sep 2021 10:47:01.904          1491.221
                       9    8 Sep 2021 11:14:42.275    8 Sep 2021 11:39:33.496          1491.221
                      10    8 Sep 2021 12:07:13.860    8 Sep 2021 12:32:05.081          1491.221
                      11    8 Sep 2021 12:59:45.452    8 Sep 2021 13:24:36.673          1491.221
                      12    8 Sep 2021 13:52:17.037    8 Sep 2021 14:17:08.257          1491.221
                      13    8 Sep 2021 14:44:48.629    8 Sep 2021 15:09:39.850          1491.221
                      14    8 Sep 2021 15:37:20.213    8 Sep 2021 16:02:11.434          1491.221
                      15    8 Sep 2021 16:29:51.806    8 Sep 2021 16:54:43.027          1491.221
                      16    8 Sep 2021 17:22:23.390    8 Sep 2021 17:47:14.611          1491.221
                      17    8 Sep 2021 18:14:54.982    8 Sep 2021 18:39:46.203          1491.221
                      18    8 Sep 2021 19:07:26.567    8 Sep 2021 19:32:17.788          1491.221
                      19    8 Sep 2021 19:59:58.159    8 Sep 2021 20:24:49.380          1491.221
                      20    8 Sep 2021 20:52:29.744    8 Sep 2021 21:17:20.965          1491.221
                      21    8 Sep 2021 21:45:01.336    8 Sep 2021 22:09:52.557          1491.221
                      22    8 Sep 2021 22:37:32.921    8 Sep 2021 23:02:24.141          1491.221
                      23    8 Sep 2021 23:30:04.513    8 Sep 2021 23:54:55.734          1491.221
                      24    9 Sep 2021 00:22:36.097    9 Sep 2021 00:47:27.318          1491.221
                      25    9 Sep 2021 01:15:07.690    9 Sep 2021 01:39:58.911          1491.221
                      26    9 Sep 2021 02:07:39.274    9 Sep 2021 02:32:30.495          1491.221
                      27    9 Sep 2021 03:00:10.866    9 Sep 2021 03:25:02.087          1491.221
                      28    9 Sep 2021 03:52:42.451    9 Sep 2021 04:00:00.000           437.549

Min Duration          28    9 Sep 2021 03:52:42.451    9 Sep 2021 04:00:00.000           437.549
Max Duration           1    8 Sep 2021 04:14:29.568    8 Sep 2021 04:39:20.789          1491.221
Mean Duration                                                                           1453.590
Total Duration                                                                         40700.514


Satellite307-To-Satellite605
----------------------------
                  Access       Start Time (UTCG)           Stop Time (UTCG)       Duration (sec)
                  ------    -----------------------    -----------------------    --------------
                       1    8 Sep 2021 04:11:58.006    8 Sep 2021 04:31:22.032          1164.026
                       2    8 Sep 2021 05:04:29.595    8 Sep 2021 05:23:53.619          1164.024
                       3    8 Sep 2021 05:57:01.183    8 Sep 2021 06:16:25.208          1164.025
                       4    8 Sep 2021 06:49:32.772    8 Sep 2021 07:08:56.794          1164.023
                       5    8 Sep 2021 07:42:04.359    8 Sep 2021 08:01:28.383          1164.024
                       6    8 Sep 2021 08:34:35.948    8 Sep 2021 08:53:59.973          1164.025
                       7    8 Sep 2021 09:27:07.537    8 Sep 2021 09:46:31.561          1164.024
                       8    8 Sep 2021 10:19:39.123    8 Sep 2021 10:39:03.149          1164.026
                       9    8 Sep 2021 11:12:10.712    8 Sep 2021 11:31:34.737          1164.025
                      10    8 Sep 2021 12:04:42.300    8 Sep 2021 12:24:06.326          1164.027
                      11    8 Sep 2021 12:57:13.890    8 Sep 2021 13:16:37.915          1164.025
                      12    8 Sep 2021 13:49:45.478    8 Sep 2021 14:09:09.506          1164.028
                      13    8 Sep 2021 14:42:17.066    8 Sep 2021 15:01:41.092          1164.026
                      14    8 Sep 2021 15:34:48.656    8 Sep 2021 15:54:12.680          1164.024
                      15    8 Sep 2021 16:27:20.241    8 Sep 2021 16:46:44.267          1164.026
                      16    8 Sep 2021 17:19:51.831    8 Sep 2021 17:39:15.856          1164.025
                      17    8 Sep 2021 18:12:23.419    8 Sep 2021 18:31:47.446          1164.027
                      18    8 Sep 2021 19:04:55.009    8 Sep 2021 19:24:19.033          1164.024
                      19    8 Sep 2021 19:57:26.596    8 Sep 2021 20:16:50.622          1164.026
                      20    8 Sep 2021 20:49:58.184    8 Sep 2021 21:09:22.210          1164.025
                      21    8 Sep 2021 21:42:29.772    8 Sep 2021 22:01:53.798          1164.026
                      22    8 Sep 2021 22:35:01.363    8 Sep 2021 22:54:25.385          1164.023
                      23    8 Sep 2021 23:27:32.950    8 Sep 2021 23:46:56.979          1164.029
                      24    9 Sep 2021 00:20:04.538    9 Sep 2021 00:39:28.564          1164.026
                      25    9 Sep 2021 01:12:36.128    9 Sep 2021 01:32:00.152          1164.024
                      26    9 Sep 2021 02:05:07.714    9 Sep 2021 02:24:31.740          1164.026
                      27    9 Sep 2021 02:57:39.303    9 Sep 2021 03:17:03.328          1164.025
                      28    9 Sep 2021 03:50:10.892    9 Sep 2021 04:00:00.000           589.108

Min Duration          28    9 Sep 2021 03:50:10.892    9 Sep 2021 04:00:00.000           589.108
Max Duration          23    8 Sep 2021 23:27:32.950    8 Sep 2021 23:46:56.979          1164.029
Mean Duration                                                                           1143.493
Total Duration                                                                         32017.793


Satellite307-To-Satellite606
----------------------------
                  Access       Start Time (UTCG)           Stop Time (UTCG)       Duration (sec)
                  ------    -----------------------    -----------------------    --------------
                       1    8 Sep 2021 04:12:54.093    8 Sep 2021 04:19:55.627           421.533
                       2    8 Sep 2021 05:05:25.679    8 Sep 2021 05:12:27.216           421.537
                       3    8 Sep 2021 05:57:57.269    8 Sep 2021 06:04:58.804           421.534
                       4    8 Sep 2021 06:50:28.856    8 Sep 2021 06:57:30.393           421.537
                       5    8 Sep 2021 07:43:00.445    8 Sep 2021 07:50:01.981           421.535
                       6    8 Sep 2021 08:35:32.033    8 Sep 2021 08:42:33.569           421.536
                       7    8 Sep 2021 09:28:03.621    8 Sep 2021 09:35:05.158           421.536
                       8    8 Sep 2021 10:20:35.212    8 Sep 2021 10:27:36.746           421.534
                       9    8 Sep 2021 11:13:06.798    8 Sep 2021 11:20:08.335           421.537
                      10    8 Sep 2021 12:05:38.389    8 Sep 2021 12:12:39.923           421.534
                      11    8 Sep 2021 12:58:09.974    8 Sep 2021 13:05:11.511           421.537
                      12    8 Sep 2021 13:50:41.568    8 Sep 2021 13:57:43.099           421.532
                      13    8 Sep 2021 14:43:13.151    8 Sep 2021 14:50:14.686           421.534
                      14    8 Sep 2021 15:35:44.743    8 Sep 2021 15:42:46.276           421.533
                      15    8 Sep 2021 16:28:16.328    8 Sep 2021 16:35:17.865           421.537
                      16    8 Sep 2021 17:20:47.919    8 Sep 2021 17:27:49.453           421.533
                      17    8 Sep 2021 18:13:19.505    8 Sep 2021 18:20:21.042           421.537
                      18    8 Sep 2021 19:05:51.095    8 Sep 2021 19:12:52.629           421.534
                      19    8 Sep 2021 19:58:22.682    8 Sep 2021 20:05:24.219           421.537
                      20    8 Sep 2021 20:50:54.271    8 Sep 2021 20:57:55.807           421.535
                      21    8 Sep 2021 21:43:25.859    8 Sep 2021 21:50:27.395           421.536
                      22    8 Sep 2021 22:35:57.447    8 Sep 2021 22:42:58.984           421.536
                      23    8 Sep 2021 23:28:29.038    8 Sep 2021 23:35:30.572           421.534
                      24    9 Sep 2021 00:21:00.624    9 Sep 2021 00:28:02.160           421.537
                      25    9 Sep 2021 01:13:32.215    9 Sep 2021 01:20:33.749           421.534
                      26    9 Sep 2021 02:06:03.800    9 Sep 2021 02:13:05.337           421.537
                      27    9 Sep 2021 02:58:35.393    9 Sep 2021 03:05:36.925           421.532
                      28    9 Sep 2021 03:51:06.977    9 Sep 2021 03:58:08.511           421.534

Min Duration          12    8 Sep 2021 13:50:41.568    8 Sep 2021 13:57:43.099           421.532
Max Duration          11    8 Sep 2021 12:58:09.974    8 Sep 2021 13:05:11.511           421.537
Mean Duration                                                                            421.535
Total Duration                                                                         11802.983


Satellite307-To-Satellite701
----------------------------
                  Access       Start Time (UTCG)           Stop Time (UTCG)       Duration (sec)
                  ------    -----------------------    -----------------------    --------------
                       1    8 Sep 2021 04:00:00.000    8 Sep 2021 04:00:48.482            48.482
                       2    8 Sep 2021 04:30:42.451    8 Sep 2021 04:53:20.066          1357.615
                       3    8 Sep 2021 05:23:14.035    8 Sep 2021 05:45:51.654          1357.620
                       4    8 Sep 2021 06:15:45.623    8 Sep 2021 06:38:23.243          1357.620
