routing/visibility/v308.txt

Satellite308-To-Satellite101
----------------------------
                  Access       Start Time (UTCG)           Stop Time (UTCG)       Duration (sec)
                  ------    -----------------------    -----------------------    --------------
                       1    8 Sep 2021 04:00:00.000    8 Sep 2021 04:03:06.725           186.725
                       2    8 Sep 2021 04:25:46.626    8 Sep 2021 04:55:38.313          1791.687
                       3    8 Sep 2021 05:18:18.215    8 Sep 2021 05:48:09.902          1791.687
                       4    8 Sep 2021 06:10:49.803    8 Sep 2021 06:40:41.490          1791.687
                       5    8 Sep 2021 07:03:21.391    8 Sep 2021 07:33:13.078          1791.687
                       6    8 Sep 2021 07:55:52.979    8 Sep 2021 08:25:44.666          1791.687
                       7    8 Sep 2021 08:48:24.567    8 Sep 2021 09:18:16.254          1791.687
                       8    8 Sep 2021 09:40:56.155    8 Sep 2021 10:10:47.842          1791.687
                       9    8 Sep 2021 10:33:27.743    8 Sep 2021 11:03:19.430          1791.687
                      10    8 Sep 2021 11:25:59.331    8 Sep 2021 11:55:51.018          1791.687
                      11    8 Sep 2021 12:18:30.920    8 Sep 2021 12:48:22.607          1791.687
                      12    8 Sep 2021 13:11:02.508    8 Sep 2021 13:40:54.195          1791.687
                      13    8 Sep 2021 14:03:34.096    8 Sep 2021 14:33:25.783          1791.687
                      14    8 Sep 2021 14:56:05.684    8 Sep 2021 15:25:57.370          1791.686
                      15    8 Sep 2021 15:48:37.276    8 Sep 2021 16:18:28.958          1791.682
                      16    8 Sep 2021 16:41:08.864    8 Sep 2021 17:11:00.547          1791.682
                      17    8 Sep 2021 17:33:40.453    8 Sep 2021 18:03:32.140          1791.687
                      18    8 Sep 2021 18:26:12.041    8 Sep 2021 18:56:03.728          1791.687
                      19    8 Sep 2021 19:18:43.629    8 Sep 2021 19:48:35.316          1791.687
                      20    8 Sep 2021 20:11:15.217    8 Sep 2021 20:41:06.904          1791.687
                      21    8 Sep 2021 21:03:46.805    8 Sep 2021 21:33:38.492          1791.687
                      22    8 Sep 2021 21:56:18.394    8 Sep 2021 22:26:10.081          1791.687
                      23    8 Sep 2021 22:48:49.982    8 Sep 2021 23:18:41.669          1791.687
                      24    8 Sep 2021 23:41:21.570    9 Sep 2021 00:11:13.257          1791.687
                      25    9 Sep 2021 00:33:53.158    9 Sep 2021 01:03:44.845          1791.687
                      26    9 Sep 2021 01:26:24.746    9 Sep 2021 01:56:16.433          1791.687
                      27    9 Sep 2021 02:18:56.334    9 Sep 2021 02:48:48.021          1791.687
                      28    9 Sep 2021 03:11:27.922    9 Sep 2021 03:41:19.609          1791.687

Min Duration           1    8 Sep 2021 04:00:00.000    8 Sep 2021 04:03:06.725           186.725
Max Duration          13    8 Sep 2021 14:03:34.096    8 Sep 2021 14:33:25.783          1791.687
Mean Duration                                                                           1734.367
Total Duration                                                                         48562.265


Satellite308-To-Satellite102
----------------------------
                  Access       Start Time (UTCG)           Stop Time (UTCG)       Duration (sec)
                  ------    -----------------------    -----------------------    --------------
                       1    8 Sep 2021 04:31:34.475    8 Sep 2021 04:39:20.147           465.672
                       2    8 Sep 2021 05:24:06.064    8 Sep 2021 05:31:51.735           465.671
                       3    8 Sep 2021 06:16:37.650    8 Sep 2021 06:24:23.323           465.673
                       4    8 Sep 2021 07:09:09.238    8 Sep 2021 07:16:54.912           465.675
                       5    8 Sep 2021 08:01:40.829    8 Sep 2021 08:09:26.498           465.669
                       6    8 Sep 2021 08:54:12.419    8 Sep 2021 09:01:58.089           465.671
                       7    8 Sep 2021 09:46:44.003    8 Sep 2021 09:54:29.678           465.675
                       8    8 Sep 2021 10:39:15.592    8 Sep 2021 10:47:01.266           465.674
                       9    8 Sep 2021 11:31:47.182    8 Sep 2021 11:39:32.854           465.672
                      10    8 Sep 2021 12:24:18.771    8 Sep 2021 12:32:04.442           465.671
                      11    8 Sep 2021 13:16:50.357    8 Sep 2021 13:24:36.030           465.673
                      12    8 Sep 2021 14:09:21.945    8 Sep 2021 14:17:07.620           465.675
                      13    8 Sep 2021 15:01:53.536    8 Sep 2021 15:09:39.205           465.669
                      14    8 Sep 2021 15:54:25.126    8 Sep 2021 16:02:10.796           465.671
                      15    8 Sep 2021 16:46:56.710    8 Sep 2021 16:54:42.385           465.675
                      16    8 Sep 2021 17:39:28.299    8 Sep 2021 17:47:13.973           465.674
                      17    8 Sep 2021 18:31:59.889    8 Sep 2021 18:39:45.561           465.672
                      18    8 Sep 2021 19:24:31.478    8 Sep 2021 19:32:17.149           465.671
                      19    8 Sep 2021 20:17:03.064    8 Sep 2021 20:24:48.737           465.673
                      20    8 Sep 2021 21:09:34.652    8 Sep 2021 21:17:20.327           465.675
                      21    8 Sep 2021 22:02:06.242    8 Sep 2021 22:09:51.912           465.670
                      22    8 Sep 2021 22:54:37.833    8 Sep 2021 23:02:23.503           465.671
                      23    8 Sep 2021 23:47:09.417    8 Sep 2021 23:54:55.092           465.675
                      24    9 Sep 2021 00:39:41.006    9 Sep 2021 00:47:26.680           465.674
                      25    9 Sep 2021 01:32:12.596    9 Sep 2021 01:39:58.268           465.672
                      26    9 Sep 2021 02:24:44.185    9 Sep 2021 02:32:29.856           465.671
                      27    9 Sep 2021 03:17:15.771    9 Sep 2021 03:25:01.444           465.673

Min Duration           5    8 Sep 2021 08:01:40.829    8 Sep 2021 08:09:26.498           465.669
Max Duration           7    8 Sep 2021 09:46:44.003    8 Sep 2021 09:54:29.678           465.675
Mean Duration                                                                            465.672
Total Duration                                                                         12573.154


Satellite308-To-Satellite108
----------------------------
                  Access       Start Time (UTCG)           Stop Time (UTCG)       Duration (sec)
                  ------    -----------------------    -----------------------    --------------
                       1    8 Sep 2021 04:00:00.000    8 Sep 2021 04:07:53.558           473.558
                       2    8 Sep 2021 04:52:30.739    8 Sep 2021 05:00:25.151           474.411
                       3    8 Sep 2021 05:45:02.328    8 Sep 2021 05:52:56.739           474.411
                       4    8 Sep 2021 06:37:33.917    8 Sep 2021 06:45:28.326           474.409
                       5    8 Sep 2021 07:30:05.508    8 Sep 2021 07:37:59.915           474.407
                       6    8 Sep 2021 08:22:37.097    8 Sep 2021 08:30:31.504           474.407
                       7    8 Sep 2021 09:15:08.682    8 Sep 2021 09:23:03.093           474.411
                       8    8 Sep 2021 10:07:40.272    8 Sep 2021 10:15:34.680           474.408
                       9    8 Sep 2021 11:00:11.858    8 Sep 2021 11:08:06.267           474.409
                      10    8 Sep 2021 11:52:43.447    8 Sep 2021 12:00:37.858           474.411
                      11    8 Sep 2021 12:45:15.035    8 Sep 2021 12:53:09.446           474.411
                      12    8 Sep 2021 13:37:46.625    8 Sep 2021 13:45:41.033           474.408
                      13    8 Sep 2021 14:30:18.216    8 Sep 2021 14:38:12.622           474.406
                      14    8 Sep 2021 15:22:49.805    8 Sep 2021 15:30:44.211           474.406
                      15    8 Sep 2021 16:15:21.389    8 Sep 2021 16:23:15.797           474.408
                      16    8 Sep 2021 17:07:52.981    8 Sep 2021 17:15:47.383           474.402
                      17    8 Sep 2021 18:00:24.566    8 Sep 2021 18:08:18.977           474.410
                      18    8 Sep 2021 18:52:56.154    8 Sep 2021 19:00:50.565           474.411
                      19    8 Sep 2021 19:45:27.742    8 Sep 2021 19:53:22.153           474.411
                      20    8 Sep 2021 20:37:59.332    8 Sep 2021 20:45:53.740           474.408
                      21    8 Sep 2021 21:30:30.922    8 Sep 2021 21:38:25.330           474.408
                      22    8 Sep 2021 22:23:02.509    8 Sep 2021 22:30:56.919           474.410
                      23    8 Sep 2021 23:15:34.096    8 Sep 2021 23:23:28.506           474.410
                      24    9 Sep 2021 00:08:05.689    9 Sep 2021 00:16:00.091           474.402
                      25    9 Sep 2021 01:00:37.275    9 Sep 2021 01:08:31.684           474.409
                      26    9 Sep 2021 01:53:08.861    9 Sep 2021 02:01:03.272           474.411
                      27    9 Sep 2021 02:45:40.450    9 Sep 2021 02:53:34.860           474.410
                      28    9 Sep 2021 03:38:12.040    9 Sep 2021 03:46:06.448           474.408

Min Duration           1    8 Sep 2021 04:00:00.000    8 Sep 2021 04:07:53.558           473.558
Max Duration           2    8 Sep 2021 04:52:30.739    8 Sep 2021 05:00:25.151           474.411
Mean Duration                                                                            474.378
Total Duration                                                                         13282.591


Satellite308-To-Satellite109
----------------------------
                  Access       Start Time (UTCG)           Stop Time (UTCG)       Duration (sec)
                  ------    -----------------------    -----------------------    --------------
                       1    8 Sep 2021 04:00:00.000    8 Sep 2021 04:13:34.337           814.337
                       2    8 Sep 2021 04:36:19.648    8 Sep 2021 05:06:05.927          1786.280
                       3    8 Sep 2021 05:28:51.234    8 Sep 2021 05:58:37.514          1786.281
                       4    8 Sep 2021 06:21:22.825    8 Sep 2021 06:51:09.104          1786.279
                       5    8 Sep 2021 07:13:54.411    8 Sep 2021 07:43:40.691          1786.281
                       6    8 Sep 2021 08:06:26.002    8 Sep 2021 08:36:12.281          1786.279
                       7    8 Sep 2021 08:58:57.587    8 Sep 2021 09:28:43.868          1786.281
                       8    8 Sep 2021 09:51:29.179    8 Sep 2021 10:21:15.458          1786.279
                       9    8 Sep 2021 10:44:00.764    8 Sep 2021 11:13:47.045          1786.281
                      10    8 Sep 2021 11:36:32.356    8 Sep 2021 12:06:18.634          1786.279
                      11    8 Sep 2021 12:29:03.941    8 Sep 2021 12:58:50.222          1786.281
                      12    8 Sep 2021 13:21:35.533    8 Sep 2021 13:51:21.811          1786.279
                      13    8 Sep 2021 14:14:07.118    8 Sep 2021 14:43:53.399          1786.281
                      14    8 Sep 2021 15:06:38.709    8 Sep 2021 15:36:24.988          1786.279
                      15    8 Sep 2021 15:59:10.295    8 Sep 2021 16:28:56.576          1786.281
                      16    8 Sep 2021 16:51:41.886    8 Sep 2021 17:21:28.165          1786.279
                      17    8 Sep 2021 17:44:13.471    8 Sep 2021 18:13:59.752          1786.281
                      18    8 Sep 2021 18:36:45.063    8 Sep 2021 19:06:31.341          1786.278
                      19    8 Sep 2021 19:29:16.648    8 Sep 2021 19:59:02.929          1786.281
                      20    8 Sep 2021 20:21:48.240    8 Sep 2021 20:51:34.518          1786.278
                      21    8 Sep 2021 21:14:19.825    8 Sep 2021 21:44:06.106          1786.281
                      22    8 Sep 2021 22:06:51.417    8 Sep 2021 22:36:37.695          1786.278
                      23    8 Sep 2021 22:59:23.002    8 Sep 2021 23:29:09.283          1786.281
                      24    8 Sep 2021 23:51:54.593    9 Sep 2021 00:21:40.872          1786.278
                      25    9 Sep 2021 00:44:26.179    9 Sep 2021 01:14:12.460          1786.281
                      26    9 Sep 2021 01:36:57.770    9 Sep 2021 02:06:44.049          1786.278
                      27    9 Sep 2021 02:29:29.355    9 Sep 2021 02:59:15.636          1786.281
                      28    9 Sep 2021 03:22:00.947    9 Sep 2021 03:51:47.225          1786.278

Min Duration           1    8 Sep 2021 04:00:00.000    8 Sep 2021 04:13:34.337           814.337
Max Duration          27    9 Sep 2021 02:29:29.355    9 Sep 2021 02:59:15.636          1786.281
Mean Duration                                                                           1751.567
Total Duration                                                                         49043.890


Satellite308-To-Satellite110
----------------------------
                  Access       Start Time (UTCG)           Stop Time (UTCG)       Duration (sec)
                  ------    -----------------------    -----------------------    --------------
                       1    8 Sep 2021 04:00:00.000    8 Sep 2021 04:12:16.694           736.694
                       2    8 Sep 2021 04:27:06.977    8 Sep 2021 05:04:48.279          2261.301
                       3    8 Sep 2021 05:19:38.566    8 Sep 2021 05:57:19.867          2261.301
                       4    8 Sep 2021 06:12:10.154    8 Sep 2021 06:49:51.456          2261.301
                       5    8 Sep 2021 07:04:41.743    8 Sep 2021 07:42:23.044          2261.301
                       6    8 Sep 2021 07:57:13.331    8 Sep 2021 08:34:54.632          2261.301
                       7    8 Sep 2021 08:49:44.919    8 Sep 2021 09:27:26.221          2261.301
                       8    8 Sep 2021 09:42:16.508    8 Sep 2021 10:19:57.809          2261.301
                       9    8 Sep 2021 10:34:48.096    8 Sep 2021 11:12:29.397          2261.301
                      10    8 Sep 2021 11:27:19.685    8 Sep 2021 12:05:00.986          2261.301
                      11    8 Sep 2021 12:19:51.273    8 Sep 2021 12:57:32.574          2261.301
                      12    8 Sep 2021 13:12:22.861    8 Sep 2021 13:50:04.163          2261.301
                      13    8 Sep 2021 14:04:54.450    8 Sep 2021 14:42:35.751          2261.301
                      14    8 Sep 2021 14:57:26.038    8 Sep 2021 15:35:07.339          2261.301
                      15    8 Sep 2021 15:49:57.627    8 Sep 2021 16:27:38.928          2261.301
                      16    8 Sep 2021 16:42:29.215    8 Sep 2021 17:20:10.516          2261.301
                      17    8 Sep 2021 17:35:00.803    8 Sep 2021 18:12:42.105          2261.301
                      18    8 Sep 2021 18:27:32.392    8 Sep 2021 19:05:13.693          2261.301
                      19    8 Sep 2021 19:20:03.980    8 Sep 2021 19:57:45.281          2261.301
                      20    8 Sep 2021 20:12:35.569    8 Sep 2021 20:50:16.870          2261.301
                      21    8 Sep 2021 21:05:07.157    8 Sep 2021 21:42:48.458          2261.301
                      22    8 Sep 2021 21:57:38.745    8 Sep 2021 22:35:20.047          2261.301
                      23    8 Sep 2021 22:50:10.334    8 Sep 2021 23:27:51.635          2261.301
                      24    8 Sep 2021 23:42:41.922    9 Sep 2021 00:20:23.223          2261.301
                      25    9 Sep 2021 00:35:13.511    9 Sep 2021 01:12:54.812          2261.301
                      26    9 Sep 2021 01:27:45.099    9 Sep 2021 02:05:26.400          2261.301
                      27    9 Sep 2021 02:20:16.687    9 Sep 2021 02:57:57.989          2261.301
                      28    9 Sep 2021 03:12:48.276    9 Sep 2021 03:50:29.577          2261.301

Min Duration           1    8 Sep 2021 04:00:00.000    8 Sep 2021 04:12:16.694           736.694
Max Duration           2    8 Sep 2021 04:27:06.977    8 Sep 2021 05:04:48.279          2261.301
Mean Duration                                                                           2206.851
Total Duration                                                                         61791.828


Satellite308-To-Satellite208
----------------------------
                  Access       Start Time (UTCG)           Stop Time (UTCG)       Duration (sec)
                  ------    -----------------------    -----------------------    --------------
                       1    8 Sep 2021 04:00:00.000    9 Sep 2021 04:00:00.000         86400.000

Min Duration           1    8 Sep 2021 04:00:00.000    9 Sep 2021 04:00:00.000         86400.000
Max Duration           1    8 Sep 2021 04:00:00.000    9 Sep 2021 04:00:00.000         86400.000
Mean Duration                                                                          86400.000
Total Duration                                                                         86400.000


Satellite308-To-Satellite209
----------------------------
                  Access       Start Time (UTCG)           Stop Time (UTCG)       Duration (sec)
                  ------    -----------------------    -----------------------    --------------
                       1    8 Sep 2021 04:00:00.000    9 Sep 2021 04:00:00.000         86400.000

Min Duration           1    8 Sep 2021 04:00:00.000    9 Sep 2021 04:00:00.000         86400.000
Max Duration           1    8 Sep 2021 04:00:00.000    9 Sep 2021 04:00:00.000         86400.000
Mean Duration                                                                          86400.000
Total Duration                                                                         86400.000


Satellite308-To-Satellite210
----------------------------
                  Access       Start Time (UTCG)           Stop Time (UTCG)       Duration (sec)
                  ------    -----------------------    -----------------------    --------------
                       1    8 Sep 2021 04:00:00.000    9 Sep 2021 04:00:00.000         86400.000

Min Duration           1    8 Sep 2021 04:00:00.000    9 Sep 2021 04:00:00.000         86400.000
Max Duration           1    8 Sep 2021 04:00:00.000    9 Sep 2021 04:00:00.000         86400.000
Mean Duration                                                                          86400.000
Total Duration                                                                         86400.000


Satellite308-To-Satellite307
----------------------------
                  Access       Start Time (UTCG)           Stop Time (UTCG)       Duration (sec)
                  ------    -----------------------    -----------------------    --------------
                       1    8 Sep 2021 04:00:00.000    9 Sep 2021 04:00:00.000         86400.000

Min Duration           1    8 Sep 2021 04:00:00.000    9 Sep 2021 04:00:00.000         86400.000
Max Duration           1    8 Sep 2021 04:00:00.000    9 Sep 2021 04:00:00.000         86400.000
Mean Duration                                                                          86400.000
Total Duration                                                                         86400.000


Satellite308-To-Satellite309
----------------------------
                  Access       Start Time (UTCG)           Stop Time (UTCG)       Duration (sec)
                  ------    -----------------------    -----------------------    --------------
                       1    8 Sep 2021 04:00:00.000    9 Sep 2021 04:00:00.000         86400.000

Min Duration           1    8 Sep 2021 04:00:00.000    9 Sep 2021 04:00:00.000         86400.000
Max Duration           1    8 Sep 2021 04:00:00.000    9 Sep 2021 04:00:00.000         86400.000
Mean Duration                                                                          86400.000
Total Duration                                                                         86400.000


Satellite308-To-Satellite406
----------------------------
                  Access       Start Time (UTCG)           Stop Time (UTCG)       Duration (sec)
                  ------    -----------------------    -----------------------    --------------
                       1    8 Sep 2021 04:00:00.000    9 Sep 2021 04:00:00.000         86400.000

Min Duration           1    8 Sep 2021 04:00:00.000    9 Sep 2021 04:00:00.000         86400.000
Max Duration           1    8 Sep 2021 04:00:00.000    9 Sep 2021 04:00:00.000         86400.000
Mean Duration                                                                          86400.000
Total Duration                                                                         86400.000


Satellite308-To-Satellite407
----------------------------
                  Access       Start Time (UTCG)           Stop Time (UTCG)       Duration (sec)
                  ------    -----------------------    -----------------------    --------------
                       1    8 Sep 2021 04:00:00.000    9 Sep 2021 04:00:00.000         86400.000

Min Duration           1    8 Sep 2021 04:00:00.000    9 Sep 2021 04:00:00.000         86400.000
Max Duration           1    8 Sep 2021 04:00:00.000    9 Sep 2021 04:00:00.000         86400.000
Mean Duration                                                                          86400.000
Total Duration                                                                         86400.000


Satellite308-To-Satellite408
----------------------------
                  Access       Start Time (UTCG)           Stop Time (UTCG)       Duration (sec)
                  ------    -----------------------    -----------------------    --------------
                       1    8 Sep 2021 04:00:00.000    9 Sep 2021 04:00:00.000         86400.000

Min Duration           1    8 Sep 2021 04:00:00.000    9 Sep 2021 04:00:00.000         86400.000
Max Duration           1    8 Sep 2021 04:00:00.000    9 Sep 2021 04:00:00.000         86400.000
Mean Duration                                                                          86400.000
Total Duration                                                                         86400.000


Satellite308-To-Satellite504
----------------------------
                  Access       Start Time (UTCG)           Stop Time (UTCG)       Duration (sec)
                  ------    -----------------------    -----------------------    --------------
                       1    8 Sep 2021 04:18:26.575    8 Sep 2021 04:26:12.250           465.675
                       2    8 Sep 2021 05:10:58.165    8 Sep 2021 05:18:43.838           465.674
                       3    8 Sep 2021 06:03:29.757    8 Sep 2021 06:11:15.427           465.670
                       4    8 Sep 2021 06:56:01.342    8 Sep 2021 07:03:47.014           465.672
                       5    8 Sep 2021 07:48:32.929    8 Sep 2021 07:56:18.604           465.674
                       6    8 Sep 2021 08:41:04.517    8 Sep 2021 08:48:50.192           465.675
                       7    8 Sep 2021 09:33:36.106    8 Sep 2021 09:41:21.776           465.670
                       8    8 Sep 2021 10:26:07.694    8 Sep 2021 10:33:53.367           465.673
                       9    8 Sep 2021 11:18:39.283    8 Sep 2021 11:26:24.957           465.675
                      10    8 Sep 2021 12:11:10.872    8 Sep 2021 12:18:56.546           465.674
                      11    8 Sep 2021 13:03:42.464    8 Sep 2021 13:11:28.134           465.670
                      12    8 Sep 2021 13:56:14.049    8 Sep 2021 14:03:59.721           465.672
                      13    8 Sep 2021 14:48:45.636    8 Sep 2021 14:56:31.311           465.674
                      14    8 Sep 2021 15:41:17.224    8 Sep 2021 15:49:02.899           465.675
                      15    8 Sep 2021 16:33:48.815    8 Sep 2021 16:41:34.483           465.668
                      16    8 Sep 2021 17:26:20.401    8 Sep 2021 17:34:06.074           465.673
                      17    8 Sep 2021 18:18:51.990    8 Sep 2021 18:26:37.665           465.675
                      18    8 Sep 2021 19:11:23.581    8 Sep 2021 19:19:09.253           465.672
                      19    8 Sep 2021 20:03:55.171    8 Sep 2021 20:11:40.841           465.670
                      20    8 Sep 2021 20:56:26.757    8 Sep 2021 21:04:12.429           465.672
                      21    8 Sep 2021 21:48:58.343    8 Sep 2021 21:56:44.018           465.674
                      22    8 Sep 2021 22:41:29.931    8 Sep 2021 22:49:15.606           465.675
                      23    8 Sep 2021 23:34:01.524    8 Sep 2021 23:41:47.191           465.667
                      24    9 Sep 2021 00:26:33.108    9 Sep 2021 00:34:18.781           465.672
                      25    9 Sep 2021 01:19:04.697    9 Sep 2021 01:26:50.372           465.675
                      26    9 Sep 2021 02:11:36.288    9 Sep 2021 02:19:21.960           465.672
                      27    9 Sep 2021 03:04:07.878    9 Sep 2021 03:11:53.548           465.670
                      28    9 Sep 2021 03:56:39.464    9 Sep 2021 04:00:00.000           200.536

Min Duration          28    9 Sep 2021 03:56:39.464    9 Sep 2021 04:00:00.000           200.536
Max Duration           6    8 Sep 2021 08:41:04.517    8 Sep 2021 08:48:50.192           465.675
Mean Duration                                                                            456.203
Total Duration                                                                         12773.694


Satellite308-To-Satellite505
----------------------------
                  Access       Start Time (UTCG)           Stop Time (UTCG)       Duration (sec)
                  ------    -----------------------    -----------------------    --------------
                       1    8 Sep 2021 04:02:08.411    8 Sep 2021 04:32:00.098          1791.687
                       2    8 Sep 2021 04:54:39.999    8 Sep 2021 05:24:31.686          1791.687
                       3    8 Sep 2021 05:47:11.587    8 Sep 2021 06:17:03.274          1791.687
                       4    8 Sep 2021 06:39:43.175    8 Sep 2021 07:09:34.862          1791.687
                       5    8 Sep 2021 07:32:14.763    8 Sep 2021 08:02:06.450          1791.687
                       6    8 Sep 2021 08:24:46.351    8 Sep 2021 08:54:38.038          1791.687
                       7    8 Sep 2021 09:17:17.940    8 Sep 2021 09:47:09.627          1791.687
                       8    8 Sep 2021 10:09:49.528    8 Sep 2021 10:39:41.215          1791.687
                       9    8 Sep 2021 11:02:21.116    8 Sep 2021 11:32:12.803          1791.687
                      10    8 Sep 2021 11:54:52.704    8 Sep 2021 12:24:44.390          1791.686
                      11    8 Sep 2021 12:47:24.296    8 Sep 2021 13:17:15.978          1791.682
                      12    8 Sep 2021 13:39:55.884    8 Sep 2021 14:09:47.572          1791.687
                      13    8 Sep 2021 14:32:27.473    8 Sep 2021 15:02:19.160          1791.687
                      14    8 Sep 2021 15:24:59.061    8 Sep 2021 15:54:50.748          1791.687
                      15    8 Sep 2021 16:17:30.649    8 Sep 2021 16:47:22.336          1791.687
                      16    8 Sep 2021 17:10:02.237    8 Sep 2021 17:39:53.924          1791.687
                      17    8 Sep 2021 18:02:33.825    8 Sep 2021 18:32:25.512          1791.687
                      18    8 Sep 2021 18:55:05.414    8 Sep 2021 19:24:57.101          1791.687
                      19    8 Sep 2021 19:47:37.002    8 Sep 2021 20:17:28.689          1791.687
                      20    8 Sep 2021 20:40:08.590    8 Sep 2021 21:10:00.277          1791.687
                      21    8 Sep 2021 21:32:40.178    8 Sep 2021 22:02:31.865          1791.687
                      22    8 Sep 2021 22:25:11.766    8 Sep 2021 22:55:03.453          1791.687
                      23    8 Sep 2021 23:17:43.354    8 Sep 2021 23:47:35.041          1791.687
                      24    9 Sep 2021 00:10:14.942    9 Sep 2021 00:40:06.629          1791.687
                      25    9 Sep 2021 01:02:46.531    9 Sep 2021 01:32:38.218          1791.687
                      26    9 Sep 2021 01:55:18.119    9 Sep 2021 02:25:09.806          1791.687
                      27    9 Sep 2021 02:47:49.707    9 Sep 2021 03:17:41.393          1791.686
                      28    9 Sep 2021 03:40:21.299    9 Sep 2021 04:00:00.000          1178.701

Min Duration          28    9 Sep 2021 03:40:21.299    9 Sep 2021 04:00:00.000          1178.701
Max Duration           9    8 Sep 2021 11:02:21.116    8 Sep 2021 11:32:12.803          1791.687
Mean Duration                                                                           1769.794
Total Duration                                                                         49554.245


Satellite308-To-Satellite506
----------------------------
                  Access       Start Time (UTCG)           Stop Time (UTCG)       Duration (sec)
                  ------    -----------------------    -----------------------    --------------
                       1    8 Sep 2021 04:00:00.000    8 Sep 2021 04:30:39.746          1839.746
                       2    8 Sep 2021 04:45:30.033    8 Sep 2021 05:23:11.335          2261.301
                       3    8 Sep 2021 05:38:01.622    8 Sep 2021 06:15:42.923          2261.301
                       4    8 Sep 2021 06:30:33.210    8 Sep 2021 07:08:14.511          2261.301
                       5    8 Sep 2021 07:23:04.799    8 Sep 2021 08:00:46.100          2261.301
                       6    8 Sep 2021 08:15:36.387    8 Sep 2021 08:53:17.688          2261.301
                       7    8 Sep 2021 09:08:07.975    8 Sep 2021 09:45:49.277          2261.301
                       8    8 Sep 2021 10:00:39.564    8 Sep 2021 10:38:20.865          2261.301
                       9    8 Sep 2021 10:53:11.152    8 Sep 2021 11:30:52.453          2261.301
                      10    8 Sep 2021 11:45:42.741    8 Sep 2021 12:23:24.042          2261.301
                      11    8 Sep 2021 12:38:14.329    8 Sep 2021 13:15:55.630          2261.301
                      12    8 Sep 2021 13:30:45.917    8 Sep 2021 14:08:27.219          2261.301
                      13    8 Sep 2021 14:23:17.506    8 Sep 2021 15:00:58.807          2261.301
                      14    8 Sep 2021 15:15:49.094    8 Sep 2021 15:53:30.395          2261.301
                      15    8 Sep 2021 16:08:20.683    8 Sep 2021 16:46:01.984          2261.301
                      16    8 Sep 2021 17:00:52.271    8 Sep 2021 17:38:33.572          2261.301
                      17    8 Sep 2021 17:53:23.859    8 Sep 2021 18:31:05.161          2261.301
                      18    8 Sep 2021 18:45:55.448    8 Sep 2021 19:23:36.749          2261.301
                      19    8 Sep 2021 19:38:27.036    8 Sep 2021 20:16:08.337          2261.301
                      20    8 Sep 2021 20:30:58.625    8 Sep 2021 21:08:39.926          2261.301
                      21    8 Sep 2021 21:23:30.213    8 Sep 2021 22:01:11.514          2261.301
                      22    8 Sep 2021 22:16:01.801    8 Sep 2021 22:53:43.103          2261.301
                      23    8 Sep 2021 23:08:33.390    8 Sep 2021 23:46:14.691          2261.301
                      24    9 Sep 2021 00:01:04.978    9 Sep 2021 00:38:46.279          2261.301
                      25    9 Sep 2021 00:53:36.566    9 Sep 2021 01:31:17.868          2261.301
                      26    9 Sep 2021 01:46:08.155    9 Sep 2021 02:23:49.456          2261.301
                      27    9 Sep 2021 02:38:39.743    9 Sep 2021 03:16:21.045          2261.301
                      28    9 Sep 2021 03:31:11.332    9 Sep 2021 04:00:00.000          1728.668

Min Duration          28    9 Sep 2021 03:31:11.332    9 Sep 2021 04:00:00.000          1728.668
Max Duration           2    8 Sep 2021 04:45:30.033    8 Sep 2021 05:23:11.335          2261.301
Mean Duration                                                                           2227.223
Total Duration                                                                         62362.247


Satellite308-To-Satellite507
----------------------------
                  Access       Start Time (UTCG)           Stop Time (UTCG)       Duration (sec)
                  ------    -----------------------    -----------------------    --------------
                       1    8 Sep 2021 04:00:00.000    8 Sep 2021 04:21:27.076          1287.076
                       2    8 Sep 2021 04:44:12.388    8 Sep 2021 05:13:58.663          1786.274
                       3    8 Sep 2021 05:36:43.973    8 Sep 2021 06:06:30.254          1786.281
                       4    8 Sep 2021 06:29:15.560    8 Sep 2021 06:59:01.841          1786.280
                       5    8 Sep 2021 07:21:47.151    8 Sep 2021 07:51:33.431          1786.280
                       6    8 Sep 2021 08:14:18.737    8 Sep 2021 08:44:05.018          1786.281
                       7    8 Sep 2021 09:06:50.328    8 Sep 2021 09:36:36.607          1786.279
                       8    8 Sep 2021 09:59:21.914    8 Sep 2021 10:29:08.195          1786.281
                       9    8 Sep 2021 10:51:53.505    8 Sep 2021 11:21:39.784          1786.279
                      10    8 Sep 2021 11:44:25.091    8 Sep 2021 12:14:11.372          1786.281
                      11    8 Sep 2021 12:36:56.682    8 Sep 2021 13:06:42.961          1786.279
                      12    8 Sep 2021 13:29:28.268    8 Sep 2021 13:59:14.549          1786.281
                      13    8 Sep 2021 14:21:59.859    8 Sep 2021 14:51:46.138          1786.279
                      14    8 Sep 2021 15:14:31.445    8 Sep 2021 15:44:17.725          1786.281
                      15    8 Sep 2021 16:07:03.036    8 Sep 2021 16:36:49.315          1786.279
                      16    8 Sep 2021 16:59:34.621    8 Sep 2021 17:29:20.902          1786.281
                      17    8 Sep 2021 17:52:06.213    8 Sep 2021 18:21:52.491          1786.279
                      18    8 Sep 2021 18:44:37.798    8 Sep 2021 19:14:24.079          1786.281
                      19    8 Sep 2021 19:37:09.390    8 Sep 2021 20:06:55.668          1786.279
                      20    8 Sep 2021 20:29:40.975    8 Sep 2021 20:59:27.256          1786.281
                      21    8 Sep 2021 21:22:12.566    8 Sep 2021 21:51:58.845          1786.278
                      22    8 Sep 2021 22:14:44.152    8 Sep 2021 22:44:30.433          1786.281
                      23    8 Sep 2021 23:07:15.743    8 Sep 2021 23:37:02.022          1786.278
                      24    8 Sep 2021 23:59:47.329    9 Sep 2021 00:29:33.609          1786.281
                      25    9 Sep 2021 00:52:18.920    9 Sep 2021 01:22:05.199          1786.278
                      26    9 Sep 2021 01:44:50.505    9 Sep 2021 02:14:36.786          1786.281
                      27    9 Sep 2021 02:37:22.097    9 Sep 2021 03:07:08.375          1786.278
                      28    9 Sep 2021 03:29:53.682    9 Sep 2021 03:59:39.960          1786.277

Min Duration           1    8 Sep 2021 04:00:00.000    8 Sep 2021 04:21:27.076          1287.076
Max Duration          26    9 Sep 2021 01:44:50.505    9 Sep 2021 02:14:36.786          1786.281
Mean Duration                                                                           1768.451
Total Duration                                                                         49516.622


Satellite308-To-Satellite508
----------------------------
                  Access       Start Time (UTCG)           Stop Time (UTCG)       Duration (sec)
                  ------    -----------------------    -----------------------    --------------
                       1    8 Sep 2021 04:00:00.000    8 Sep 2021 04:05:15.983           315.983
                       2    8 Sep 2021 04:49:53.160    8 Sep 2021 04:57:47.571           474.411
                       3    8 Sep 2021 05:42:24.750    8 Sep 2021 05:50:19.158           474.407
                       4    8 Sep 2021 06:34:56.337    8 Sep 2021 06:42:50.746           474.409
                       5    8 Sep 2021 07:27:27.925    8 Sep 2021 07:35:22.336           474.411
                       6    8 Sep 2021 08:19:59.514    8 Sep 2021 08:27:53.925           474.411
                       7    8 Sep 2021 09:12:31.103    8 Sep 2021 09:20:25.512           474.408
                       8    8 Sep 2021 10:05:02.695    8 Sep 2021 10:12:57.101           474.406
                       9    8 Sep 2021 10:57:34.284    8 Sep 2021 11:05:28.690           474.406
                      10    8 Sep 2021 11:50:05.867    8 Sep 2021 11:58:00.276           474.408
                      11    8 Sep 2021 12:42:37.460    8 Sep 2021 12:50:31.862           474.402
                      12    8 Sep 2021 13:35:09.045    8 Sep 2021 13:43:03.455           474.410
                      13    8 Sep 2021 14:27:40.632    8 Sep 2021 14:35:35.043           474.411
                      14    8 Sep 2021 15:20:12.221    8 Sep 2021 15:28:06.632           474.411
                      15    8 Sep 2021 16:12:43.811    8 Sep 2021 16:20:38.219           474.408
                      16    8 Sep 2021 17:05:15.400    8 Sep 2021 17:13:09.808           474.408
                      17    8 Sep 2021 17:57:46.987    8 Sep 2021 18:05:41.397           474.410
                      18    8 Sep 2021 18:50:18.574    8 Sep 2021 18:58:12.984           474.410
                      19    8 Sep 2021 19:42:50.167    8 Sep 2021 19:50:44.569           474.402
                      20    8 Sep 2021 20:35:21.754    8 Sep 2021 20:43:16.162           474.409
                      21    8 Sep 2021 21:27:53.340    8 Sep 2021 21:35:47.751           474.411
                      22    8 Sep 2021 22:20:24.928    8 Sep 2021 22:28:19.339           474.410
                      23    8 Sep 2021 23:12:56.519    8 Sep 2021 23:20:50.926           474.408
                      24    9 Sep 2021 00:05:28.108    9 Sep 2021 00:13:22.516           474.407
                      25    9 Sep 2021 00:57:59.694    9 Sep 2021 01:05:54.104           474.410
                      26    9 Sep 2021 01:50:31.282    9 Sep 2021 01:58:25.692           474.411
                      27    9 Sep 2021 02:43:02.871    9 Sep 2021 02:50:57.277           474.406
                      28    9 Sep 2021 03:35:34.458    9 Sep 2021 03:43:28.869           474.411

Min Duration           1    8 Sep 2021 04:00:00.000    8 Sep 2021 04:05:15.983           315.983
Max Duration          28    9 Sep 2021 03:35:34.458    9 Sep 2021 03:43:28.869           474.411
Mean Duration                                                                            468.751
Total Duration                                                                         13125.016


Satellite308-To-Satellite602
----------------------------
                  Access       Start Time (UTCG)           Stop Time (UTCG)       Duration (sec)
                  ------    -----------------------    -----------------------    --------------
                       1    8 Sep 2021 04:29:13.078    8 Sep 2021 04:35:07.593           354.515
                       2    8 Sep 2021 05:21:44.667    8 Sep 2021 05:27:39.177           354.510
                       3    8 Sep 2021 06:14:16.258    8 Sep 2021 06:20:10.769           354.510
                       4    8 Sep 2021 07:06:47.848    8 Sep 2021 07:12:42.358           354.510
                       5    8 Sep 2021 07:59:19.435    8 Sep 2021 08:05:13.946           354.511
                       6    8 Sep 2021 08:51:51.021    8 Sep 2021 08:57:45.532           354.511
                       7    8 Sep 2021 09:44:22.612    8 Sep 2021 09:50:17.123           354.511
                       8    8 Sep 2021 10:36:54.197    8 Sep 2021 10:42:48.712           354.515
                       9    8 Sep 2021 11:29:25.785    8 Sep 2021 11:35:20.295           354.510
                      10    8 Sep 2021 12:21:57.377    8 Sep 2021 12:27:51.887           354.511
                      11    8 Sep 2021 13:14:28.966    8 Sep 2021 13:20:23.477           354.511
                      12    8 Sep 2021 14:07:00.553    8 Sep 2021 14:12:55.065           354.512
                      13    8 Sep 2021 14:59:32.139    8 Sep 2021 15:05:26.650           354.511
                      14    8 Sep 2021 15:52:03.731    8 Sep 2021 15:57:58.241           354.511
                      15    8 Sep 2021 16:44:35.316    8 Sep 2021 16:50:29.830           354.515
                      16    8 Sep 2021 17:37:06.904    8 Sep 2021 17:43:01.414           354.510
                      17    8 Sep 2021 18:29:38.495    8 Sep 2021 18:35:33.006           354.511
                      18    8 Sep 2021 19:22:10.085    8 Sep 2021 19:28:04.596           354.511
                      19    8 Sep 2021 20:14:41.672    8 Sep 2021 20:20:36.184           354.512
                      20    8 Sep 2021 21:07:13.258    8 Sep 2021 21:13:07.769           354.511
                      21    8 Sep 2021 21:59:44.849    8 Sep 2021 22:05:39.360           354.511
                      22    8 Sep 2021 22:52:16.434    8 Sep 2021 22:58:10.949           354.515
                      23    8 Sep 2021 23:44:48.023    8 Sep 2021 23:50:42.535           354.512
                      24    9 Sep 2021 00:37:19.614    9 Sep 2021 00:43:14.125           354.511
                      25    9 Sep 2021 01:29:51.204    9 Sep 2021 01:35:45.714           354.511
                      26    9 Sep 2021 02:22:22.790    9 Sep 2021 02:28:17.303           354.513
                      27    9 Sep 2021 03:14:54.377    9 Sep 2021 03:20:48.888           354.511

Min Duration          16    8 Sep 2021 17:37:06.904    8 Sep 2021 17:43:01.414           354.510
Max Duration           1    8 Sep 2021 04:29:13.078    8 Sep 2021 04:35:07.593           354.515
Mean Duration                                                                            354.511
Total Duration                                                                          9571.809


Satellite308-To-Satellite603
----------------------------
                  Access       Start Time (UTCG)           Stop Time (UTCG)       Duration (sec)
                  ------    -----------------------    -----------------------    --------------
                       1    8 Sep 2021 04:17:22.695    8 Sep 2021 04:36:27.659          1144.964
                       2    8 Sep 2021 05:09:54.283    8 Sep 2021 05:28:59.249          1144.966
                       3    8 Sep 2021 06:02:25.871    8 Sep 2021 06:21:30.838          1144.967
                       4    8 Sep 2021 06:54:57.460    8 Sep 2021 07:14:02.427          1144.967
                       5    8 Sep 2021 07:47:29.048    8 Sep 2021 08:06:34.013          1144.965
                       6    8 Sep 2021 08:40:00.637    8 Sep 2021 08:59:05.603          1144.966
                       7    8 Sep 2021 09:32:32.225    8 Sep 2021 09:51:37.191          1144.966
                       8    8 Sep 2021 10:25:03.809    8 Sep 2021 10:44:08.779          1144.970
                       9    8 Sep 2021 11:17:35.398    8 Sep 2021 11:36:40.368          1144.969
                      10    8 Sep 2021 12:10:06.987    8 Sep 2021 12:29:11.956          1144.969
                      11    8 Sep 2021 13:02:38.576    8 Sep 2021 13:21:43.545          1144.969
                      12    8 Sep 2021 13:55:10.164    8 Sep 2021 14:14:15.133          1144.969
                      13    8 Sep 2021 14:47:41.753    8 Sep 2021 15:06:46.721          1144.968
                      14    8 Sep 2021 15:40:13.341    8 Sep 2021 15:59:18.310          1144.968
                      15    8 Sep 2021 16:32:44.930    8 Sep 2021 16:51:49.898          1144.968
                      16    8 Sep 2021 17:25:16.518    8 Sep 2021 17:44:21.486          1144.968
                      17    8 Sep 2021 18:17:48.107    8 Sep 2021 18:36:53.075          1144.968
                      18    8 Sep 2021 19:10:19.695    8 Sep 2021 19:29:24.663          1144.968
                      19    8 Sep 2021 20:02:51.283    8 Sep 2021 20:21:56.252          1144.968
                      20    8 Sep 2021 20:55:22.872    8 Sep 2021 21:14:27.840          1144.968
                      21    8 Sep 2021 21:47:54.460    8 Sep 2021 22:06:59.428          1144.968
                      22    8 Sep 2021 22:40:26.049    8 Sep 2021 22:59:31.017          1144.968
                      23    8 Sep 2021 23:32:57.637    8 Sep 2021 23:52:02.605          1144.968
                      24    9 Sep 2021 00:25:29.225    9 Sep 2021 00:44:34.194          1144.968
                      25    9 Sep 2021 01:18:00.814    9 Sep 2021 01:37:05.782          1144.968
                      26    9 Sep 2021 02:10:32.402    9 Sep 2021 02:29:37.370          1144.968
                      27    9 Sep 2021 03:03:03.991    9 Sep 2021 03:22:08.959          1144.968
                      28    9 Sep 2021 03:55:35.579    9 Sep 2021 04:00:00.000           264.421

Min Duration          28    9 Sep 2021 03:55:35.579    9 Sep 2021 04:00:00.000           264.421
Max Duration           8    8 Sep 2021 10:25:03.809    8 Sep 2021 10:44:08.779          1144.970
Mean Duration                                                                           1113.520
Total Duration                                                                         31178.553


Satellite308-To-Satellite604
----------------------------
                  Access       Start Time (UTCG)           Stop Time (UTCG)       Duration (sec)
                  ------    -----------------------    -----------------------    --------------
                       1    8 Sep 2021 04:09:17.380    8 Sep 2021 04:34:02.656          1485.276
                       2    8 Sep 2021 05:01:48.971    8 Sep 2021 05:26:34.240          1485.270
                       3    8 Sep 2021 05:54:20.559    8 Sep 2021 06:19:05.833          1485.274
                       4    8 Sep 2021 06:46:52.147    8 Sep 2021 07:11:37.417          1485.271
                       5    8 Sep 2021 07:39:23.735    8 Sep 2021 08:04:09.009          1485.274
                       6    8 Sep 2021 08:31:55.326    8 Sep 2021 08:56:40.594          1485.268
                       7    8 Sep 2021 09:24:26.912    8 Sep 2021 09:49:12.186          1485.274
                       8    8 Sep 2021 10:16:58.503    8 Sep 2021 10:41:43.771          1485.268
                       9    8 Sep 2021 11:09:30.089    8 Sep 2021 11:34:15.363          1485.274
                      10    8 Sep 2021 12:02:01.679    8 Sep 2021 12:26:46.948          1485.268
                      11    8 Sep 2021 12:54:33.266    8 Sep 2021 13:19:18.540          1485.274
                      12    8 Sep 2021 13:47:04.856    8 Sep 2021 14:11:50.124          1485.268
                      13    8 Sep 2021 14:39:36.443    8 Sep 2021 15:04:21.716          1485.274
                      14    8 Sep 2021 15:32:08.033    8 Sep 2021 15:56:53.301          1485.268
                      15    8 Sep 2021 16:24:39.619    8 Sep 2021 16:49:24.893          1485.274
                      16    8 Sep 2021 17:17:11.210    8 Sep 2021 17:41:56.478          1485.268
                      17    8 Sep 2021 18:09:42.796    8 Sep 2021 18:34:28.070          1485.274
                      18    8 Sep 2021 19:02:14.387    8 Sep 2021 19:26:59.655          1485.268
                      19    8 Sep 2021 19:54:45.973    8 Sep 2021 20:19:31.247          1485.274
                      20    8 Sep 2021 20:47:17.563    8 Sep 2021 21:12:02.832          1485.268
                      21    8 Sep 2021 21:39:49.150    8 Sep 2021 22:04:34.424          1485.274
                      22    8 Sep 2021 22:32:20.740    8 Sep 2021 22:57:06.008          1485.268
                      23    8 Sep 2021 23:24:52.327    8 Sep 2021 23:49:37.600          1485.274
                      24    9 Sep 2021 00:17:23.917    9 Sep 2021 00:42:09.185          1485.268
                      25    9 Sep 2021 01:09:55.503    9 Sep 2021 01:34:40.777          1485.274
                      26    9 Sep 2021 02:02:27.094    9 Sep 2021 02:27:12.362          1485.268
                      27    9 Sep 2021 02:54:58.680    9 Sep 2021 03:19:43.954          1485.274
                      28    9 Sep 2021 03:47:30.270    9 Sep 2021 04:00:00.000           749.730

Min Duration          28    9 Sep 2021 03:47:30.270    9 Sep 2021 04:00:00.000           749.730
Max Duration           1    8 Sep 2021 04:09:17.380    8 Sep 2021 04:34:02.656          1485.276
Mean Duration                                                                           1459.002
Total Duration                                                                         40852.058


Satellite308-To-Satellite605
----------------------------
                  Access       Start Time (UTCG)           Stop Time (UTCG)       Duration (sec)
                  ------    -----------------------    -----------------------    --------------
                       1    8 Sep 2021 04:03:59.247    8 Sep 2021 04:28:50.468          1491.221
                       2    8 Sep 2021 04:56:30.839    8 Sep 2021 05:21:22.055          1491.216
                       3    8 Sep 2021 05:49:02.426    8 Sep 2021 06:13:53.648          1491.222
                       4    8 Sep 2021 06:41:34.012    8 Sep 2021 07:06:25.232          1491.221
                       5    8 Sep 2021 07:34:05.604    8 Sep 2021 07:58:56.825          1491.221
                       6    8 Sep 2021 08:26:37.189    8 Sep 2021 08:51:28.409          1491.221
                       7    8 Sep 2021 09:19:08.781    8 Sep 2021 09:44:00.002          1491.221
                       8    8 Sep 2021 10:11:40.365    8 Sep 2021 10:36:31.586          1491.221
                       9    8 Sep 2021 11:04:11.958    8 Sep 2021 11:29:03.179          1491.221
                      10    8 Sep 2021 11:56:43.542    8 Sep 2021 12:21:34.763          1491.221
                      11    8 Sep 2021 12:49:15.134    8 Sep 2021 13:14:06.355          1491.221
                      12    8 Sep 2021 13:41:46.719    8 Sep 2021 14:06:37.940          1491.221
                      13    8 Sep 2021 14:34:18.311    8 Sep 2021 14:59:09.532          1491.221
                      14    8 Sep 2021 15:26:49.896    8 Sep 2021 15:51:41.117          1491.221
                      15    8 Sep 2021 16:19:21.488    8 Sep 2021 16:44:12.709          1491.221
                      16    8 Sep 2021 17:11:53.073    8 Sep 2021 17:36:44.293          1491.221
                      17    8 Sep 2021 18:04:24.665    8 Sep 2021 18:29:15.886          1491.221
                      18    8 Sep 2021 18:56:56.249    8 Sep 2021 19:21:47.470          1491.221
                      19    8 Sep 2021 19:49:27.842    8 Sep 2021 20:14:19.062          1491.221
                      20    8 Sep 2021 20:41:59.426    8 Sep 2021 21:06:50.647          1491.221
                      21    8 Sep 2021 21:34:31.018    8 Sep 2021 21:59:22.239          1491.221
                      22    8 Sep 2021 22:27:02.603    8 Sep 2021 22:51:53.824          1491.221
                      23    8 Sep 2021 23:19:34.195    8 Sep 2021 23:44:25.416          1491.221
                      24    9 Sep 2021 00:12:05.780    9 Sep 2021 00:36:57.001          1491.221
                      25    9 Sep 2021 01:04:37.372    9 Sep 2021 01:29:28.593          1491.221
                      26    9 Sep 2021 01:57:08.956    9 Sep 2021 02:22:00.177          1491.221
                      27    9 Sep 2021 02:49:40.549    9 Sep 2021 03:14:31.770          1491.221
                      28    9 Sep 2021 03:42:12.133    9 Sep 2021 04:00:00.000          1067.867

Min Duration          28    9 Sep 2021 03:42:12.133    9 Sep 2021 04:00:00.000          1067.867
Max Duration           3    8 Sep 2021 05:49:02.426    8 Sep 2021 06:13:53.648          1491.222
Mean Duration                                                                           1476.101
Total Duration                                                                         41330.827


Satellite308-To-Satellite606
----------------------------
                  Access       Start Time (UTCG)           Stop Time (UTCG)       Duration (sec)
                  ------    -----------------------    -----------------------    --------------
                       1    8 Sep 2021 04:01:27.689    8 Sep 2021 04:20:51.713          1164.024
                       2    8 Sep 2021 04:53:59.277    8 Sep 2021 05:13:23.303          1164.026
                       3    8 Sep 2021 05:46:30.861    8 Sep 2021 06:05:54.890          1164.029
                       4    8 Sep 2021 06:39:02.454    8 Sep 2021 06:58:26.479          1164.025
                       5    8 Sep 2021 07:31:34.042    8 Sep 2021 07:50:58.065          1164.023
                       6    8 Sep 2021 08:24:05.629    8 Sep 2021 08:43:29.654          1164.024
                       7    8 Sep 2021 09:16:37.219    8 Sep 2021 09:36:01.244          1164.025
                       8    8 Sep 2021 10:09:08.807    8 Sep 2021 10:28:32.832          1164.024
                       9    8 Sep 2021 11:01:40.394    8 Sep 2021 11:21:04.420          1164.026
                      10    8 Sep 2021 11:54:11.983    8 Sep 2021 12:13:36.008          1164.025
                      11    8 Sep 2021 12:46:43.570    8 Sep 2021 13:06:07.597          1164.027
                      12    8 Sep 2021 13:39:15.161    8 Sep 2021 13:58:39.186          1164.025
                      13    8 Sep 2021 14:31:46.748    8 Sep 2021 14:51:10.777          1164.028
                      14    8 Sep 2021 15:24:18.337    8 Sep 2021 15:43:42.363          1164.026
                      15    8 Sep 2021 16:16:49.926    8 Sep 2021 16:36:13.951          1164.024
                      16    8 Sep 2021 17:09:21.512    8 Sep 2021 17:28:45.538          1164.026
                      17    8 Sep 2021 18:01:53.102    8 Sep 2021 18:21:17.126          1164.025
                      18    8 Sep 2021 18:54:24.690    8 Sep 2021 19:13:48.717          1164.027
                      19    8 Sep 2021 19:46:56.280    8 Sep 2021 20:06:20.304          1164.024
                      20    8 Sep 2021 20:39:27.867    8 Sep 2021 20:58:51.892          1164.026
                      21    8 Sep 2021 21:31:59.455    8 Sep 2021 21:51:23.480          1164.025
                      22    8 Sep 2021 22:24:31.043    8 Sep 2021 22:43:55.069          1164.026
                      23    8 Sep 2021 23:17:02.633    8 Sep 2021 23:36:26.656          1164.023
                      24    9 Sep 2021 00:09:34.221    9 Sep 2021 00:28:58.249          1164.029
                      25    9 Sep 2021 01:02:05.809    9 Sep 2021 01:21:29.835          1164.026
                      26    9 Sep 2021 01:54:37.399    9 Sep 2021 02:14:01.423          1164.024
                      27    9 Sep 2021 02:47:08.984    9 Sep 2021 03:06:33.011          1164.026
                      28    9 Sep 2021 03:39:40.574    9 Sep 2021 03:59:04.603          1164.029

Min Duration          23    8 Sep 2021 23:17:02.633    8 Sep 2021 23:36:26.656          1164.023
Max Duration           3    8 Sep 2021 05:46:30.861    8 Sep 2021 06:05:54.890          1164.029
Mean Duration                                                                           1164.026
Total Duration                                                                         32592.718


Satellite308-To-Satellite607
----------------------------
                  Access       Start Time (UTCG)           Stop Time (UTCG)       Duration (sec)
                  ------    -----------------------    -----------------------    --------------
                       1    8 Sep 2021 04:02:23.776    8 Sep 2021 04:09:25.309           421.533
                       2    8 Sep 2021 04:54:55.361    8 Sep 2021 05:01:56.898           421.537
                       3    8 Sep 2021 05:47:26.952    8 Sep 2021 05:54:28.486           421.534
                       4    8 Sep 2021 06:39:58.538    8 Sep 2021 06:47:00.075           421.537
                       5    8 Sep 2021 07:32:30.128    8 Sep 2021 07:39:31.663           421.535
                       6    8 Sep 2021 08:25:01.715    8 Sep 2021 08:32:03.252           421.536
                       7    8 Sep 2021 09:17:33.304    8 Sep 2021 09:24:34.840           421.536
                       8    8 Sep 2021 10:10:04.895    8 Sep 2021 10:17:06.428           421.534
                       9    8 Sep 2021 11:02:36.480    8 Sep 2021 11:09:38.017           421.537
                      10    8 Sep 2021 11:55:08.071    8 Sep 2021 12:02:09.605           421.534
                      11    8 Sep 2021 12:47:39.657    8 Sep 2021 12:54:41.194           421.537
                      12    8 Sep 2021 13:40:11.250    8 Sep 2021 13:47:12.782           421.532
                      13    8 Sep 2021 14:32:42.833    8 Sep 2021 14:39:44.368           421.535
                      14    8 Sep 2021 15:25:14.426    8 Sep 2021 15:32:15.958           421.533
                      15    8 Sep 2021 16:17:46.010    8 Sep 2021 16:24:47.547           421.537
                      16    8 Sep 2021 17:10:17.602    8 Sep 2021 17:17:19.135           421.533
                      17    8 Sep 2021 18:02:49.187    8 Sep 2021 18:09:50.724           421.537
                      18    8 Sep 2021 18:55:20.778    8 Sep 2021 19:02:22.312           421.534
                      19    8 Sep 2021 19:47:52.364    8 Sep 2021 19:54:53.901           421.537
                      20    8 Sep 2021 20:40:23.954    8 Sep 2021 20:47:25.489           421.535
                      21    8 Sep 2021 21:32:55.541    8 Sep 2021 21:39:57.078           421.536
                      22    8 Sep 2021 22:25:27.130    8 Sep 2021 22:32:28.666           421.536
                      23    8 Sep 2021 23:17:58.721    8 Sep 2021 23:25:00.254           421.534
                      24    9 Sep 2021 00:10:30.306    9 Sep 2021 00:17:31.843           421.537
                      25    9 Sep 2021 01:03:01.897    9 Sep 2021 01:10:03.431           421.534
                      26    9 Sep 2021 01:55:33.483    9 Sep 2021 02:02:35.020           421.537
                      27    9 Sep 2021 02:48:05.076    9 Sep 2021 02:55:06.608           421.532
                      28    9 Sep 2021 03:40:36.659    9 Sep 2021 03:47:38.194           421.534

Min Duration          12    8 Sep 2021 13:40:11.250    8 Sep 2021 13:47:12.782           421.532
Max Duration          26    9 Sep 2021 01:55:33.483    9 Sep 2021 02:02:35.020           421.537
Mean Duration                                                                            421.535
Total Duration                                                                         11802.982


Satellite308-To-Satellite701
----------------------------
                  Access       Start Time (UTCG)           Stop Time (UTCG)       Duration (sec)
                  ------    -----------------------    -----------------------    --------------
                       1    8 Sep 2021 04:27:24.340    8 Sep 2021 04:46:07.859          1123.519
                       2    8 Sep 2021 05:19:55.926    8 Sep 2021 05:38:39.451          1123.525
