routing/visibility/v402.txt

Satellite402-To-Satellite103
----------------------------
                  Access       Start Time (UTCG)           Stop Time (UTCG)       Duration (sec)
                  ------    -----------------------    -----------------------    --------------
                       1    8 Sep 2021 04:05:01.353    8 Sep 2021 04:12:02.889           421.536
                       2    8 Sep 2021 04:57:32.942    8 Sep 2021 05:04:34.477           421.536
                       3    8 Sep 2021 05:50:04.530    8 Sep 2021 05:57:06.066           421.536
                       4    8 Sep 2021 06:42:36.118    8 Sep 2021 06:49:37.654           421.536
                       5    8 Sep 2021 07:35:07.709    8 Sep 2021 07:42:09.243           421.534
                       6    8 Sep 2021 08:27:39.294    8 Sep 2021 08:34:40.831           421.537
                       7    8 Sep 2021 09:20:10.885    8 Sep 2021 09:27:12.419           421.534
                       8    8 Sep 2021 10:12:42.471    8 Sep 2021 10:19:44.008           421.537
                       9    8 Sep 2021 11:05:14.064    8 Sep 2021 11:12:15.596           421.532
                      10    8 Sep 2021 11:57:45.648    8 Sep 2021 12:04:47.185           421.537
                      11    8 Sep 2021 12:50:17.240    8 Sep 2021 12:57:18.773           421.533
                      12    8 Sep 2021 13:42:48.825    8 Sep 2021 13:49:50.362           421.537
                      13    8 Sep 2021 14:35:20.416    8 Sep 2021 14:42:21.949           421.534
                      14    8 Sep 2021 15:27:52.002    8 Sep 2021 15:34:53.538           421.537
                      15    8 Sep 2021 16:20:23.592    8 Sep 2021 16:27:25.126           421.534
                      16    8 Sep 2021 17:12:55.179    8 Sep 2021 17:19:56.715           421.536
                      17    8 Sep 2021 18:05:26.768    8 Sep 2021 18:12:28.303           421.536
                      18    8 Sep 2021 18:57:58.356    8 Sep 2021 19:04:59.892           421.536
                      19    8 Sep 2021 19:50:29.944    8 Sep 2021 19:57:31.480           421.536
                      20    8 Sep 2021 20:43:01.535    8 Sep 2021 20:50:03.068           421.534
                      21    8 Sep 2021 21:35:33.120    8 Sep 2021 21:42:34.657           421.537
                      22    8 Sep 2021 22:28:04.711    8 Sep 2021 22:35:06.245           421.534
                      23    8 Sep 2021 23:20:36.297    8 Sep 2021 23:27:37.834           421.537
                      24    9 Sep 2021 00:13:07.890    9 Sep 2021 00:20:09.422           421.532
                      25    9 Sep 2021 01:05:39.474    9 Sep 2021 01:12:41.011           421.537
                      26    9 Sep 2021 01:58:11.066    9 Sep 2021 02:05:12.598           421.533
                      27    9 Sep 2021 02:50:42.651    9 Sep 2021 02:57:44.187           421.537
                      28    9 Sep 2021 03:43:14.242    9 Sep 2021 03:50:15.775           421.534

Min Duration           9    8 Sep 2021 11:05:14.064    8 Sep 2021 11:12:15.596           421.532
Max Duration          10    8 Sep 2021 11:57:45.648    8 Sep 2021 12:04:47.185           421.537
Mean Duration                                                                            421.535
Total Duration                                                                         11802.989


Satellite402-To-Satellite104
----------------------------
                  Access       Start Time (UTCG)           Stop Time (UTCG)       Duration (sec)
                  ------    -----------------------    -----------------------    --------------
                       1    8 Sep 2021 04:00:00.000    8 Sep 2021 04:12:58.975           778.975
                       2    8 Sep 2021 04:46:06.539    8 Sep 2021 05:05:30.561          1164.022
                       3    8 Sep 2021 05:38:38.126    8 Sep 2021 05:58:02.155          1164.029
                       4    8 Sep 2021 06:31:09.714    8 Sep 2021 06:50:33.740          1164.026
                       5    8 Sep 2021 07:23:41.304    8 Sep 2021 07:43:05.328          1164.024
                       6    8 Sep 2021 08:16:12.890    8 Sep 2021 08:35:36.916          1164.026
                       7    8 Sep 2021 09:08:44.479    8 Sep 2021 09:28:08.504          1164.025
                       8    8 Sep 2021 10:01:16.068    8 Sep 2021 10:20:40.094          1164.027
                       9    8 Sep 2021 10:53:47.658    8 Sep 2021 11:13:11.682          1164.024
                      10    8 Sep 2021 11:46:19.244    8 Sep 2021 12:05:43.270          1164.026
                      11    8 Sep 2021 12:38:50.833    8 Sep 2021 12:58:14.858          1164.025
                      12    8 Sep 2021 13:31:22.421    8 Sep 2021 13:50:46.447          1164.026
                      13    8 Sep 2021 14:23:54.011    8 Sep 2021 14:43:18.034          1164.023
                      14    8 Sep 2021 15:16:25.598    8 Sep 2021 15:35:49.622          1164.024
                      15    8 Sep 2021 16:08:57.187    8 Sep 2021 16:28:21.213          1164.026
                      16    8 Sep 2021 17:01:28.776    8 Sep 2021 17:20:52.801          1164.024
                      17    8 Sep 2021 17:54:00.362    8 Sep 2021 18:13:24.388          1164.026
                      18    8 Sep 2021 18:46:31.952    8 Sep 2021 19:05:55.977          1164.025
                      19    8 Sep 2021 19:39:03.540    8 Sep 2021 19:58:27.567          1164.027
                      20    8 Sep 2021 20:31:35.130    8 Sep 2021 20:50:59.154          1164.024
                      21    8 Sep 2021 21:24:06.717    8 Sep 2021 21:43:30.742          1164.026
                      22    8 Sep 2021 22:16:38.305    8 Sep 2021 22:36:02.330          1164.025
                      23    8 Sep 2021 23:09:09.893    8 Sep 2021 23:28:33.919          1164.026
                      24    9 Sep 2021 00:01:41.484    9 Sep 2021 00:21:05.506          1164.023
                      25    9 Sep 2021 00:54:13.071    9 Sep 2021 01:13:37.095          1164.024
                      26    9 Sep 2021 01:46:44.659    9 Sep 2021 02:06:08.685          1164.026
                      27    9 Sep 2021 02:39:16.249    9 Sep 2021 02:58:40.273          1164.024
                      28    9 Sep 2021 03:31:47.834    9 Sep 2021 03:51:11.861          1164.026

Min Duration           1    8 Sep 2021 04:00:00.000    8 Sep 2021 04:12:58.975           778.975
Max Duration           3    8 Sep 2021 05:38:38.126    8 Sep 2021 05:58:02.155          1164.029
Mean Duration                                                                           1150.273
Total Duration                                                                         32207.654


Satellite402-To-Satellite105
----------------------------
                  Access       Start Time (UTCG)           Stop Time (UTCG)       Duration (sec)
                  ------    -----------------------    -----------------------    --------------
                       1    8 Sep 2021 04:00:00.000    8 Sep 2021 04:10:27.415           627.415
                       2    8 Sep 2021 04:38:07.779    8 Sep 2021 05:02:59.000          1491.221
                       3    8 Sep 2021 05:30:39.371    8 Sep 2021 05:55:30.592          1491.221
                       4    8 Sep 2021 06:23:10.956    8 Sep 2021 06:48:02.177          1491.221
                       5    8 Sep 2021 07:15:42.548    8 Sep 2021 07:40:33.769          1491.221
                       6    8 Sep 2021 08:08:14.133    8 Sep 2021 08:33:05.353          1491.221
                       7    8 Sep 2021 09:00:45.725    8 Sep 2021 09:25:36.946          1491.221
                       8    8 Sep 2021 09:53:17.309    8 Sep 2021 10:18:08.530          1491.221
                       9    8 Sep 2021 10:45:48.902    8 Sep 2021 11:10:40.123          1491.221
                      10    8 Sep 2021 11:38:20.486    8 Sep 2021 12:03:11.707          1491.221
                      11    8 Sep 2021 12:30:52.078    8 Sep 2021 12:55:43.299          1491.221
                      12    8 Sep 2021 13:23:23.663    8 Sep 2021 13:48:14.884          1491.221
                      13    8 Sep 2021 14:15:55.255    8 Sep 2021 14:40:46.476          1491.221
                      14    8 Sep 2021 15:08:26.840    8 Sep 2021 15:33:18.061          1491.221
                      15    8 Sep 2021 16:00:58.432    8 Sep 2021 16:25:49.653          1491.221
                      16    8 Sep 2021 16:53:30.017    8 Sep 2021 17:18:21.237          1491.221
                      17    8 Sep 2021 17:46:01.609    8 Sep 2021 18:10:52.830          1491.221
                      18    8 Sep 2021 18:38:33.193    8 Sep 2021 19:03:24.414          1491.221
                      19    8 Sep 2021 19:31:04.786    8 Sep 2021 19:55:56.007          1491.221
                      20    8 Sep 2021 20:23:36.370    8 Sep 2021 20:48:27.591          1491.221
                      21    8 Sep 2021 21:16:07.962    8 Sep 2021 21:40:59.183          1491.221
                      22    8 Sep 2021 22:08:39.547    8 Sep 2021 22:33:30.768          1491.221
                      23    8 Sep 2021 23:01:11.139    8 Sep 2021 23:26:02.360          1491.221
                      24    8 Sep 2021 23:53:42.724    9 Sep 2021 00:18:33.945          1491.221
                      25    9 Sep 2021 00:46:14.316    9 Sep 2021 01:11:05.537          1491.221
                      26    9 Sep 2021 01:38:45.901    9 Sep 2021 02:03:37.121          1491.221
                      27    9 Sep 2021 02:31:17.493    9 Sep 2021 02:56:08.714          1491.221
                      28    9 Sep 2021 03:23:49.077    9 Sep 2021 03:48:40.298          1491.221

Min Duration           1    8 Sep 2021 04:00:00.000    8 Sep 2021 04:10:27.415           627.415
Max Duration           3    8 Sep 2021 05:30:39.371    8 Sep 2021 05:55:30.592          1491.221
Mean Duration                                                                           1460.371
Total Duration                                                                         40890.379


Satellite402-To-Satellite106
----------------------------
                  Access       Start Time (UTCG)           Stop Time (UTCG)       Duration (sec)
                  ------    -----------------------    -----------------------    --------------
                       1    8 Sep 2021 04:00:00.000    8 Sep 2021 04:05:09.279           309.279
                       2    8 Sep 2021 04:32:55.597    8 Sep 2021 04:57:40.871          1485.274
                       3    8 Sep 2021 05:25:27.186    8 Sep 2021 05:50:12.455          1485.269
                       4    8 Sep 2021 06:17:58.773    8 Sep 2021 06:42:44.047          1485.274
                       5    8 Sep 2021 07:10:30.364    8 Sep 2021 07:35:15.632          1485.268
                       6    8 Sep 2021 08:03:01.950    8 Sep 2021 08:27:47.224          1485.274
                       7    8 Sep 2021 08:55:33.541    8 Sep 2021 09:20:18.809          1485.268
                       8    8 Sep 2021 09:48:05.127    8 Sep 2021 10:12:50.401          1485.274
                       9    8 Sep 2021 10:40:36.717    8 Sep 2021 11:05:21.986          1485.268
                      10    8 Sep 2021 11:33:08.304    8 Sep 2021 11:57:53.578          1485.274
                      11    8 Sep 2021 12:25:39.894    8 Sep 2021 12:50:25.162          1485.268
                      12    8 Sep 2021 13:18:11.481    8 Sep 2021 13:42:56.754          1485.274
                      13    8 Sep 2021 14:10:43.071    8 Sep 2021 14:35:28.339          1485.268
                      14    8 Sep 2021 15:03:14.657    8 Sep 2021 15:27:59.931          1485.274
                      15    8 Sep 2021 15:55:46.248    8 Sep 2021 16:20:31.516          1485.268
                      16    8 Sep 2021 16:48:17.834    8 Sep 2021 17:13:03.108          1485.274
                      17    8 Sep 2021 17:40:49.424    8 Sep 2021 18:05:34.693          1485.268
                      18    8 Sep 2021 18:33:21.011    8 Sep 2021 18:58:06.285          1485.274
                      19    8 Sep 2021 19:25:52.601    8 Sep 2021 19:50:37.870          1485.268
                      20    8 Sep 2021 20:18:24.188    8 Sep 2021 20:43:09.462          1485.274
                      21    8 Sep 2021 21:10:55.778    8 Sep 2021 21:35:41.046          1485.268
                      22    8 Sep 2021 22:03:27.365    8 Sep 2021 22:28:12.638          1485.274
                      23    8 Sep 2021 22:55:58.955    8 Sep 2021 23:20:44.223          1485.268
                      24    8 Sep 2021 23:48:30.541    9 Sep 2021 00:13:15.815          1485.274
                      25    9 Sep 2021 00:41:02.132    9 Sep 2021 01:05:47.400          1485.268
                      26    9 Sep 2021 01:33:33.718    9 Sep 2021 01:58:18.992          1485.274
                      27    9 Sep 2021 02:26:05.308    9 Sep 2021 02:50:50.577          1485.268
                      28    9 Sep 2021 03:18:36.895    9 Sep 2021 03:43:22.169          1485.274

Min Duration           1    8 Sep 2021 04:00:00.000    8 Sep 2021 04:05:09.279           309.279
Max Duration          28    9 Sep 2021 03:18:36.895    9 Sep 2021 03:43:22.169          1485.274
Mean Duration                                                                           1443.272
Total Duration                                                                         40411.603


Satellite402-To-Satellite107
----------------------------
                  Access       Start Time (UTCG)           Stop Time (UTCG)       Duration (sec)
                  ------    -----------------------    -----------------------    --------------
                       1    8 Sep 2021 04:30:30.590    8 Sep 2021 04:49:35.558          1144.968
                       2    8 Sep 2021 05:23:02.178    8 Sep 2021 05:42:07.146          1144.968
                       3    8 Sep 2021 06:15:33.767    8 Sep 2021 06:34:38.734          1144.968
                       4    8 Sep 2021 07:08:05.355    8 Sep 2021 07:27:10.323          1144.968
                       5    8 Sep 2021 08:00:36.943    8 Sep 2021 08:19:41.911          1144.968
                       6    8 Sep 2021 08:53:08.531    8 Sep 2021 09:12:13.500          1144.968
                       7    8 Sep 2021 09:45:40.120    8 Sep 2021 10:04:45.088          1144.968
                       8    8 Sep 2021 10:38:11.708    8 Sep 2021 10:57:16.676          1144.968
                       9    8 Sep 2021 11:30:43.297    8 Sep 2021 11:49:48.265          1144.968
                      10    8 Sep 2021 12:23:14.885    8 Sep 2021 12:42:19.853          1144.968
                      11    8 Sep 2021 13:15:46.473    8 Sep 2021 13:34:51.442          1144.968
                      12    8 Sep 2021 14:08:18.062    8 Sep 2021 14:27:23.030          1144.968
                      13    8 Sep 2021 15:00:49.650    8 Sep 2021 15:19:54.618          1144.968
                      14    8 Sep 2021 15:53:21.239    8 Sep 2021 16:12:26.207          1144.968
                      15    8 Sep 2021 16:45:52.827    8 Sep 2021 17:04:57.795          1144.968
                      16    8 Sep 2021 17:38:24.415    8 Sep 2021 17:57:29.384          1144.968
                      17    8 Sep 2021 18:30:56.004    8 Sep 2021 18:50:00.972          1144.968
                      18    8 Sep 2021 19:23:27.592    8 Sep 2021 19:42:32.560          1144.968
                      19    8 Sep 2021 20:15:59.181    8 Sep 2021 20:35:04.149          1144.968
                      20    8 Sep 2021 21:08:30.769    8 Sep 2021 21:27:35.737          1144.968
                      21    8 Sep 2021 22:01:02.357    8 Sep 2021 22:20:07.326          1144.968
                      22    8 Sep 2021 22:53:33.946    8 Sep 2021 23:12:38.914          1144.968
                      23    8 Sep 2021 23:46:05.534    9 Sep 2021 00:05:10.502          1144.968
                      24    9 Sep 2021 00:38:37.122    9 Sep 2021 00:57:42.091          1144.968
                      25    9 Sep 2021 01:31:08.711    9 Sep 2021 01:50:13.679          1144.968
                      26    9 Sep 2021 02:23:40.299    9 Sep 2021 02:42:45.268          1144.968
                      27    9 Sep 2021 03:16:11.888    9 Sep 2021 03:35:16.856          1144.968

Min Duration           1    8 Sep 2021 04:30:30.590    8 Sep 2021 04:49:35.558          1144.968
Max Duration          27    9 Sep 2021 03:16:11.888    9 Sep 2021 03:35:16.856          1144.968
Mean Duration                                                                           1144.968
Total Duration                                                                         30914.140


Satellite402-To-Satellite108
----------------------------
                  Access       Start Time (UTCG)           Stop Time (UTCG)       Duration (sec)
                  ------    -----------------------    -----------------------    --------------
                       1    8 Sep 2021 04:31:50.658    8 Sep 2021 04:37:45.169           354.511
                       2    8 Sep 2021 05:24:22.249    8 Sep 2021 05:30:16.760           354.511
                       3    8 Sep 2021 06:16:53.839    8 Sep 2021 06:22:48.349           354.510
                       4    8 Sep 2021 07:09:25.424    8 Sep 2021 07:15:19.937           354.513
                       5    8 Sep 2021 08:01:57.012    8 Sep 2021 08:07:51.524           354.511
                       6    8 Sep 2021 08:54:28.604    8 Sep 2021 09:00:23.114           354.510
                       7    8 Sep 2021 09:47:00.190    8 Sep 2021 09:52:54.703           354.513
                       8    8 Sep 2021 10:39:31.776    8 Sep 2021 10:45:26.287           354.510
                       9    8 Sep 2021 11:32:03.369    8 Sep 2021 11:37:57.879           354.510
                      10    8 Sep 2021 12:24:34.958    8 Sep 2021 12:30:29.468           354.510
                      11    8 Sep 2021 13:17:06.542    8 Sep 2021 13:23:01.056           354.514
                      12    8 Sep 2021 14:09:38.131    8 Sep 2021 14:15:32.642           354.511
                      13    8 Sep 2021 15:02:09.722    8 Sep 2021 15:08:04.233           354.510
                      14    8 Sep 2021 15:54:41.307    8 Sep 2021 16:00:35.821           354.515
                      15    8 Sep 2021 16:47:12.895    8 Sep 2021 16:53:07.405           354.510
                      16    8 Sep 2021 17:39:44.487    8 Sep 2021 17:45:38.997           354.510
                      17    8 Sep 2021 18:32:16.076    8 Sep 2021 18:38:10.587           354.510
                      18    8 Sep 2021 19:24:47.664    8 Sep 2021 19:30:42.175           354.511
                      19    8 Sep 2021 20:17:19.249    8 Sep 2021 20:23:13.760           354.511
                      20    8 Sep 2021 21:09:50.841    8 Sep 2021 21:15:45.351           354.511
                      21    8 Sep 2021 22:02:22.425    8 Sep 2021 22:08:16.940           354.515
                      22    8 Sep 2021 22:54:54.014    8 Sep 2021 23:00:48.524           354.510
                      23    8 Sep 2021 23:47:25.605    8 Sep 2021 23:53:20.116           354.511
                      24    9 Sep 2021 00:39:57.195    9 Sep 2021 00:45:51.705           354.511
                      25    9 Sep 2021 01:32:28.781    9 Sep 2021 01:38:23.294           354.512
                      26    9 Sep 2021 02:25:00.368    9 Sep 2021 02:30:54.879           354.511
                      27    9 Sep 2021 03:17:31.959    9 Sep 2021 03:23:26.470           354.511

Min Duration           6    8 Sep 2021 08:54:28.604    8 Sep 2021 09:00:23.114           354.510
Max Duration          14    8 Sep 2021 15:54:41.307    8 Sep 2021 16:00:35.821           354.515
Mean Duration                                                                            354.511
Total Duration                                                                          9571.802


Satellite402-To-Satellite202
----------------------------
                  Access       Start Time (UTCG)           Stop Time (UTCG)       Duration (sec)
                  ------    -----------------------    -----------------------    --------------
                       1    8 Sep 2021 04:09:10.681    8 Sep 2021 04:17:05.089           474.408
                       2    8 Sep 2021 05:01:42.270    8 Sep 2021 05:09:36.678           474.408
                       3    8 Sep 2021 05:54:13.857    8 Sep 2021 06:02:08.267           474.410
                       4    8 Sep 2021 06:46:45.444    8 Sep 2021 06:54:39.854           474.410
                       5    8 Sep 2021 07:39:17.037    8 Sep 2021 07:47:11.439           474.402
                       6    8 Sep 2021 08:31:48.623    8 Sep 2021 08:39:43.032           474.409
                       7    8 Sep 2021 09:24:20.209    8 Sep 2021 09:32:14.620           474.411
                       8    8 Sep 2021 10:16:51.798    8 Sep 2021 10:24:46.209           474.410
                       9    8 Sep 2021 11:09:23.388    8 Sep 2021 11:17:17.796           474.408
                      10    8 Sep 2021 12:01:54.978    8 Sep 2021 12:09:49.385           474.407
                      11    8 Sep 2021 12:54:26.564    8 Sep 2021 13:02:20.974           474.410
                      12    8 Sep 2021 13:46:58.151    8 Sep 2021 13:54:52.562           474.411
                      13    8 Sep 2021 14:39:29.742    8 Sep 2021 14:47:24.147           474.405
                      14    8 Sep 2021 15:32:01.328    8 Sep 2021 15:39:55.739           474.411
                      15    8 Sep 2021 16:24:32.917    8 Sep 2021 16:32:27.328           474.411
                      16    8 Sep 2021 17:17:04.506    8 Sep 2021 17:24:58.914           474.409
                      17    8 Sep 2021 18:09:36.096    8 Sep 2021 18:17:30.504           474.407
                      18    8 Sep 2021 19:02:07.686    8 Sep 2021 19:10:02.093           474.407
                      19    8 Sep 2021 19:54:39.271    8 Sep 2021 20:02:33.681           474.411
                      20    8 Sep 2021 20:47:10.859    8 Sep 2021 20:55:05.270           474.411
                      21    8 Sep 2021 21:39:42.447    8 Sep 2021 21:47:36.855           474.408
                      22    8 Sep 2021 22:32:14.035    8 Sep 2021 22:40:08.446           474.411
                      23    8 Sep 2021 23:24:45.624    8 Sep 2021 23:32:40.035           474.411
                      24    9 Sep 2021 00:17:17.213    9 Sep 2021 00:25:11.622           474.408
                      25    9 Sep 2021 01:09:48.805    9 Sep 2021 01:17:43.211           474.406
                      26    9 Sep 2021 02:02:20.394    9 Sep 2021 02:10:14.800           474.406
                      27    9 Sep 2021 02:54:51.978    9 Sep 2021 03:02:46.384           474.407
                      28    9 Sep 2021 03:47:23.569    9 Sep 2021 03:55:17.976           474.407

Min Duration           5    8 Sep 2021 07:39:17.037    8 Sep 2021 07:47:11.439           474.402
Max Duration          14    8 Sep 2021 15:32:01.328    8 Sep 2021 15:39:55.739           474.411
Mean Duration                                                                            474.409
Total Duration                                                                         13283.441


Satellite402-To-Satellite203
----------------------------
                  Access       Start Time (UTCG)           Stop Time (UTCG)       Duration (sec)
                  ------    -----------------------    -----------------------    --------------
                       1    8 Sep 2021 04:00:00.000    8 Sep 2021 04:22:45.866          1365.866
                       2    8 Sep 2021 04:45:31.177    8 Sep 2021 05:15:17.455          1786.278
                       3    8 Sep 2021 05:38:02.762    8 Sep 2021 06:07:49.043          1786.281
                       4    8 Sep 2021 06:30:34.353    8 Sep 2021 07:00:20.632          1786.278
                       5    8 Sep 2021 07:23:05.939    8 Sep 2021 07:52:52.220          1786.281
                       6    8 Sep 2021 08:15:37.530    8 Sep 2021 08:45:23.809          1786.278
                       7    8 Sep 2021 09:08:09.116    8 Sep 2021 09:37:55.396          1786.281
                       8    8 Sep 2021 10:00:40.707    8 Sep 2021 10:30:26.986          1786.278
                       9    8 Sep 2021 10:53:12.292    8 Sep 2021 11:22:58.573          1786.281
                      10    8 Sep 2021 11:45:43.884    8 Sep 2021 12:15:30.162          1786.278
                      11    8 Sep 2021 12:38:15.469    8 Sep 2021 13:08:01.750          1786.281
                      12    8 Sep 2021 13:30:47.061    8 Sep 2021 14:00:33.339          1786.278
                      13    8 Sep 2021 14:23:18.646    8 Sep 2021 14:53:04.927          1786.281
                      14    8 Sep 2021 15:15:50.237    8 Sep 2021 15:45:36.516          1786.278
                      15    8 Sep 2021 16:08:21.823    8 Sep 2021 16:38:08.104          1786.281
                      16    8 Sep 2021 17:00:53.414    8 Sep 2021 17:30:39.693          1786.278
                      17    8 Sep 2021 17:53:24.999    8 Sep 2021 18:23:11.280          1786.281
                      18    8 Sep 2021 18:45:56.591    8 Sep 2021 19:15:42.869          1786.278
                      19    8 Sep 2021 19:38:28.176    8 Sep 2021 20:08:14.457          1786.281
                      20    8 Sep 2021 20:30:59.768    8 Sep 2021 21:00:46.046          1786.278
                      21    8 Sep 2021 21:23:31.353    8 Sep 2021 21:53:17.634          1786.281
                      22    8 Sep 2021 22:16:02.945    8 Sep 2021 22:45:49.223          1786.278
                      23    8 Sep 2021 23:08:34.530    8 Sep 2021 23:38:20.811          1786.281
                      24    9 Sep 2021 00:01:06.121    9 Sep 2021 00:30:52.400          1786.278
                      25    9 Sep 2021 00:53:37.707    9 Sep 2021 01:23:23.988          1786.281
                      26    9 Sep 2021 01:46:09.298    9 Sep 2021 02:15:55.577          1786.278
                      27    9 Sep 2021 02:38:40.883    9 Sep 2021 03:08:27.164          1786.281
                      28    9 Sep 2021 03:31:12.475    9 Sep 2021 04:00:00.000          1727.525

Min Duration           1    8 Sep 2021 04:00:00.000    8 Sep 2021 04:22:45.866          1365.866
Max Duration           3    8 Sep 2021 05:38:02.762    8 Sep 2021 06:07:49.043          1786.281
Mean Duration                                                                           1769.167
Total Duration                                                                         49536.664


Satellite402-To-Satellite204
----------------------------
                  Access       Start Time (UTCG)           Stop Time (UTCG)       Duration (sec)
                  ------    -----------------------    -----------------------    --------------
                       1    8 Sep 2021 04:00:00.000    8 Sep 2021 04:21:28.219          1288.219
                       2    8 Sep 2021 04:36:18.505    8 Sep 2021 05:13:59.807          2261.301
                       3    8 Sep 2021 05:28:50.094    8 Sep 2021 06:06:31.395          2261.301
                       4    8 Sep 2021 06:21:21.682    8 Sep 2021 06:59:02.983          2261.301
                       5    8 Sep 2021 07:13:53.271    8 Sep 2021 07:51:34.572          2261.301
                       6    8 Sep 2021 08:06:24.859    8 Sep 2021 08:44:06.160          2261.301
                       7    8 Sep 2021 08:58:56.447    8 Sep 2021 09:36:37.749          2261.301
                       8    8 Sep 2021 09:51:28.036    8 Sep 2021 10:29:09.337          2261.301
                       9    8 Sep 2021 10:43:59.624    8 Sep 2021 11:21:40.925          2261.301
                      10    8 Sep 2021 11:36:31.213    8 Sep 2021 12:14:12.514          2261.301
                      11    8 Sep 2021 12:29:02.801    8 Sep 2021 13:06:44.102          2261.301
                      12    8 Sep 2021 13:21:34.389    8 Sep 2021 13:59:15.691          2261.301
                      13    8 Sep 2021 14:14:05.978    8 Sep 2021 14:51:47.279          2261.301
                      14    8 Sep 2021 15:06:37.566    8 Sep 2021 15:44:18.867          2261.301
                      15    8 Sep 2021 15:59:09.155    8 Sep 2021 16:36:50.456          2261.301
                      16    8 Sep 2021 16:51:40.743    8 Sep 2021 17:29:22.044          2261.301
                      17    8 Sep 2021 17:44:12.331    8 Sep 2021 18:21:53.633          2261.301
                      18    8 Sep 2021 18:36:43.920    8 Sep 2021 19:14:25.221          2261.301
                      19    8 Sep 2021 19:29:15.508    8 Sep 2021 20:06:56.809          2261.301
                      20    8 Sep 2021 20:21:47.097    8 Sep 2021 20:59:28.398          2261.301
                      21    8 Sep 2021 21:14:18.685    8 Sep 2021 21:51:59.986          2261.301
                      22    8 Sep 2021 22:06:50.273    8 Sep 2021 22:44:31.575          2261.301
                      23    8 Sep 2021 22:59:21.862    8 Sep 2021 23:37:03.163          2261.301
                      24    8 Sep 2021 23:51:53.450    9 Sep 2021 00:29:34.751          2261.301
                      25    9 Sep 2021 00:44:25.039    9 Sep 2021 01:22:06.340          2261.301
                      26    9 Sep 2021 01:36:56.627    9 Sep 2021 02:14:37.928          2261.301
                      27    9 Sep 2021 02:29:28.215    9 Sep 2021 03:07:09.517          2261.301
                      28    9 Sep 2021 03:21:59.804    9 Sep 2021 03:59:41.104          2261.300

Min Duration           1    8 Sep 2021 04:00:00.000    8 Sep 2021 04:21:28.219          1288.219
Max Duration           2    8 Sep 2021 04:36:18.505    8 Sep 2021 05:13:59.807          2261.301
Mean Duration                                                                           2226.548
Total Duration                                                                         62343.351


Satellite402-To-Satellite205
----------------------------
                  Access       Start Time (UTCG)           Stop Time (UTCG)       Duration (sec)
                  ------    -----------------------    -----------------------    --------------
                       1    8 Sep 2021 04:00:00.000    8 Sep 2021 04:12:18.253           738.253
                       2    8 Sep 2021 04:34:58.151    8 Sep 2021 05:04:49.839          1791.688
                       3    8 Sep 2021 05:27:29.741    8 Sep 2021 05:57:21.427          1791.687
                       4    8 Sep 2021 06:20:01.328    8 Sep 2021 06:49:53.014          1791.686
                       5    8 Sep 2021 07:12:32.920    8 Sep 2021 07:42:24.602          1791.682
                       6    8 Sep 2021 08:05:04.508    8 Sep 2021 08:34:56.191          1791.682
                       7    8 Sep 2021 08:57:36.097    8 Sep 2021 09:27:27.784          1791.687
                       8    8 Sep 2021 09:50:07.685    8 Sep 2021 10:19:59.372          1791.687
                       9    8 Sep 2021 10:42:39.273    8 Sep 2021 11:12:30.960          1791.687
                      10    8 Sep 2021 11:35:10.861    8 Sep 2021 12:05:02.548          1791.687
                      11    8 Sep 2021 12:27:42.450    8 Sep 2021 12:57:34.137          1791.687
                      12    8 Sep 2021 13:20:14.038    8 Sep 2021 13:50:05.725          1791.687
                      13    8 Sep 2021 14:12:45.626    8 Sep 2021 14:42:37.313          1791.687
                      14    8 Sep 2021 15:05:17.214    8 Sep 2021 15:35:08.901          1791.687
                      15    8 Sep 2021 15:57:48.802    8 Sep 2021 16:27:40.489          1791.687
                      16    8 Sep 2021 16:50:20.390    8 Sep 2021 17:20:12.077          1791.687
                      17    8 Sep 2021 17:42:51.978    8 Sep 2021 18:12:43.665          1791.687
                      18    8 Sep 2021 18:35:23.566    8 Sep 2021 19:05:15.253          1791.687
                      19    8 Sep 2021 19:27:55.155    8 Sep 2021 19:57:46.842          1791.687
                      20    8 Sep 2021 20:20:26.743    8 Sep 2021 20:50:18.430          1791.687
                      21    8 Sep 2021 21:12:58.331    8 Sep 2021 21:42:50.017          1791.686
                      22    8 Sep 2021 22:05:29.923    8 Sep 2021 22:35:21.605          1791.682
                      23    8 Sep 2021 22:58:01.511    8 Sep 2021 23:27:53.194          1791.682
                      24    8 Sep 2021 23:50:33.100    9 Sep 2021 00:20:24.787          1791.687
                      25    9 Sep 2021 00:43:04.688    9 Sep 2021 01:12:56.375          1791.687
                      26    9 Sep 2021 01:35:36.276    9 Sep 2021 02:05:27.963          1791.687
                      27    9 Sep 2021 02:28:07.864    9 Sep 2021 02:57:59.551          1791.687
                      28    9 Sep 2021 03:20:39.452    9 Sep 2021 03:50:31.139          1791.687

Min Duration           1    8 Sep 2021 04:00:00.000    8 Sep 2021 04:12:18.253           738.253
Max Duration           2    8 Sep 2021 04:34:58.151    8 Sep 2021 05:04:49.839          1791.688
Mean Duration                                                                           1754.064
Total Duration                                                                         49113.783


Satellite402-To-Satellite206
----------------------------
                  Access       Start Time (UTCG)           Stop Time (UTCG)       Duration (sec)
                  ------    -----------------------    -----------------------    --------------
                       1    8 Sep 2021 04:40:46.000    8 Sep 2021 04:48:31.671           465.671
                       2    8 Sep 2021 05:33:17.589    8 Sep 2021 05:41:03.264           465.675
                       3    8 Sep 2021 06:25:49.180    8 Sep 2021 06:33:34.852           465.672
                       4    8 Sep 2021 07:18:20.769    8 Sep 2021 07:26:06.440           465.671
                       5    8 Sep 2021 08:10:52.355    8 Sep 2021 08:18:38.028           465.672
                       6    8 Sep 2021 09:03:23.942    8 Sep 2021 09:11:09.617           465.675
                       7    8 Sep 2021 09:55:55.531    8 Sep 2021 10:03:41.205           465.674
                       8    8 Sep 2021 10:48:27.124    8 Sep 2021 10:56:12.793           465.669
                       9    8 Sep 2021 11:40:58.707    8 Sep 2021 11:48:44.382           465.675
                      10    8 Sep 2021 12:33:30.296    8 Sep 2021 12:41:15.971           465.674
                      11    8 Sep 2021 13:26:01.887    8 Sep 2021 13:33:47.559           465.672
                      12    8 Sep 2021 14:18:33.476    8 Sep 2021 14:26:19.147           465.671
                      13    8 Sep 2021 15:11:05.062    8 Sep 2021 15:18:50.735           465.672
                      14    8 Sep 2021 16:03:36.650    8 Sep 2021 16:11:22.324           465.675
                      15    8 Sep 2021 16:56:08.242    8 Sep 2021 17:03:53.911           465.669
                      16    8 Sep 2021 17:48:39.831    8 Sep 2021 17:56:25.501           465.670
                      17    8 Sep 2021 18:41:11.415    8 Sep 2021 18:48:57.090           465.675
                      18    8 Sep 2021 19:33:43.004    8 Sep 2021 19:41:28.678           465.674
                      19    8 Sep 2021 20:26:14.594    8 Sep 2021 20:34:00.266           465.672
                      20    8 Sep 2021 21:18:46.183    8 Sep 2021 21:26:31.854           465.671
                      21    8 Sep 2021 22:11:17.769    8 Sep 2021 22:19:03.442           465.672
                      22    8 Sep 2021 23:03:49.357    8 Sep 2021 23:11:35.031           465.675
                      23    8 Sep 2021 23:56:20.949    9 Sep 2021 00:04:06.618           465.669
                      24    9 Sep 2021 00:48:52.538    9 Sep 2021 00:56:38.208           465.670
                      25    9 Sep 2021 01:41:24.122    9 Sep 2021 01:49:09.797           465.675
                      26    9 Sep 2021 02:33:55.711    9 Sep 2021 02:41:41.385           465.674
                      27    9 Sep 2021 03:26:27.301    9 Sep 2021 03:34:12.973           465.672

Min Duration          15    8 Sep 2021 16:56:08.242    8 Sep 2021 17:03:53.911           465.669
Max Duration           9    8 Sep 2021 11:40:58.707    8 Sep 2021 11:48:44.382           465.675
Mean Duration                                                                            465.672
Total Duration                                                                         12573.156


Satellite402-To-Satellite302
----------------------------
                  Access       Start Time (UTCG)           Stop Time (UTCG)       Duration (sec)
                  ------    -----------------------    -----------------------    --------------
                       1    8 Sep 2021 04:00:00.000    9 Sep 2021 04:00:00.000         86400.000

Min Duration           1    8 Sep 2021 04:00:00.000    9 Sep 2021 04:00:00.000         86400.000
Max Duration           1    8 Sep 2021 04:00:00.000    9 Sep 2021 04:00:00.000         86400.000
Mean Duration                                                                          86400.000
Total Duration                                                                         86400.000


Satellite402-To-Satellite303
----------------------------
                  Access       Start Time (UTCG)           Stop Time (UTCG)       Duration (sec)
                  ------    -----------------------    -----------------------    --------------
                       1    8 Sep 2021 04:00:00.000    9 Sep 2021 04:00:00.000         86400.000

Min Duration           1    8 Sep 2021 04:00:00.000    9 Sep 2021 04:00:00.000         86400.000
Max Duration           1    8 Sep 2021 04:00:00.000    9 Sep 2021 04:00:00.000         86400.000
Mean Duration                                                                          86400.000
Total Duration                                                                         86400.000


Satellite402-To-Satellite304
----------------------------
                  Access       Start Time (UTCG)           Stop Time (UTCG)       Duration (sec)
                  ------    -----------------------    -----------------------    --------------
                       1    8 Sep 2021 04:00:00.000    9 Sep 2021 04:00:00.000         86400.000

Min Duration           1    8 Sep 2021 04:00:00.000    9 Sep 2021 04:00:00.000         86400.000
Max Duration           1    8 Sep 2021 04:00:00.000    9 Sep 2021 04:00:00.000         86400.000
Mean Duration                                                                          86400.000
Total Duration                                                                         86400.000


Satellite402-To-Satellite401
----------------------------
                  Access       Start Time (UTCG)           Stop Time (UTCG)       Duration (sec)
                  ------    -----------------------    -----------------------    --------------
                       1    8 Sep 2021 04:00:00.000    9 Sep 2021 04:00:00.000         86400.000

Min Duration           1    8 Sep 2021 04:00:00.000    9 Sep 2021 04:00:00.000         86400.000
Max Duration           1    8 Sep 2021 04:00:00.000    9 Sep 2021 04:00:00.000         86400.000
Mean Duration                                                                          86400.000
Total Duration                                                                         86400.000


Satellite402-To-Satellite403
----------------------------
                  Access       Start Time (UTCG)           Stop Time (UTCG)       Duration (sec)
                  ------    -----------------------    -----------------------    --------------
                       1    8 Sep 2021 04:00:00.000    9 Sep 2021 04:00:00.000         86400.000

Min Duration           1    8 Sep 2021 04:00:00.000    9 Sep 2021 04:00:00.000         86400.000
Max Duration           1    8 Sep 2021 04:00:00.000    9 Sep 2021 04:00:00.000         86400.000
Mean Duration                                                                          86400.000
Total Duration                                                                         86400.000


Satellite402-To-Satellite501
----------------------------
                  Access       Start Time (UTCG)           Stop Time (UTCG)       Duration (sec)
                  ------    -----------------------    -----------------------    --------------
                       1    8 Sep 2021 04:00:00.000    9 Sep 2021 04:00:00.000         86400.000

Min Duration           1    8 Sep 2021 04:00:00.000    9 Sep 2021 04:00:00.000         86400.000
Max Duration           1    8 Sep 2021 04:00:00.000    9 Sep 2021 04:00:00.000         86400.000
Mean Duration                                                                          86400.000
Total Duration                                                                         86400.000


Satellite402-To-Satellite502
----------------------------
                  Access       Start Time (UTCG)           Stop Time (UTCG)       Duration (sec)
                  ------    -----------------------    -----------------------    --------------
                       1    8 Sep 2021 04:00:00.000    9 Sep 2021 04:00:00.000         86400.000

Min Duration           1    8 Sep 2021 04:00:00.000    9 Sep 2021 04:00:00.000         86400.000
Max Duration           1    8 Sep 2021 04:00:00.000    9 Sep 2021 04:00:00.000         86400.000
Mean Duration                                                                          86400.000
Total Duration                                                                         86400.000


Satellite402-To-Satellite510
----------------------------
                  Access       Start Time (UTCG)           Stop Time (UTCG)       Duration (sec)
                  ------    -----------------------    -----------------------    --------------
                       1    8 Sep 2021 04:00:00.000    9 Sep 2021 04:00:00.000         86400.000

Min Duration           1    8 Sep 2021 04:00:00.000    9 Sep 2021 04:00:00.000         86400.000
Max Duration           1    8 Sep 2021 04:00:00.000    9 Sep 2021 04:00:00.000         86400.000
Mean Duration                                                                          86400.000
Total Duration                                                                         86400.000


Satellite402-To-Satellite601
----------------------------
                  Access       Start Time (UTCG)           Stop Time (UTCG)       Duration (sec)
                  ------    -----------------------    -----------------------    --------------
                       1    8 Sep 2021 04:00:52.328    8 Sep 2021 04:30:38.601          1786.273
                       2    8 Sep 2021 04:53:23.912    8 Sep 2021 05:23:10.193          1786.281
                       3    8 Sep 2021 05:45:55.504    8 Sep 2021 06:15:41.782          1786.278
                       4    8 Sep 2021 06:38:27.089    8 Sep 2021 07:08:13.370          1786.281
                       5    8 Sep 2021 07:30:58.680    8 Sep 2021 08:00:44.959          1786.278
                       6    8 Sep 2021 08:23:30.265    8 Sep 2021 08:53:16.546          1786.281
                       7    8 Sep 2021 09:16:01.857    8 Sep 2021 09:45:48.135          1786.278
                       8    8 Sep 2021 10:08:33.442    8 Sep 2021 10:38:19.723          1786.281
                       9    8 Sep 2021 11:01:05.034    8 Sep 2021 11:30:51.312          1786.278
                      10    8 Sep 2021 11:53:36.619    8 Sep 2021 12:23:22.900          1786.281
                      11    8 Sep 2021 12:46:08.211    8 Sep 2021 13:15:54.489          1786.278
                      12    8 Sep 2021 13:38:39.796    8 Sep 2021 14:08:26.077          1786.281
                      13    8 Sep 2021 14:31:11.387    8 Sep 2021 15:00:57.666          1786.278
                      14    8 Sep 2021 15:23:42.973    8 Sep 2021 15:53:29.253          1786.281
                      15    8 Sep 2021 16:16:14.564    8 Sep 2021 16:46:00.843          1786.278
                      16    8 Sep 2021 17:08:46.149    8 Sep 2021 17:38:32.430          1786.281
                      17    8 Sep 2021 18:01:17.741    8 Sep 2021 18:31:04.019          1786.278
                      18    8 Sep 2021 18:53:49.326    8 Sep 2021 19:23:35.607          1786.281
                      19    8 Sep 2021 19:46:20.918    8 Sep 2021 20:16:07.196          1786.278
                      20    8 Sep 2021 20:38:52.503    8 Sep 2021 21:08:38.784          1786.281
                      21    8 Sep 2021 21:31:24.094    8 Sep 2021 22:01:10.373          1786.278
                      22    8 Sep 2021 22:23:55.680    8 Sep 2021 22:53:41.961          1786.281
                      23    8 Sep 2021 23:16:27.271    8 Sep 2021 23:46:13.550          1786.278
                      24    9 Sep 2021 00:08:58.856    9 Sep 2021 00:38:45.137          1786.281
                      25    9 Sep 2021 01:01:30.448    9 Sep 2021 01:31:16.726          1786.278
                      26    9 Sep 2021 01:54:02.033    9 Sep 2021 02:23:48.314          1786.281
                      27    9 Sep 2021 02:46:33.625    9 Sep 2021 03:16:19.903          1786.278
                      28    9 Sep 2021 03:39:05.210    9 Sep 2021 04:00:00.000          1254.790

Min Duration          28    9 Sep 2021 03:39:05.210    9 Sep 2021 04:00:00.000          1254.790
Max Duration           2    8 Sep 2021 04:53:23.912    8 Sep 2021 05:23:10.193          1786.281
Mean Duration                                                                           1767.298
Total Duration                                                                         49484.335


Satellite402-To-Satellite602
----------------------------
                  Access       Start Time (UTCG)           Stop Time (UTCG)       Duration (sec)
                  ------    -----------------------    -----------------------    --------------
                       1    8 Sep 2021 04:06:33.100    8 Sep 2021 04:14:27.510           474.410
                       2    8 Sep 2021 04:59:04.693    8 Sep 2021 05:06:59.095           474.402
                       3    8 Sep 2021 05:51:36.279    8 Sep 2021 05:59:30.688           474.409
                       4    8 Sep 2021 06:44:07.865    8 Sep 2021 06:52:02.276           474.411
                       5    8 Sep 2021 07:36:39.454    8 Sep 2021 07:44:33.864           474.410
                       6    8 Sep 2021 08:29:11.044    8 Sep 2021 08:37:05.452           474.408
                       7    8 Sep 2021 09:21:42.634    8 Sep 2021 09:29:37.041           474.407
                       8    8 Sep 2021 10:14:14.219    8 Sep 2021 10:22:08.630           474.410
                       9    8 Sep 2021 11:06:45.807    8 Sep 2021 11:14:40.218           474.411
                      10    8 Sep 2021 11:59:17.395    8 Sep 2021 12:07:11.802           474.407
                      11    8 Sep 2021 12:51:48.984    8 Sep 2021 12:59:43.395           474.411
                      12    8 Sep 2021 13:44:20.572    8 Sep 2021 13:52:14.983           474.411
                      13    8 Sep 2021 14:36:52.161    8 Sep 2021 14:44:46.570           474.409
                      14    8 Sep 2021 15:29:23.752    8 Sep 2021 15:37:18.159           474.407
                      15    8 Sep 2021 16:21:55.341    8 Sep 2021 16:29:49.748           474.407
                      16    8 Sep 2021 17:14:26.926    8 Sep 2021 17:22:21.337           474.411
                      17    8 Sep 2021 18:06:58.515    8 Sep 2021 18:14:52.925           474.410
                      18    8 Sep 2021 18:59:30.102    8 Sep 2021 19:07:24.511           474.408
                      19    8 Sep 2021 19:52:01.691    8 Sep 2021 19:59:56.102           474.411
                      20    8 Sep 2021 20:44:33.279    8 Sep 2021 20:52:27.690           474.411
                      21    8 Sep 2021 21:37:04.869    8 Sep 2021 21:44:59.277           474.408
                      22    8 Sep 2021 22:29:36.460    8 Sep 2021 22:37:30.866           474.406
                      23    8 Sep 2021 23:22:08.049    8 Sep 2021 23:30:02.455           474.406
                      24    9 Sep 2021 00:14:39.633    9 Sep 2021 00:22:34.040           474.408
                      25    9 Sep 2021 01:07:11.225    9 Sep 2021 01:15:05.628           474.403
                      26    9 Sep 2021 01:59:42.810    9 Sep 2021 02:07:37.220           474.410
                      27    9 Sep 2021 02:52:14.398    9 Sep 2021 03:00:08.809           474.411
                      28    9 Sep 2021 03:44:45.986    9 Sep 2021 03:52:40.397           474.411

Min Duration           2    8 Sep 2021 04:59:04.693    8 Sep 2021 05:06:59.095           474.402
Max Duration          11    8 Sep 2021 12:51:48.984    8 Sep 2021 12:59:43.395           474.411
Mean Duration                                                                            474.409
Total Duration                                                                         13283.444


Satellite402-To-Satellite608
----------------------------
                  Access       Start Time (UTCG)           Stop Time (UTCG)       Duration (sec)
                  ------    -----------------------    -----------------------    --------------
                       1    8 Sep 2021 04:27:38.103    8 Sep 2021 04:35:23.778           465.675
                       2    8 Sep 2021 05:20:09.696    8 Sep 2021 05:27:55.365           465.669
                       3    8 Sep 2021 06:12:41.285    8 Sep 2021 06:20:26.955           465.670
                       4    8 Sep 2021 07:05:12.868    8 Sep 2021 07:12:58.543           465.675
                       5    8 Sep 2021 07:57:44.457    8 Sep 2021 08:05:30.132           465.674
                       6    8 Sep 2021 08:50:16.048    8 Sep 2021 08:58:01.720           465.672
                       7    8 Sep 2021 09:42:47.637    8 Sep 2021 09:50:33.308           465.671
                       8    8 Sep 2021 10:35:19.223    8 Sep 2021 10:43:04.896           465.672
                       9    8 Sep 2021 11:27:50.810    8 Sep 2021 11:35:36.485           465.675
                      10    8 Sep 2021 12:20:22.402    8 Sep 2021 12:28:08.071           465.669
                      11    8 Sep 2021 13:12:53.992    8 Sep 2021 13:20:39.662           465.670
                      12    8 Sep 2021 14:05:25.576    8 Sep 2021 14:13:11.251           465.675
                      13    8 Sep 2021 14:57:57.165    8 Sep 2021 15:05:42.839           465.674
                      14    8 Sep 2021 15:50:28.755    8 Sep 2021 15:58:14.427           465.672
                      15    8 Sep 2021 16:43:00.344    8 Sep 2021 16:50:46.015           465.671
                      16    8 Sep 2021 17:35:31.930    8 Sep 2021 17:43:17.603           465.673
                      17    8 Sep 2021 18:28:03.518    8 Sep 2021 18:35:49.192           465.675
                      18    8 Sep 2021 19:20:35.109    8 Sep 2021 19:28:20.778           465.669
                      19    8 Sep 2021 20:13:06.699    8 Sep 2021 20:20:52.369           465.671
                      20    8 Sep 2021 21:05:38.283    8 Sep 2021 21:13:23.958           465.675
                      21    8 Sep 2021 21:58:09.872    8 Sep 2021 22:05:55.546           465.674
                      22    8 Sep 2021 22:50:41.462    8 Sep 2021 22:58:27.134           465.672
                      23    8 Sep 2021 23:43:13.051    8 Sep 2021 23:50:58.722           465.671
                      24    9 Sep 2021 00:35:44.637    9 Sep 2021 00:43:30.310           465.673
                      25    9 Sep 2021 01:28:16.225    9 Sep 2021 01:36:01.900           465.675
                      26    9 Sep 2021 02:20:47.816    9 Sep 2021 02:28:33.485           465.669
                      27    9 Sep 2021 03:13:19.406    9 Sep 2021 03:21:05.076           465.671

Min Duration           2    8 Sep 2021 05:20:09.696    8 Sep 2021 05:27:55.365           465.669
Max Duration           4    8 Sep 2021 07:05:12.868    8 Sep 2021 07:12:58.543           465.675
Mean Duration                                                                            465.672
Total Duration                                                                         12573.152


Satellite402-To-Satellite609
----------------------------
                  Access       Start Time (UTCG)           Stop Time (UTCG)       Duration (sec)
                  ------    -----------------------    -----------------------    --------------
                       1    8 Sep 2021 04:11:19.936    8 Sep 2021 04:41:11.623          1791.686
                       2    8 Sep 2021 05:03:51.527    8 Sep 2021 05:33:43.214          1791.687
                       3    8 Sep 2021 05:56:23.115    8 Sep 2021 06:26:14.802          1791.687
                       4    8 Sep 2021 06:48:54.703    8 Sep 2021 07:18:46.390          1791.687
                       5    8 Sep 2021 07:41:26.291    8 Sep 2021 08:11:17.978          1791.687
                       6    8 Sep 2021 08:33:57.879    8 Sep 2021 09:03:49.566          1791.687
                       7    8 Sep 2021 09:26:29.467    8 Sep 2021 09:56:21.155          1791.687
                       8    8 Sep 2021 10:19:01.056    8 Sep 2021 10:48:52.743          1791.687
                       9    8 Sep 2021 11:11:32.644    8 Sep 2021 11:41:24.330          1791.686
                      10    8 Sep 2021 12:04:04.236    8 Sep 2021 12:33:55.918          1791.682
                      11    8 Sep 2021 12:56:35.824    8 Sep 2021 13:26:27.506          1791.682
                      12    8 Sep 2021 13:49:07.412    8 Sep 2021 14:18:59.100          1791.687
                      13    8 Sep 2021 14:41:39.001    8 Sep 2021 15:11:30.688          1791.687
                      14    8 Sep 2021 15:34:10.589    8 Sep 2021 16:04:02.276          1791.687
                      15    8 Sep 2021 16:26:42.177    8 Sep 2021 16:56:33.864          1791.687
                      16    8 Sep 2021 17:19:13.765    8 Sep 2021 17:49:05.452          1791.687
                      17    8 Sep 2021 18:11:45.353    8 Sep 2021 18:41:37.040          1791.687
                      18    8 Sep 2021 19:04:16.941    8 Sep 2021 19:34:08.628          1791.687
                      19    8 Sep 2021 19:56:48.530    8 Sep 2021 20:26:40.217          1791.687
                      20    8 Sep 2021 20:49:20.118    8 Sep 2021 21:19:11.805          1791.687
                      21    8 Sep 2021 21:41:51.706    8 Sep 2021 22:11:43.393          1791.687
                      22    8 Sep 2021 22:34:23.294    8 Sep 2021 23:04:14.981          1791.687
                      23    8 Sep 2021 23:26:54.882    8 Sep 2021 23:56:46.569          1791.687
                      24    9 Sep 2021 00:19:26.470    9 Sep 2021 00:49:18.157          1791.687
                      25    9 Sep 2021 01:11:58.058    9 Sep 2021 01:41:49.746          1791.687
                      26    9 Sep 2021 02:04:29.647    9 Sep 2021 02:34:21.334          1791.687
                      27    9 Sep 2021 02:57:01.235    9 Sep 2021 03:26:52.921          1791.686
                      28    9 Sep 2021 03:49:32.827    9 Sep 2021 04:00:00.000           627.173

Min Duration          28    9 Sep 2021 03:49:32.827    9 Sep 2021 04:00:00.000           627.173
Max Duration          26    9 Sep 2021 02:04:29.647    9 Sep 2021 02:34:21.334          1791.687
Mean Duration                                                                           1750.097
Total Duration                                                                         49002.711


Satellite402-To-Satellite610
----------------------------
                  Access       Start Time (UTCG)           Stop Time (UTCG)       Duration (sec)
                  ------    -----------------------    -----------------------    --------------
                       1    8 Sep 2021 04:02:09.973    8 Sep 2021 04:39:51.274          2261.301
                       2    8 Sep 2021 04:54:41.561    8 Sep 2021 05:32:22.863          2261.301
                       3    8 Sep 2021 05:47:13.150    8 Sep 2021 06:24:54.451          2261.301
                       4    8 Sep 2021 06:39:44.738    8 Sep 2021 07:17:26.039          2261.301
                       5    8 Sep 2021 07:32:16.327    8 Sep 2021 08:09:57.628          2261.301
                       6    8 Sep 2021 08:24:47.915    8 Sep 2021 09:02:29.216          2261.301
                       7    8 Sep 2021 09:17:19.503    8 Sep 2021 09:55:00.805          2261.301
                       8    8 Sep 2021 10:09:51.092    8 Sep 2021 10:47:32.393          2261.301
                       9    8 Sep 2021 11:02:22.680    8 Sep 2021 11:40:03.981          2261.301
                      10    8 Sep 2021 11:54:54.269    8 Sep 2021 12:32:35.570          2261.301
                      11    8 Sep 2021 12:47:25.857    8 Sep 2021 13:25:07.158          2261.301
                      12    8 Sep 2021 13:39:57.445    8 Sep 2021 14:17:38.747          2261.301
                      13    8 Sep 2021 14:32:29.034    8 Sep 2021 15:10:10.335          2261.301
                      14    8 Sep 2021 15:25:00.622    8 Sep 2021 16:02:41.923          2261.301
                      15    8 Sep 2021 16:17:32.211    8 Sep 2021 16:55:13.512          2261.301
                      16    8 Sep 2021 17:10:03.799    8 Sep 2021 17:47:45.100          2261.301
                      17    8 Sep 2021 18:02:35.387    8 Sep 2021 18:40:16.689          2261.301
                      18    8 Sep 2021 18:55:06.976    8 Sep 2021 19:32:48.277          2261.301
                      19    8 Sep 2021 19:47:38.564    8 Sep 2021 20:25:19.865          2261.301
                      20    8 Sep 2021 20:40:10.152    8 Sep 2021 21:17:51.454          2261.301
                      21    8 Sep 2021 21:32:41.741    8 Sep 2021 22:10:23.042          2261.301
                      22    8 Sep 2021 22:25:13.329    8 Sep 2021 23:02:54.631          2261.301
                      23    8 Sep 2021 23:17:44.918    8 Sep 2021 23:55:26.219          2261.301
                      24    9 Sep 2021 00:10:16.506    9 Sep 2021 00:47:57.807          2261.301
                      25    9 Sep 2021 01:02:48.094    9 Sep 2021 01:40:29.396          2261.301
                      26    9 Sep 2021 01:55:19.683    9 Sep 2021 02:33:00.984          2261.301
                      27    9 Sep 2021 02:47:51.271    9 Sep 2021 03:25:32.572          2261.301
                      28    9 Sep 2021 03:40:22.860    9 Sep 2021 04:00:00.000          1177.140

Min Duration          28    9 Sep 2021 03:40:22.860    9 Sep 2021 04:00:00.000          1177.140
Max Duration           1    8 Sep 2021 04:02:09.973    8 Sep 2021 04:39:51.274          2261.301
Mean Duration                                                                           2222.581
Total Duration                                                                         62232.274


Satellite402-To-Satellite701
----------------------------
                  Access       Start Time (UTCG)           Stop Time (UTCG)       Duration (sec)
                  ------    -----------------------    -----------------------    --------------
                       1    8 Sep 2021 04:11:35.304    8 Sep 2021 04:18:36.838           421.534
                       2    8 Sep 2021 05:04:06.889    8 Sep 2021 05:11:08.426           421.537
                       3    8 Sep 2021 05:56:38.480    8 Sep 2021 06:03:40.014           421.534
                       4    8 Sep 2021 06:49:10.066    8 Sep 2021 06:56:11.603           421.537
