routing/visibility/v403.txt

Satellite403-To-Satellite104
----------------------------
                  Access       Start Time (UTCG)           Stop Time (UTCG)       Duration (sec)
                  ------    -----------------------    -----------------------    --------------
                       1    8 Sep 2021 04:00:00.000    8 Sep 2021 04:01:32.571            92.571
                       2    8 Sep 2021 04:47:02.623    8 Sep 2021 04:54:04.159           421.536
                       3    8 Sep 2021 05:39:34.216    8 Sep 2021 05:46:35.748           421.532
                       4    8 Sep 2021 06:32:05.800    8 Sep 2021 06:39:07.337           421.537
                       5    8 Sep 2021 07:24:37.391    8 Sep 2021 07:31:38.924           421.533
                       6    8 Sep 2021 08:17:08.977    8 Sep 2021 08:24:10.513           421.537
                       7    8 Sep 2021 09:09:40.567    8 Sep 2021 09:16:42.101           421.534
                       8    8 Sep 2021 10:02:12.154    8 Sep 2021 10:09:13.690           421.537
                       9    8 Sep 2021 10:54:43.743    8 Sep 2021 11:01:45.278           421.535
                      10    8 Sep 2021 11:47:15.331    8 Sep 2021 11:54:16.867           421.536
                      11    8 Sep 2021 12:39:46.919    8 Sep 2021 12:46:48.455           421.536
                      12    8 Sep 2021 13:32:18.508    8 Sep 2021 13:39:20.044           421.536
                      13    8 Sep 2021 14:24:50.096    8 Sep 2021 14:31:51.632           421.537
                      14    8 Sep 2021 15:17:21.687    8 Sep 2021 15:24:23.220           421.534
                      15    8 Sep 2021 16:09:53.272    8 Sep 2021 16:16:54.809           421.537
                      16    8 Sep 2021 17:02:24.863    8 Sep 2021 17:09:26.397           421.534
                      17    8 Sep 2021 17:54:56.449    8 Sep 2021 18:01:57.985           421.536
                      18    8 Sep 2021 18:47:28.041    8 Sep 2021 18:54:29.574           421.532
                      19    8 Sep 2021 19:39:59.626    8 Sep 2021 19:47:01.163           421.537
                      20    8 Sep 2021 20:32:31.217    8 Sep 2021 20:39:32.750           421.533
                      21    8 Sep 2021 21:25:02.802    8 Sep 2021 21:32:04.339           421.537
                      22    8 Sep 2021 22:17:34.393    8 Sep 2021 22:24:35.927           421.534
                      23    8 Sep 2021 23:10:05.979    8 Sep 2021 23:17:07.516           421.537
                      24    9 Sep 2021 00:02:37.569    9 Sep 2021 00:09:39.104           421.535
                      25    9 Sep 2021 00:55:09.157    9 Sep 2021 01:02:10.693           421.536
                      26    9 Sep 2021 01:47:40.745    9 Sep 2021 01:54:42.281           421.536
                      27    9 Sep 2021 02:40:12.336    9 Sep 2021 02:47:13.870           421.534
                      28    9 Sep 2021 03:32:43.921    9 Sep 2021 03:39:45.458           421.537

Min Duration           1    8 Sep 2021 04:00:00.000    8 Sep 2021 04:01:32.571            92.571
Max Duration           4    8 Sep 2021 06:32:05.800    8 Sep 2021 06:39:07.337           421.537
Mean Duration                                                                            409.787
Total Duration                                                                         11474.025


Satellite403-To-Satellite105
----------------------------
                  Access       Start Time (UTCG)           Stop Time (UTCG)       Duration (sec)
                  ------    -----------------------    -----------------------    --------------
                       1    8 Sep 2021 04:00:00.000    8 Sep 2021 04:02:28.656           148.656
                       2    8 Sep 2021 04:35:36.221    8 Sep 2021 04:55:00.246          1164.025
                       3    8 Sep 2021 05:28:07.809    8 Sep 2021 05:47:31.837          1164.028
                       4    8 Sep 2021 06:20:39.396    8 Sep 2021 06:40:03.423          1164.027
                       5    8 Sep 2021 07:13:10.986    8 Sep 2021 07:32:35.011          1164.024
                       6    8 Sep 2021 08:05:42.572    8 Sep 2021 08:25:06.598          1164.027
                       7    8 Sep 2021 08:58:14.162    8 Sep 2021 09:17:38.186          1164.025
                       8    8 Sep 2021 09:50:45.750    8 Sep 2021 10:10:09.777          1164.027
                       9    8 Sep 2021 10:43:17.340    8 Sep 2021 11:02:41.364          1164.024
                      10    8 Sep 2021 11:35:48.926    8 Sep 2021 11:55:12.952          1164.026
                      11    8 Sep 2021 12:28:20.515    8 Sep 2021 12:47:44.540          1164.025
                      12    8 Sep 2021 13:20:52.104    8 Sep 2021 13:40:16.129          1164.026
                      13    8 Sep 2021 14:13:23.694    8 Sep 2021 14:32:47.716          1164.023
                      14    8 Sep 2021 15:05:55.281    8 Sep 2021 15:25:19.309          1164.029
                      15    8 Sep 2021 15:58:26.869    8 Sep 2021 16:17:50.895          1164.026
                      16    8 Sep 2021 16:50:58.459    8 Sep 2021 17:10:22.483          1164.024
                      17    8 Sep 2021 17:43:30.044    8 Sep 2021 18:02:54.071          1164.026
                      18    8 Sep 2021 18:36:01.634    8 Sep 2021 18:55:25.659          1164.025
                      19    8 Sep 2021 19:28:33.222    8 Sep 2021 19:47:57.249          1164.027
                      20    8 Sep 2021 20:21:04.812    8 Sep 2021 20:40:28.836          1164.024
                      21    8 Sep 2021 21:13:36.399    8 Sep 2021 21:33:00.425          1164.026
                      22    8 Sep 2021 22:06:07.988    8 Sep 2021 22:25:32.013          1164.025
                      23    8 Sep 2021 22:58:39.575    8 Sep 2021 23:18:03.602          1164.026
                      24    8 Sep 2021 23:51:11.166    9 Sep 2021 00:10:35.188          1164.023
                      25    9 Sep 2021 00:43:42.753    9 Sep 2021 01:03:06.777          1164.024
                      26    9 Sep 2021 01:36:14.342    9 Sep 2021 01:55:38.367          1164.026
                      27    9 Sep 2021 02:28:45.931    9 Sep 2021 02:48:09.955          1164.024
                      28    9 Sep 2021 03:21:17.517    9 Sep 2021 03:40:41.543          1164.026

Min Duration           1    8 Sep 2021 04:00:00.000    8 Sep 2021 04:02:28.656           148.656
Max Duration          14    8 Sep 2021 15:05:55.281    8 Sep 2021 15:25:19.309          1164.029
Mean Duration                                                                           1127.762
Total Duration                                                                         31577.343


Satellite403-To-Satellite106
----------------------------
                  Access       Start Time (UTCG)           Stop Time (UTCG)       Duration (sec)
                  ------    -----------------------    -----------------------    --------------
                       1    8 Sep 2021 04:27:37.462    8 Sep 2021 04:52:28.683          1491.221
                       2    8 Sep 2021 05:20:09.054    8 Sep 2021 05:45:00.270          1491.216
                       3    8 Sep 2021 06:12:40.641    8 Sep 2021 06:37:31.863          1491.222
                       4    8 Sep 2021 07:05:12.226    8 Sep 2021 07:30:03.447          1491.221
                       5    8 Sep 2021 07:57:43.819    8 Sep 2021 08:22:35.040          1491.221
                       6    8 Sep 2021 08:50:15.403    8 Sep 2021 09:15:06.624          1491.221
                       7    8 Sep 2021 09:42:46.996    8 Sep 2021 10:07:38.217          1491.221
                       8    8 Sep 2021 10:35:18.580    8 Sep 2021 11:00:09.801          1491.221
                       9    8 Sep 2021 11:27:50.172    8 Sep 2021 11:52:41.393          1491.221
                      10    8 Sep 2021 12:20:21.757    8 Sep 2021 12:45:12.978          1491.221
                      11    8 Sep 2021 13:12:53.349    8 Sep 2021 13:37:44.570          1491.221
                      12    8 Sep 2021 14:05:24.934    8 Sep 2021 14:30:16.155          1491.221
                      13    8 Sep 2021 14:57:56.526    8 Sep 2021 15:22:47.747          1491.221
                      14    8 Sep 2021 15:50:28.111    8 Sep 2021 16:15:19.331          1491.221
                      15    8 Sep 2021 16:42:59.703    8 Sep 2021 17:07:50.924          1491.221
                      16    8 Sep 2021 17:35:31.287    8 Sep 2021 18:00:22.508          1491.221
                      17    8 Sep 2021 18:28:02.880    8 Sep 2021 18:52:54.100          1491.221
                      18    8 Sep 2021 19:20:34.464    8 Sep 2021 19:45:25.685          1491.221
                      19    8 Sep 2021 20:13:06.056    8 Sep 2021 20:37:57.277          1491.221
                      20    8 Sep 2021 21:05:37.641    8 Sep 2021 21:30:28.862          1491.221
                      21    8 Sep 2021 21:58:09.233    8 Sep 2021 22:23:00.454          1491.221
                      22    8 Sep 2021 22:50:40.818    8 Sep 2021 23:15:32.039          1491.221
                      23    8 Sep 2021 23:43:12.410    9 Sep 2021 00:08:03.631          1491.221
                      24    9 Sep 2021 00:35:43.994    9 Sep 2021 01:00:35.215          1491.221
                      25    9 Sep 2021 01:28:15.587    9 Sep 2021 01:53:06.808          1491.221
                      26    9 Sep 2021 02:20:47.171    9 Sep 2021 02:45:38.392          1491.221
                      27    9 Sep 2021 03:13:18.763    9 Sep 2021 03:38:09.984          1491.221

Min Duration           2    8 Sep 2021 05:20:09.054    8 Sep 2021 05:45:00.270          1491.216
Max Duration           3    8 Sep 2021 06:12:40.641    8 Sep 2021 06:37:31.863          1491.222
Mean Duration                                                                           1491.221
Total Duration                                                                         40262.960


Satellite403-To-Satellite107
----------------------------
                  Access       Start Time (UTCG)           Stop Time (UTCG)       Duration (sec)
                  ------    -----------------------    -----------------------    --------------
                       1    8 Sep 2021 04:22:25.276    8 Sep 2021 04:47:10.550          1485.274
                       2    8 Sep 2021 05:14:56.868    8 Sep 2021 05:39:42.142          1485.273
                       3    8 Sep 2021 06:07:28.455    8 Sep 2021 06:32:13.726          1485.271
                       4    8 Sep 2021 07:00:00.044    8 Sep 2021 07:24:45.318          1485.274
                       5    8 Sep 2021 07:52:31.633    8 Sep 2021 08:17:16.903          1485.270
                       6    8 Sep 2021 08:45:03.221    8 Sep 2021 09:09:48.495          1485.274
                       7    8 Sep 2021 09:37:34.811    8 Sep 2021 10:02:20.080          1485.269
                       8    8 Sep 2021 10:30:06.398    8 Sep 2021 10:54:51.672          1485.274
                       9    8 Sep 2021 11:22:37.988    8 Sep 2021 11:47:23.256          1485.268
                      10    8 Sep 2021 12:15:09.574    8 Sep 2021 12:39:54.848          1485.274
                      11    8 Sep 2021 13:07:41.165    8 Sep 2021 13:32:26.433          1485.268
                      12    8 Sep 2021 14:00:12.751    8 Sep 2021 14:24:58.025          1485.274
                      13    8 Sep 2021 14:52:44.342    8 Sep 2021 15:17:29.610          1485.268
                      14    8 Sep 2021 15:45:15.928    8 Sep 2021 16:10:01.202          1485.274
                      15    8 Sep 2021 16:37:47.518    8 Sep 2021 17:02:32.787          1485.268
                      16    8 Sep 2021 17:30:19.105    8 Sep 2021 17:55:04.379          1485.274
                      17    8 Sep 2021 18:22:50.695    8 Sep 2021 18:47:35.964          1485.268
                      18    8 Sep 2021 19:15:22.282    8 Sep 2021 19:40:07.556          1485.274
                      19    8 Sep 2021 20:07:53.872    8 Sep 2021 20:32:39.140          1485.268
                      20    8 Sep 2021 21:00:25.458    8 Sep 2021 21:25:10.732          1485.274
                      21    8 Sep 2021 21:52:57.049    8 Sep 2021 22:17:42.317          1485.268
                      22    8 Sep 2021 22:45:28.635    8 Sep 2021 23:10:13.909          1485.274
                      23    8 Sep 2021 23:38:00.226    9 Sep 2021 00:02:45.494          1485.268
                      24    9 Sep 2021 00:30:31.812    9 Sep 2021 00:55:17.086          1485.274
                      25    9 Sep 2021 01:23:03.402    9 Sep 2021 01:47:48.671          1485.268
                      26    9 Sep 2021 02:15:34.989    9 Sep 2021 02:40:20.263          1485.274
                      27    9 Sep 2021 03:08:06.579    9 Sep 2021 03:32:51.847          1485.268

Min Duration          17    8 Sep 2021 18:22:50.695    8 Sep 2021 18:47:35.964          1485.268
Max Duration          26    9 Sep 2021 02:15:34.989    9 Sep 2021 02:40:20.263          1485.274
Mean Duration                                                                           1485.271
Total Duration                                                                         40102.327


Satellite403-To-Satellite108
----------------------------
                  Access       Start Time (UTCG)           Stop Time (UTCG)       Duration (sec)
                  ------    -----------------------    -----------------------    --------------
                       1    8 Sep 2021 04:20:00.274    8 Sep 2021 04:39:05.243          1144.969
                       2    8 Sep 2021 05:12:31.862    8 Sep 2021 05:31:36.828          1144.965
                       3    8 Sep 2021 06:05:03.451    8 Sep 2021 06:24:08.415          1144.964
                       4    8 Sep 2021 06:57:35.039    8 Sep 2021 07:16:40.005          1144.966
                       5    8 Sep 2021 07:50:06.623    8 Sep 2021 08:09:11.594          1144.971
                       6    8 Sep 2021 08:42:38.212    8 Sep 2021 09:01:43.182          1144.970
                       7    8 Sep 2021 09:35:09.801    8 Sep 2021 09:54:14.770          1144.969
                       8    8 Sep 2021 10:27:41.390    8 Sep 2021 10:46:46.359          1144.969
                       9    8 Sep 2021 11:20:12.978    8 Sep 2021 11:39:17.947          1144.969
                      10    8 Sep 2021 12:12:44.567    8 Sep 2021 12:31:49.536          1144.969
                      11    8 Sep 2021 13:05:16.155    8 Sep 2021 13:24:21.124          1144.968
                      12    8 Sep 2021 13:57:47.744    8 Sep 2021 14:16:52.712          1144.968
                      13    8 Sep 2021 14:50:19.332    8 Sep 2021 15:09:24.301          1144.968
                      14    8 Sep 2021 15:42:50.921    8 Sep 2021 16:01:55.889          1144.968
                      15    8 Sep 2021 16:35:22.509    8 Sep 2021 16:54:27.477          1144.968
                      16    8 Sep 2021 17:27:54.098    8 Sep 2021 17:46:59.066          1144.968
                      17    8 Sep 2021 18:20:25.686    8 Sep 2021 18:39:30.654          1144.968
                      18    8 Sep 2021 19:12:57.274    8 Sep 2021 19:32:02.243          1144.968
                      19    8 Sep 2021 20:05:28.863    8 Sep 2021 20:24:33.831          1144.968
                      20    8 Sep 2021 20:58:00.451    8 Sep 2021 21:17:05.419          1144.968
                      21    8 Sep 2021 21:50:32.040    8 Sep 2021 22:09:37.008          1144.968
                      22    8 Sep 2021 22:43:03.628    8 Sep 2021 23:02:08.596          1144.968
                      23    8 Sep 2021 23:35:35.216    8 Sep 2021 23:54:40.185          1144.968
                      24    9 Sep 2021 00:28:06.805    9 Sep 2021 00:47:11.773          1144.968
                      25    9 Sep 2021 01:20:38.393    9 Sep 2021 01:39:43.361          1144.968
                      26    9 Sep 2021 02:13:09.982    9 Sep 2021 02:32:14.950          1144.968
                      27    9 Sep 2021 03:05:41.570    9 Sep 2021 03:24:46.538          1144.968
                      28    9 Sep 2021 03:58:13.161    9 Sep 2021 04:00:00.000           106.839

Min Duration          28    9 Sep 2021 03:58:13.161    9 Sep 2021 04:00:00.000           106.839
Max Duration           5    8 Sep 2021 07:50:06.623    8 Sep 2021 08:09:11.594          1144.971
Mean Duration                                                                           1107.892
Total Duration                                                                         31020.980


Satellite403-To-Satellite109
----------------------------
                  Access       Start Time (UTCG)           Stop Time (UTCG)       Duration (sec)
                  ------    -----------------------    -----------------------    --------------
                       1    8 Sep 2021 04:21:20.340    8 Sep 2021 04:27:14.851           354.511
                       2    8 Sep 2021 05:13:51.932    8 Sep 2021 05:19:46.443           354.511
                       3    8 Sep 2021 06:06:23.517    8 Sep 2021 06:12:18.031           354.515
                       4    8 Sep 2021 06:58:55.105    8 Sep 2021 07:04:49.615           354.510
                       5    8 Sep 2021 07:51:26.696    8 Sep 2021 07:57:21.207           354.511
                       6    8 Sep 2021 08:43:58.286    8 Sep 2021 08:49:52.797           354.511
                       7    8 Sep 2021 09:36:29.873    8 Sep 2021 09:42:24.385           354.512
                       8    8 Sep 2021 10:29:01.459    8 Sep 2021 10:34:55.970           354.511
                       9    8 Sep 2021 11:21:33.050    8 Sep 2021 11:27:27.561           354.511
                      10    8 Sep 2021 12:14:04.635    8 Sep 2021 12:19:59.150           354.515
                      11    8 Sep 2021 13:06:36.224    8 Sep 2021 13:12:30.736           354.512
                      12    8 Sep 2021 13:59:07.815    8 Sep 2021 14:05:02.326           354.511
                      13    8 Sep 2021 14:51:39.405    8 Sep 2021 14:57:33.915           354.511
                      14    8 Sep 2021 15:44:10.991    8 Sep 2021 15:50:05.504           354.513
                      15    8 Sep 2021 16:36:42.578    8 Sep 2021 16:42:37.089           354.511
                      16    8 Sep 2021 17:29:14.169    8 Sep 2021 17:35:08.680           354.511
                      17    8 Sep 2021 18:21:45.754    8 Sep 2021 18:27:40.269           354.515
                      18    8 Sep 2021 19:14:17.343    8 Sep 2021 19:20:11.855           354.512
                      19    8 Sep 2021 20:06:48.934    8 Sep 2021 20:12:43.444           354.511
                      20    8 Sep 2021 20:59:20.523    8 Sep 2021 21:05:15.034           354.511
                      21    8 Sep 2021 21:51:52.111    8 Sep 2021 21:57:46.622           354.511
                      22    8 Sep 2021 22:44:23.697    8 Sep 2021 22:50:18.208           354.511
                      23    8 Sep 2021 23:36:55.288    8 Sep 2021 23:42:49.799           354.511
                      24    9 Sep 2021 00:29:26.873    9 Sep 2021 00:35:21.388           354.515
                      25    9 Sep 2021 01:21:58.461    9 Sep 2021 01:27:52.974           354.512
                      26    9 Sep 2021 02:14:30.052    9 Sep 2021 02:20:24.563           354.511
                      27    9 Sep 2021 03:07:01.642    9 Sep 2021 03:12:56.153           354.511
                      28    9 Sep 2021 03:59:33.228    9 Sep 2021 04:00:00.000            26.772

Min Duration          28    9 Sep 2021 03:59:33.228    9 Sep 2021 04:00:00.000            26.772
Max Duration           3    8 Sep 2021 06:06:23.517    8 Sep 2021 06:12:18.031           354.515
Mean Duration                                                                            342.807
Total Duration                                                                          9598.587


Satellite403-To-Satellite203
----------------------------
                  Access       Start Time (UTCG)           Stop Time (UTCG)       Duration (sec)
                  ------    -----------------------    -----------------------    --------------
                       1    8 Sep 2021 04:00:00.000    8 Sep 2021 04:06:34.772           394.772
                       2    8 Sep 2021 04:51:11.952    8 Sep 2021 04:59:06.360           474.408
                       3    8 Sep 2021 05:43:43.542    8 Sep 2021 05:51:37.949           474.407
                       4    8 Sep 2021 06:36:15.127    8 Sep 2021 06:44:09.538           474.410
                       5    8 Sep 2021 07:28:46.715    8 Sep 2021 07:36:41.126           474.411
                       6    8 Sep 2021 08:21:18.304    8 Sep 2021 08:29:12.710           474.407
                       7    8 Sep 2021 09:13:49.892    8 Sep 2021 09:21:44.303           474.411
                       8    8 Sep 2021 10:06:21.480    8 Sep 2021 10:14:15.891           474.411
                       9    8 Sep 2021 10:58:53.069    8 Sep 2021 11:06:47.478           474.409
                      10    8 Sep 2021 11:51:24.660    8 Sep 2021 11:59:19.067           474.407
                      11    8 Sep 2021 12:43:56.249    8 Sep 2021 12:51:50.656           474.407
                      12    8 Sep 2021 13:36:27.834    8 Sep 2021 13:44:22.245           474.411
                      13    8 Sep 2021 14:28:59.423    8 Sep 2021 14:36:53.833           474.410
                      14    8 Sep 2021 15:21:31.011    8 Sep 2021 15:29:25.419           474.408
                      15    8 Sep 2021 16:14:02.599    8 Sep 2021 16:21:57.010           474.411
                      16    8 Sep 2021 17:06:34.187    8 Sep 2021 17:14:28.598           474.411
                      17    8 Sep 2021 17:59:05.777    8 Sep 2021 18:07:00.185           474.408
                      18    8 Sep 2021 18:51:37.368    8 Sep 2021 18:59:31.775           474.406
                      19    8 Sep 2021 19:44:08.957    8 Sep 2021 19:52:03.364           474.406
                      20    8 Sep 2021 20:36:40.541    8 Sep 2021 20:44:34.948           474.407
                      21    8 Sep 2021 21:29:12.133    8 Sep 2021 21:37:06.537           474.404
                      22    8 Sep 2021 22:21:43.718    8 Sep 2021 22:29:38.128           474.410
                      23    8 Sep 2021 23:14:15.306    8 Sep 2021 23:22:09.717           474.411
                      24    9 Sep 2021 00:06:46.895    9 Sep 2021 00:14:41.305           474.411
                      25    9 Sep 2021 00:59:18.484    9 Sep 2021 01:07:12.893           474.408
                      26    9 Sep 2021 01:51:50.074    9 Sep 2021 01:59:44.482           474.408
                      27    9 Sep 2021 02:44:21.661    9 Sep 2021 02:52:16.071           474.410
                      28    9 Sep 2021 03:36:53.248    9 Sep 2021 03:44:47.658           474.410

Min Duration           1    8 Sep 2021 04:00:00.000    8 Sep 2021 04:06:34.772           394.772
Max Duration           7    8 Sep 2021 09:13:49.892    8 Sep 2021 09:21:44.303           474.411
Mean Duration                                                                            471.565
Total Duration                                                                         13203.811


Satellite403-To-Satellite204
----------------------------
                  Access       Start Time (UTCG)           Stop Time (UTCG)       Duration (sec)
                  ------    -----------------------    -----------------------    --------------
                       1    8 Sep 2021 04:00:00.000    8 Sep 2021 04:12:15.549           735.549
                       2    8 Sep 2021 04:35:00.856    8 Sep 2021 05:04:47.137          1786.281
                       3    8 Sep 2021 05:27:32.448    8 Sep 2021 05:57:18.726          1786.278
                       4    8 Sep 2021 06:20:04.033    8 Sep 2021 06:49:50.314          1786.281
                       5    8 Sep 2021 07:12:35.624    8 Sep 2021 07:42:21.903          1786.278
                       6    8 Sep 2021 08:05:07.209    8 Sep 2021 08:34:53.490          1786.281
                       7    8 Sep 2021 08:57:38.801    8 Sep 2021 09:27:25.079          1786.278
                       8    8 Sep 2021 09:50:10.386    8 Sep 2021 10:19:56.667          1786.281
                       9    8 Sep 2021 10:42:41.978    8 Sep 2021 11:12:28.256          1786.278
                      10    8 Sep 2021 11:35:13.563    8 Sep 2021 12:04:59.844          1786.281
                      11    8 Sep 2021 12:27:45.155    8 Sep 2021 12:57:31.433          1786.278
                      12    8 Sep 2021 13:20:16.740    8 Sep 2021 13:50:03.021          1786.281
                      13    8 Sep 2021 14:12:48.331    8 Sep 2021 14:42:34.610          1786.278
                      14    8 Sep 2021 15:05:19.917    8 Sep 2021 15:35:06.198          1786.281
                      15    8 Sep 2021 15:57:51.508    8 Sep 2021 16:27:37.787          1786.278
                      16    8 Sep 2021 16:50:23.093    8 Sep 2021 17:20:09.374          1786.281
                      17    8 Sep 2021 17:42:54.685    8 Sep 2021 18:12:40.963          1786.278
                      18    8 Sep 2021 18:35:26.270    8 Sep 2021 19:05:12.551          1786.281
                      19    8 Sep 2021 19:27:57.862    8 Sep 2021 19:57:44.140          1786.278
                      20    8 Sep 2021 20:20:29.447    8 Sep 2021 20:50:15.728          1786.281
                      21    8 Sep 2021 21:13:01.038    8 Sep 2021 21:42:47.317          1786.278
                      22    8 Sep 2021 22:05:32.624    8 Sep 2021 22:35:18.905          1786.281
                      23    8 Sep 2021 22:58:04.215    8 Sep 2021 23:27:50.494          1786.278
                      24    8 Sep 2021 23:50:35.801    9 Sep 2021 00:20:22.081          1786.281
                      25    9 Sep 2021 00:43:07.392    9 Sep 2021 01:12:53.671          1786.278
                      26    9 Sep 2021 01:35:38.977    9 Sep 2021 02:05:25.258          1786.281
                      27    9 Sep 2021 02:28:10.569    9 Sep 2021 02:57:56.847          1786.278
                      28    9 Sep 2021 03:20:42.154    9 Sep 2021 03:50:28.435          1786.281

Min Duration           1    8 Sep 2021 04:00:00.000    8 Sep 2021 04:12:15.549           735.549
Max Duration           2    8 Sep 2021 04:35:00.856    8 Sep 2021 05:04:47.137          1786.281
Mean Duration                                                                           1748.754
Total Duration                                                                         48965.102


Satellite403-To-Satellite205
----------------------------
                  Access       Start Time (UTCG)           Stop Time (UTCG)       Duration (sec)
                  ------    -----------------------    -----------------------    --------------
                       1    8 Sep 2021 04:00:00.000    8 Sep 2021 04:10:57.899           657.899
                       2    8 Sep 2021 04:25:48.188    8 Sep 2021 05:03:29.489          2261.301
                       3    8 Sep 2021 05:18:19.776    8 Sep 2021 05:56:01.077          2261.301
                       4    8 Sep 2021 06:10:51.365    8 Sep 2021 06:48:32.666          2261.301
                       5    8 Sep 2021 07:03:22.953    8 Sep 2021 07:41:04.254          2261.301
                       6    8 Sep 2021 07:55:54.541    8 Sep 2021 08:33:35.843          2261.301
                       7    8 Sep 2021 08:48:26.130    8 Sep 2021 09:26:07.431          2261.301
                       8    8 Sep 2021 09:40:57.718    8 Sep 2021 10:18:39.019          2261.301
                       9    8 Sep 2021 10:33:29.307    8 Sep 2021 11:11:10.608          2261.301
                      10    8 Sep 2021 11:26:00.895    8 Sep 2021 12:03:42.196          2261.301
                      11    8 Sep 2021 12:18:32.483    8 Sep 2021 12:56:13.785          2261.301
                      12    8 Sep 2021 13:11:04.072    8 Sep 2021 13:48:45.373          2261.301
                      13    8 Sep 2021 14:03:35.660    8 Sep 2021 14:41:16.961          2261.301
                      14    8 Sep 2021 14:56:07.248    8 Sep 2021 15:33:48.550          2261.301
                      15    8 Sep 2021 15:48:38.837    8 Sep 2021 16:26:20.138          2261.301
                      16    8 Sep 2021 16:41:10.425    8 Sep 2021 17:18:51.727          2261.301
                      17    8 Sep 2021 17:33:42.014    8 Sep 2021 18:11:23.315          2261.301
                      18    8 Sep 2021 18:26:13.602    8 Sep 2021 19:03:54.903          2261.301
                      19    8 Sep 2021 19:18:45.190    8 Sep 2021 19:56:26.492          2261.301
                      20    8 Sep 2021 20:11:16.779    8 Sep 2021 20:48:58.080          2261.301
                      21    8 Sep 2021 21:03:48.367    8 Sep 2021 21:41:29.669          2261.301
                      22    8 Sep 2021 21:56:19.956    8 Sep 2021 22:34:01.257          2261.301
                      23    8 Sep 2021 22:48:51.544    8 Sep 2021 23:26:32.845          2261.301
                      24    8 Sep 2021 23:41:23.132    9 Sep 2021 00:19:04.434          2261.301
                      25    9 Sep 2021 00:33:54.721    9 Sep 2021 01:11:36.022          2261.301
                      26    9 Sep 2021 01:26:26.309    9 Sep 2021 02:04:07.610          2261.301
                      27    9 Sep 2021 02:18:57.898    9 Sep 2021 02:56:39.199          2261.301
                      28    9 Sep 2021 03:11:29.486    9 Sep 2021 03:49:10.787          2261.301

Min Duration           1    8 Sep 2021 04:00:00.000    8 Sep 2021 04:10:57.899           657.899
Max Duration           2    8 Sep 2021 04:25:48.188    8 Sep 2021 05:03:29.489          2261.301
Mean Duration                                                                           2204.037
Total Duration                                                                         61713.033


Satellite403-To-Satellite206
----------------------------
                  Access       Start Time (UTCG)           Stop Time (UTCG)       Duration (sec)
                  ------    -----------------------    -----------------------    --------------
                       1    8 Sep 2021 04:00:00.000    8 Sep 2021 04:01:47.935           107.935
                       2    8 Sep 2021 04:24:27.838    8 Sep 2021 04:54:19.524          1791.686
                       3    8 Sep 2021 05:16:59.422    8 Sep 2021 05:46:51.109          1791.687
                       4    8 Sep 2021 06:09:31.013    8 Sep 2021 06:39:22.700          1791.687
                       5    8 Sep 2021 07:02:02.602    8 Sep 2021 07:31:54.289          1791.687
                       6    8 Sep 2021 07:54:34.190    8 Sep 2021 08:24:25.877          1791.687
                       7    8 Sep 2021 08:47:05.778    8 Sep 2021 09:16:57.465          1791.687
                       8    8 Sep 2021 09:39:37.366    8 Sep 2021 10:09:29.053          1791.687
                       9    8 Sep 2021 10:32:08.954    8 Sep 2021 11:02:00.641          1791.687
                      10    8 Sep 2021 11:24:40.542    8 Sep 2021 11:54:32.229          1791.687
                      11    8 Sep 2021 12:17:12.130    8 Sep 2021 12:47:03.817          1791.687
                      12    8 Sep 2021 13:09:43.718    8 Sep 2021 13:39:35.406          1791.687
                      13    8 Sep 2021 14:02:15.307    8 Sep 2021 14:32:06.994          1791.687
                      14    8 Sep 2021 14:54:46.895    8 Sep 2021 15:24:38.582          1791.687
                      15    8 Sep 2021 15:47:18.483    8 Sep 2021 16:17:10.170          1791.687
                      16    8 Sep 2021 16:39:50.071    8 Sep 2021 17:09:41.757          1791.686
                      17    8 Sep 2021 17:32:21.663    8 Sep 2021 18:02:13.346          1791.682
                      18    8 Sep 2021 18:24:53.252    8 Sep 2021 18:54:44.939          1791.687
                      19    8 Sep 2021 19:17:24.840    8 Sep 2021 19:47:16.527          1791.687
                      20    8 Sep 2021 20:09:56.428    8 Sep 2021 20:39:48.115          1791.687
                      21    8 Sep 2021 21:02:28.016    8 Sep 2021 21:32:19.703          1791.687
                      22    8 Sep 2021 21:54:59.604    8 Sep 2021 22:24:51.291          1791.687
                      23    8 Sep 2021 22:47:31.193    8 Sep 2021 23:17:22.880          1791.687
                      24    8 Sep 2021 23:40:02.781    9 Sep 2021 00:09:54.468          1791.687
                      25    9 Sep 2021 00:32:34.369    9 Sep 2021 01:02:26.056          1791.687
                      26    9 Sep 2021 01:25:05.957    9 Sep 2021 01:54:57.644          1791.687
                      27    9 Sep 2021 02:17:37.545    9 Sep 2021 02:47:29.232          1791.687
                      28    9 Sep 2021 03:10:09.133    9 Sep 2021 03:40:00.820          1791.687

Min Duration           1    8 Sep 2021 04:00:00.000    8 Sep 2021 04:01:47.935           107.935
Max Duration           4    8 Sep 2021 06:09:31.013    8 Sep 2021 06:39:22.700          1791.687
Mean Duration                                                                           1731.553
Total Duration                                                                         48483.478


Satellite403-To-Satellite207
----------------------------
                  Access       Start Time (UTCG)           Stop Time (UTCG)       Duration (sec)
                  ------    -----------------------    -----------------------    --------------
                       1    8 Sep 2021 04:30:15.683    8 Sep 2021 04:38:01.358           465.675
                       2    8 Sep 2021 05:22:47.272    8 Sep 2021 05:30:32.946           465.674
                       3    8 Sep 2021 06:15:18.862    8 Sep 2021 06:23:04.534           465.672
                       4    8 Sep 2021 07:07:50.451    8 Sep 2021 07:15:36.122           465.671
                       5    8 Sep 2021 08:00:22.037    8 Sep 2021 08:08:07.711           465.674
                       6    8 Sep 2021 08:52:53.625    8 Sep 2021 09:00:39.300           465.675
                       7    8 Sep 2021 09:45:25.214    8 Sep 2021 09:53:10.884           465.670
                       8    8 Sep 2021 10:37:56.804    8 Sep 2021 10:45:42.476           465.672
                       9    8 Sep 2021 11:30:28.390    8 Sep 2021 11:38:14.065           465.675
                      10    8 Sep 2021 12:22:59.979    8 Sep 2021 12:30:45.653           465.674
                      11    8 Sep 2021 13:15:31.569    8 Sep 2021 13:23:17.241           465.672
                      12    8 Sep 2021 14:08:03.158    8 Sep 2021 14:15:48.829           465.671
                      13    8 Sep 2021 15:00:34.744    8 Sep 2021 15:08:20.418           465.674
                      14    8 Sep 2021 15:53:06.332    8 Sep 2021 16:00:52.007           465.675
                      15    8 Sep 2021 16:45:37.920    8 Sep 2021 16:53:23.591           465.670
                      16    8 Sep 2021 17:38:09.511    8 Sep 2021 17:45:55.183           465.672
                      17    8 Sep 2021 18:30:41.097    8 Sep 2021 18:38:26.772           465.675
                      18    8 Sep 2021 19:23:12.686    8 Sep 2021 19:30:58.360           465.674
                      19    8 Sep 2021 20:15:44.279    8 Sep 2021 20:23:29.948           465.670
                      20    8 Sep 2021 21:08:15.865    8 Sep 2021 21:16:01.536           465.672
                      21    8 Sep 2021 22:00:47.451    8 Sep 2021 22:08:33.125           465.674
                      22    8 Sep 2021 22:53:19.039    8 Sep 2021 23:01:04.714           465.675
                      23    8 Sep 2021 23:45:50.627    8 Sep 2021 23:53:36.298           465.670
                      24    9 Sep 2021 00:38:22.217    9 Sep 2021 00:46:07.890           465.673
                      25    9 Sep 2021 01:30:53.804    9 Sep 2021 01:38:39.479           465.675
                      26    9 Sep 2021 02:23:25.393    9 Sep 2021 02:31:11.067           465.674
                      27    9 Sep 2021 03:15:56.986    9 Sep 2021 03:23:42.655           465.670

Min Duration          19    8 Sep 2021 20:15:44.279    8 Sep 2021 20:23:29.948           465.670
Max Duration          22    8 Sep 2021 22:53:19.039    8 Sep 2021 23:01:04.714           465.675
Mean Duration                                                                            465.673
Total Duration                                                                         12573.168


Satellite403-To-Satellite303
----------------------------
                  Access       Start Time (UTCG)           Stop Time (UTCG)       Duration (sec)
                  ------    -----------------------    -----------------------    --------------
                       1    8 Sep 2021 04:00:00.000    9 Sep 2021 04:00:00.000         86400.000

Min Duration           1    8 Sep 2021 04:00:00.000    9 Sep 2021 04:00:00.000         86400.000
Max Duration           1    8 Sep 2021 04:00:00.000    9 Sep 2021 04:00:00.000         86400.000
Mean Duration                                                                          86400.000
Total Duration                                                                         86400.000


Satellite403-To-Satellite304
----------------------------
                  Access       Start Time (UTCG)           Stop Time (UTCG)       Duration (sec)
                  ------    -----------------------    -----------------------    --------------
                       1    8 Sep 2021 04:00:00.000    9 Sep 2021 04:00:00.000         86400.000

Min Duration           1    8 Sep 2021 04:00:00.000    9 Sep 2021 04:00:00.000         86400.000
Max Duration           1    8 Sep 2021 04:00:00.000    9 Sep 2021 04:00:00.000         86400.000
Mean Duration                                                                          86400.000
Total Duration                                                                         86400.000


Satellite403-To-Satellite305
----------------------------
                  Access       Start Time (UTCG)           Stop Time (UTCG)       Duration (sec)
                  ------    -----------------------    -----------------------    --------------
                       1    8 Sep 2021 04:00:00.000    9 Sep 2021 04:00:00.000         86400.000

Min Duration           1    8 Sep 2021 04:00:00.000    9 Sep 2021 04:00:00.000         86400.000
Max Duration           1    8 Sep 2021 04:00:00.000    9 Sep 2021 04:00:00.000         86400.000
Mean Duration                                                                          86400.000
Total Duration                                                                         86400.000


Satellite403-To-Satellite402
----------------------------
                  Access       Start Time (UTCG)           Stop Time (UTCG)       Duration (sec)
                  ------    -----------------------    -----------------------    --------------
                       1    8 Sep 2021 04:00:00.000    9 Sep 2021 04:00:00.000         86400.000

Min Duration           1    8 Sep 2021 04:00:00.000    9 Sep 2021 04:00:00.000         86400.000
Max Duration           1    8 Sep 2021 04:00:00.000    9 Sep 2021 04:00:00.000         86400.000
Mean Duration                                                                          86400.000
Total Duration                                                                         86400.000


Satellite403-To-Satellite404
----------------------------
                  Access       Start Time (UTCG)           Stop Time (UTCG)       Duration (sec)
                  ------    -----------------------    -----------------------    --------------
                       1    8 Sep 2021 04:00:00.000    9 Sep 2021 04:00:00.000         86400.000

Min Duration           1    8 Sep 2021 04:00:00.000    9 Sep 2021 04:00:00.000         86400.000
Max Duration           1    8 Sep 2021 04:00:00.000    9 Sep 2021 04:00:00.000         86400.000
Mean Duration                                                                          86400.000
Total Duration                                                                         86400.000


Satellite403-To-Satellite501
----------------------------
                  Access       Start Time (UTCG)           Stop Time (UTCG)       Duration (sec)
                  ------    -----------------------    -----------------------    --------------
                       1    8 Sep 2021 04:00:00.000    9 Sep 2021 04:00:00.000         86400.000

Min Duration           1    8 Sep 2021 04:00:00.000    9 Sep 2021 04:00:00.000         86400.000
Max Duration           1    8 Sep 2021 04:00:00.000    9 Sep 2021 04:00:00.000         86400.000
Mean Duration                                                                          86400.000
Total Duration                                                                         86400.000


Satellite403-To-Satellite502
----------------------------
                  Access       Start Time (UTCG)           Stop Time (UTCG)       Duration (sec)
                  ------    -----------------------    -----------------------    --------------
                       1    8 Sep 2021 04:00:00.000    9 Sep 2021 04:00:00.000         86400.000

Min Duration           1    8 Sep 2021 04:00:00.000    9 Sep 2021 04:00:00.000         86400.000
Max Duration           1    8 Sep 2021 04:00:00.000    9 Sep 2021 04:00:00.000         86400.000
Mean Duration                                                                          86400.000
Total Duration                                                                         86400.000


Satellite403-To-Satellite503
----------------------------
                  Access       Start Time (UTCG)           Stop Time (UTCG)       Duration (sec)
                  ------    -----------------------    -----------------------    --------------
                       1    8 Sep 2021 04:00:00.000    9 Sep 2021 04:00:00.000         86400.000

Min Duration           1    8 Sep 2021 04:00:00.000    9 Sep 2021 04:00:00.000         86400.000
Max Duration           1    8 Sep 2021 04:00:00.000    9 Sep 2021 04:00:00.000         86400.000
Mean Duration                                                                          86400.000
Total Duration                                                                         86400.000


Satellite403-To-Satellite601
----------------------------
                  Access       Start Time (UTCG)           Stop Time (UTCG)       Duration (sec)
                  ------    -----------------------    -----------------------    --------------
                       1    8 Sep 2021 04:00:00.000    8 Sep 2021 04:29:20.956          1760.956
                       2    8 Sep 2021 04:44:11.244    8 Sep 2021 05:21:52.545          2261.301
                       3    8 Sep 2021 05:36:42.832    8 Sep 2021 06:14:24.133          2261.301
                       4    8 Sep 2021 06:29:14.420    8 Sep 2021 07:06:55.722          2261.301
                       5    8 Sep 2021 07:21:46.009    8 Sep 2021 07:59:27.310          2261.301
                       6    8 Sep 2021 08:14:17.597    8 Sep 2021 08:51:58.899          2261.301
                       7    8 Sep 2021 09:06:49.186    8 Sep 2021 09:44:30.487          2261.301
                       8    8 Sep 2021 09:59:20.774    8 Sep 2021 10:37:02.075          2261.301
                       9    8 Sep 2021 10:51:52.362    8 Sep 2021 11:29:33.664          2261.301
                      10    8 Sep 2021 11:44:23.951    8 Sep 2021 12:22:05.252          2261.301
                      11    8 Sep 2021 12:36:55.539    8 Sep 2021 13:14:36.841          2261.301
                      12    8 Sep 2021 13:29:27.128    8 Sep 2021 14:07:08.429          2261.301
                      13    8 Sep 2021 14:21:58.716    8 Sep 2021 14:59:40.017          2261.301
                      14    8 Sep 2021 15:14:30.304    8 Sep 2021 15:52:11.606          2261.301
                      15    8 Sep 2021 16:07:01.893    8 Sep 2021 16:44:43.194          2261.301
                      16    8 Sep 2021 16:59:33.481    8 Sep 2021 17:37:14.782          2261.301
                      17    8 Sep 2021 17:52:05.070    8 Sep 2021 18:29:46.371          2261.301
                      18    8 Sep 2021 18:44:36.658    8 Sep 2021 19:22:17.959          2261.301
                      19    8 Sep 2021 19:37:08.246    8 Sep 2021 20:14:49.548          2261.301
                      20    8 Sep 2021 20:29:39.835    8 Sep 2021 21:07:21.136          2261.301
                      21    8 Sep 2021 21:22:11.423    8 Sep 2021 21:59:52.724          2261.301
                      22    8 Sep 2021 22:14:43.012    8 Sep 2021 22:52:24.313          2261.301
                      23    8 Sep 2021 23:07:14.600    8 Sep 2021 23:44:55.901          2261.301
                      24    8 Sep 2021 23:59:46.188    9 Sep 2021 00:37:27.490          2261.301
                      25    9 Sep 2021 00:52:17.777    9 Sep 2021 01:29:59.078          2261.301
                      26    9 Sep 2021 01:44:49.365    9 Sep 2021 02:22:30.666          2261.301
                      27    9 Sep 2021 02:37:20.954    9 Sep 2021 03:15:02.255          2261.301
                      28    9 Sep 2021 03:29:52.542    9 Sep 2021 04:00:00.000          1807.458

Min Duration           1    8 Sep 2021 04:00:00.000    8 Sep 2021 04:29:20.956          1760.956
Max Duration           4    8 Sep 2021 06:29:14.420    8 Sep 2021 07:06:55.722          2261.301
Mean Duration                                                                           2227.223
Total Duration                                                                         62362.247


Satellite403-To-Satellite602
----------------------------
                  Access       Start Time (UTCG)           Stop Time (UTCG)       Duration (sec)
                  ------    -----------------------    -----------------------    --------------
                       1    8 Sep 2021 04:00:00.000    8 Sep 2021 04:20:08.283          1208.283
                       2    8 Sep 2021 04:42:53.594    8 Sep 2021 05:12:39.875          1786.281
                       3    8 Sep 2021 05:35:25.186    8 Sep 2021 06:05:11.464          1786.278
                       4    8 Sep 2021 06:27:56.771    8 Sep 2021 06:57:43.052          1786.281
                       5    8 Sep 2021 07:20:28.363    8 Sep 2021 07:50:14.641          1786.278
                       6    8 Sep 2021 08:12:59.948    8 Sep 2021 08:42:46.229          1786.281
                       7    8 Sep 2021 09:05:31.539    8 Sep 2021 09:35:17.818          1786.278
                       8    8 Sep 2021 09:58:03.125    8 Sep 2021 10:27:49.406          1786.281
                       9    8 Sep 2021 10:50:34.716    8 Sep 2021 11:20:20.994          1786.278
                      10    8 Sep 2021 11:43:06.301    8 Sep 2021 12:12:52.582          1786.281
                      11    8 Sep 2021 12:35:37.893    8 Sep 2021 13:05:24.171          1786.278
                      12    8 Sep 2021 13:28:09.478    8 Sep 2021 13:57:55.759          1786.281
                      13    8 Sep 2021 14:20:41.070    8 Sep 2021 14:50:27.348          1786.278
                      14    8 Sep 2021 15:13:12.655    8 Sep 2021 15:42:58.936          1786.281
                      15    8 Sep 2021 16:05:44.246    8 Sep 2021 16:35:30.525          1786.278
                      16    8 Sep 2021 16:58:15.832    8 Sep 2021 17:28:02.113          1786.281
                      17    8 Sep 2021 17:50:47.423    8 Sep 2021 18:20:33.702          1786.278
                      18    8 Sep 2021 18:43:19.008    8 Sep 2021 19:13:05.289          1786.281
                      19    8 Sep 2021 19:35:50.600    8 Sep 2021 20:05:36.878          1786.278
                      20    8 Sep 2021 20:28:22.185    8 Sep 2021 20:58:08.466          1786.281
                      21    8 Sep 2021 21:20:53.777    8 Sep 2021 21:50:40.055          1786.278
                      22    8 Sep 2021 22:13:25.362    8 Sep 2021 22:43:11.643          1786.281
                      23    8 Sep 2021 23:05:56.954    8 Sep 2021 23:35:43.232          1786.278
                      24    8 Sep 2021 23:58:28.539    9 Sep 2021 00:28:14.820          1786.281
                      25    9 Sep 2021 00:51:00.130    9 Sep 2021 01:20:46.409          1786.278
                      26    9 Sep 2021 01:43:31.716    9 Sep 2021 02:13:17.997          1786.281
                      27    9 Sep 2021 02:36:03.307    9 Sep 2021 03:05:49.586          1786.278
                      28    9 Sep 2021 03:28:34.892    9 Sep 2021 03:58:21.170          1786.277

Min Duration           1    8 Sep 2021 04:00:00.000    8 Sep 2021 04:20:08.283          1208.283
Max Duration           2    8 Sep 2021 04:42:53.594    8 Sep 2021 05:12:39.875          1786.281
Mean Duration                                                                           1765.637
Total Duration                                                                         49437.832


Satellite403-To-Satellite603
----------------------------
                  Access       Start Time (UTCG)           Stop Time (UTCG)       Duration (sec)
                  ------    -----------------------    -----------------------    --------------
                       1    8 Sep 2021 04:00:00.000    8 Sep 2021 04:03:57.188           237.188
                       2    8 Sep 2021 04:48:34.371    8 Sep 2021 04:56:28.780           474.409
                       3    8 Sep 2021 05:41:05.959    8 Sep 2021 05:49:00.370           474.411
                       4    8 Sep 2021 06:33:37.547    8 Sep 2021 06:41:31.958           474.411
                       5    8 Sep 2021 07:26:09.137    8 Sep 2021 07:34:03.545           474.408
                       6    8 Sep 2021 08:18:40.726    8 Sep 2021 08:26:35.135           474.408
                       7    8 Sep 2021 09:11:12.314    8 Sep 2021 09:19:06.723           474.410
                       8    8 Sep 2021 10:03:43.901    8 Sep 2021 10:11:38.310           474.409
                       9    8 Sep 2021 10:56:15.494    8 Sep 2021 11:04:09.896           474.402
                      10    8 Sep 2021 11:48:47.079    8 Sep 2021 11:56:41.489           474.410
                      11    8 Sep 2021 12:41:18.666    8 Sep 2021 12:49:13.077           474.411
                      12    8 Sep 2021 13:33:50.255    8 Sep 2021 13:41:44.665           474.410
                      13    8 Sep 2021 14:26:21.845    8 Sep 2021 14:34:16.253           474.408
                      14    8 Sep 2021 15:18:53.434    8 Sep 2021 15:26:47.842           474.408
                      15    8 Sep 2021 16:11:25.020    8 Sep 2021 16:19:19.431           474.410
                      16    8 Sep 2021 17:03:56.608    8 Sep 2021 17:11:51.018           474.410
                      17    8 Sep 2021 17:56:28.196    8 Sep 2021 18:04:22.603           474.407
                      18    8 Sep 2021 18:48:59.788    8 Sep 2021 18:56:54.196           474.408
                      19    8 Sep 2021 19:41:31.373    8 Sep 2021 19:49:25.784           474.411
                      20    8 Sep 2021 20:34:02.962    8 Sep 2021 20:41:57.371           474.409
                      21    8 Sep 2021 21:26:34.552    8 Sep 2021 21:34:28.960           474.407
                      22    8 Sep 2021 22:19:06.142    8 Sep 2021 22:27:00.549           474.407
                      23    8 Sep 2021 23:11:37.727    8 Sep 2021 23:19:32.138           474.411
                      24    9 Sep 2021 00:04:09.315    9 Sep 2021 00:12:03.726           474.411
                      25    9 Sep 2021 00:56:40.906    9 Sep 2021 01:04:35.311           474.404
                      26    9 Sep 2021 01:49:12.492    9 Sep 2021 01:57:06.903           474.411
                      27    9 Sep 2021 02:41:44.080    9 Sep 2021 02:49:38.491           474.411
                      28    9 Sep 2021 03:34:15.669    9 Sep 2021 03:42:10.078           474.409

Min Duration           1    8 Sep 2021 04:00:00.000    8 Sep 2021 04:03:57.188           237.188
Max Duration          26    9 Sep 2021 01:49:12.492    9 Sep 2021 01:57:06.903           474.411
Mean Duration                                                                            465.937
Total Duration                                                                         13046.229


Satellite403-To-Satellite609
----------------------------
                  Access       Start Time (UTCG)           Stop Time (UTCG)       Duration (sec)
                  ------    -----------------------    -----------------------    --------------
                       1    8 Sep 2021 04:17:07.788    8 Sep 2021 04:24:53.460           465.672
                       2    8 Sep 2021 05:09:39.374    8 Sep 2021 05:17:25.045           465.672
                       3    8 Sep 2021 06:02:10.963    8 Sep 2021 06:09:56.637           465.675
                       4    8 Sep 2021 06:54:42.554    8 Sep 2021 07:02:28.225           465.672
                       5    8 Sep 2021 07:47:14.143    8 Sep 2021 07:54:59.813           465.670
                       6    8 Sep 2021 08:39:45.729    8 Sep 2021 08:47:31.401           465.672
                       7    8 Sep 2021 09:32:17.316    8 Sep 2021 09:40:02.991           465.675
                       8    8 Sep 2021 10:24:48.904    8 Sep 2021 10:32:34.579           465.675
                       9    8 Sep 2021 11:17:20.497    8 Sep 2021 11:25:06.164           465.666
                      10    8 Sep 2021 12:09:52.081    8 Sep 2021 12:17:37.752           465.671
                      11    8 Sep 2021 13:02:23.670    8 Sep 2021 13:10:09.344           465.675
                      12    8 Sep 2021 13:54:55.261    8 Sep 2021 14:02:40.933           465.672
                      13    8 Sep 2021 14:47:26.850    8 Sep 2021 14:55:12.521           465.671
                      14    8 Sep 2021 15:39:58.436    8 Sep 2021 15:47:44.108           465.672
                      15    8 Sep 2021 16:32:30.023    8 Sep 2021 16:40:15.698           465.675
                      16    8 Sep 2021 17:25:01.611    8 Sep 2021 17:32:47.286           465.674
                      17    8 Sep 2021 18:17:33.204    8 Sep 2021 18:25:18.873           465.669
                      18    8 Sep 2021 19:10:04.788    8 Sep 2021 19:17:50.459           465.670
                      19    8 Sep 2021 20:02:36.377    8 Sep 2021 20:10:22.052           465.674
                      20    8 Sep 2021 20:55:07.968    8 Sep 2021 21:02:53.640           465.672
                      21    8 Sep 2021 21:47:39.557    8 Sep 2021 21:55:25.228           465.671
                      22    8 Sep 2021 22:40:11.143    8 Sep 2021 22:47:56.815           465.672
                      23    8 Sep 2021 23:32:42.730    8 Sep 2021 23:40:28.405           465.675
                      24    9 Sep 2021 00:25:14.323    9 Sep 2021 00:32:59.992           465.669
                      25    9 Sep 2021 01:17:45.912    9 Sep 2021 01:25:31.582           465.670
                      26    9 Sep 2021 02:10:17.495    9 Sep 2021 02:18:03.170           465.675
                      27    9 Sep 2021 03:02:49.084    9 Sep 2021 03:10:34.759           465.674
                      28    9 Sep 2021 03:55:20.675    9 Sep 2021 04:00:00.000           279.325

Min Duration          28    9 Sep 2021 03:55:20.675    9 Sep 2021 04:00:00.000           279.325
Max Duration          26    9 Sep 2021 02:10:17.495    9 Sep 2021 02:18:03.170           465.675
Mean Duration                                                                            459.017
Total Duration                                                                         12852.474


Satellite403-To-Satellite610
----------------------------
                  Access       Start Time (UTCG)           Stop Time (UTCG)       Duration (sec)
                  ------    -----------------------    -----------------------    --------------
                       1    8 Sep 2021 04:00:49.623    8 Sep 2021 04:30:41.307          1791.684
                       2    8 Sep 2021 04:53:21.211    8 Sep 2021 05:23:12.896          1791.684
                       3    8 Sep 2021 05:45:52.800    8 Sep 2021 06:15:44.484          1791.684
                       4    8 Sep 2021 06:38:24.388    8 Sep 2021 07:08:16.072          1791.684
                       5    8 Sep 2021 07:30:55.976    8 Sep 2021 08:00:47.660          1791.684
                       6    8 Sep 2021 08:23:27.565    8 Sep 2021 08:53:19.247          1791.682
                       7    8 Sep 2021 09:15:59.153    8 Sep 2021 09:45:50.835          1791.682
                       8    8 Sep 2021 10:08:30.741    8 Sep 2021 10:38:22.424          1791.682
                       9    8 Sep 2021 11:01:02.330    8 Sep 2021 11:30:54.017          1791.687
                      10    8 Sep 2021 11:53:33.918    8 Sep 2021 12:23:25.605          1791.687
                      11    8 Sep 2021 12:46:05.506    8 Sep 2021 13:15:57.193          1791.687
                      12    8 Sep 2021 13:38:37.094    8 Sep 2021 14:08:28.781          1791.687
                      13    8 Sep 2021 14:31:08.682    8 Sep 2021 15:01:00.369          1791.687
                      14    8 Sep 2021 15:23:40.271    8 Sep 2021 15:53:31.958          1791.687
                      15    8 Sep 2021 16:16:11.859    8 Sep 2021 16:46:03.546          1791.687
                      16    8 Sep 2021 17:08:43.447    8 Sep 2021 17:38:35.134          1791.687
                      17    8 Sep 2021 18:01:15.035    8 Sep 2021 18:31:06.722          1791.687
                      18    8 Sep 2021 18:53:46.623    8 Sep 2021 19:23:38.310          1791.687
                      19    8 Sep 2021 19:46:18.211    8 Sep 2021 20:16:09.898          1791.687
                      20    8 Sep 2021 20:38:49.799    8 Sep 2021 21:08:41.486          1791.687
                      21    8 Sep 2021 21:31:21.387    8 Sep 2021 22:01:13.075          1791.687
                      22    8 Sep 2021 22:23:52.976    8 Sep 2021 22:53:44.663          1791.687
                      23    8 Sep 2021 23:16:24.564    8 Sep 2021 23:46:16.251          1791.687
                      24    9 Sep 2021 00:08:56.152    9 Sep 2021 00:38:47.838          1791.686
                      25    9 Sep 2021 01:01:27.744    9 Sep 2021 01:31:19.426          1791.682
                      26    9 Sep 2021 01:53:59.332    9 Sep 2021 02:23:51.015          1791.682
                      27    9 Sep 2021 02:46:30.921    9 Sep 2021 03:16:22.608          1791.687
                      28    9 Sep 2021 03:39:02.509    9 Sep 2021 04:00:00.000          1257.491

Min Duration          28    9 Sep 2021 03:39:02.509    9 Sep 2021 04:00:00.000          1257.491
Max Duration          23    8 Sep 2021 23:16:24.564    8 Sep 2021 23:46:16.251          1791.687
Mean Duration                                                                           1772.607
Total Duration                                                                         49633.002


Satellite403-To-Satellite701
----------------------------
                  Access       Start Time (UTCG)           Stop Time (UTCG)       Duration (sec)
                  ------    -----------------------    -----------------------    --------------
                       1    8 Sep 2021 04:00:08.899    8 Sep 2021 04:19:32.924          1164.025
                       2    8 Sep 2021 04:52:40.486    8 Sep 2021 05:12:04.511          1164.025
                       3    8 Sep 2021 05:45:12.073    8 Sep 2021 06:04:36.100          1164.026
