routing/visibility/v404.txt

Satellite404-To-Satellite105
----------------------------
                  Access       Start Time (UTCG)           Stop Time (UTCG)       Duration (sec)
                  ------    -----------------------    -----------------------    --------------
                       1    8 Sep 2021 04:36:32.309    8 Sep 2021 04:43:33.842           421.532
                       2    8 Sep 2021 05:29:03.894    8 Sep 2021 05:36:05.431           421.537
                       3    8 Sep 2021 06:21:35.485    8 Sep 2021 06:28:37.018           421.533
                       4    8 Sep 2021 07:14:07.071    8 Sep 2021 07:21:08.607           421.537
                       5    8 Sep 2021 08:06:38.661    8 Sep 2021 08:13:40.195           421.534
                       6    8 Sep 2021 08:59:10.248    8 Sep 2021 09:06:11.784           421.537
                       7    8 Sep 2021 09:51:41.837    8 Sep 2021 09:58:43.372           421.535
                       8    8 Sep 2021 10:44:13.425    8 Sep 2021 10:51:14.961           421.536
                       9    8 Sep 2021 11:36:45.013    8 Sep 2021 11:43:46.549           421.536
                      10    8 Sep 2021 12:29:16.604    8 Sep 2021 12:36:18.138           421.534
                      11    8 Sep 2021 13:21:48.189    8 Sep 2021 13:28:49.726           421.537
                      12    8 Sep 2021 14:14:19.780    8 Sep 2021 14:21:21.314           421.534
                      13    8 Sep 2021 15:06:51.366    8 Sep 2021 15:13:52.903           421.537
                      14    8 Sep 2021 15:59:22.957    8 Sep 2021 16:06:24.491           421.534
                      15    8 Sep 2021 16:51:54.543    8 Sep 2021 16:58:56.078           421.535
                      16    8 Sep 2021 17:44:26.135    8 Sep 2021 17:51:27.668           421.532
                      17    8 Sep 2021 18:36:57.720    8 Sep 2021 18:43:59.257           421.537
                      18    8 Sep 2021 19:29:29.311    8 Sep 2021 19:36:30.844           421.533
                      19    8 Sep 2021 20:22:00.896    8 Sep 2021 20:29:02.433           421.537
                      20    8 Sep 2021 21:14:32.487    8 Sep 2021 21:21:34.021           421.534
                      21    8 Sep 2021 22:07:04.073    8 Sep 2021 22:14:05.610           421.537
                      22    8 Sep 2021 22:59:35.663    8 Sep 2021 23:06:37.198           421.535
                      23    8 Sep 2021 23:52:07.251    8 Sep 2021 23:59:08.787           421.536
                      24    9 Sep 2021 00:44:38.839    9 Sep 2021 00:51:40.375           421.536
                      25    9 Sep 2021 01:37:10.430    9 Sep 2021 01:44:11.964           421.534
                      26    9 Sep 2021 02:29:42.015    9 Sep 2021 02:36:43.552           421.537
                      27    9 Sep 2021 03:22:13.606    9 Sep 2021 03:29:15.140           421.534

Min Duration           1    8 Sep 2021 04:36:32.309    8 Sep 2021 04:43:33.842           421.532
Max Duration           2    8 Sep 2021 05:29:03.894    8 Sep 2021 05:36:05.431           421.537
Mean Duration                                                                            421.535
Total Duration                                                                         11381.450


Satellite404-To-Satellite106
----------------------------
                  Access       Start Time (UTCG)           Stop Time (UTCG)       Duration (sec)
                  ------    -----------------------    -----------------------    --------------
                       1    8 Sep 2021 04:25:05.904    8 Sep 2021 04:44:29.928          1164.025
                       2    8 Sep 2021 05:17:37.491    8 Sep 2021 05:37:01.519          1164.027
                       3    8 Sep 2021 06:10:09.077    8 Sep 2021 06:29:33.105          1164.027
                       4    8 Sep 2021 07:02:40.669    8 Sep 2021 07:22:04.693          1164.025
                       5    8 Sep 2021 07:55:12.253    8 Sep 2021 08:14:36.280          1164.027
                       6    8 Sep 2021 08:47:43.844    8 Sep 2021 09:07:07.869          1164.025
                       7    8 Sep 2021 09:40:15.432    8 Sep 2021 09:59:39.459          1164.027
                       8    8 Sep 2021 10:32:47.022    8 Sep 2021 10:52:11.046          1164.024
                       9    8 Sep 2021 11:25:18.609    8 Sep 2021 11:44:42.635          1164.026
                      10    8 Sep 2021 12:17:50.198    8 Sep 2021 12:37:14.223          1164.025
                      11    8 Sep 2021 13:10:21.786    8 Sep 2021 13:29:45.812          1164.025
                      12    8 Sep 2021 14:02:53.376    8 Sep 2021 14:22:17.401          1164.025
                      13    8 Sep 2021 14:55:24.963    8 Sep 2021 15:14:48.992          1164.029
                      14    8 Sep 2021 15:47:56.551    8 Sep 2021 16:07:20.577          1164.026
                      15    8 Sep 2021 16:40:28.141    8 Sep 2021 16:59:52.165          1164.024
                      16    8 Sep 2021 17:32:59.727    8 Sep 2021 17:52:23.753          1164.026
                      17    8 Sep 2021 18:25:31.316    8 Sep 2021 18:44:55.341          1164.025
                      18    8 Sep 2021 19:18:02.905    8 Sep 2021 19:37:26.931          1164.027
                      19    8 Sep 2021 20:10:34.495    8 Sep 2021 20:29:58.519          1164.024
                      20    8 Sep 2021 21:03:06.081    8 Sep 2021 21:22:30.107          1164.026
                      21    8 Sep 2021 21:55:37.670    8 Sep 2021 22:15:01.695          1164.025
                      22    8 Sep 2021 22:48:09.258    8 Sep 2021 23:07:33.284          1164.026
                      23    8 Sep 2021 23:40:40.848    9 Sep 2021 00:00:04.871          1164.023
                      24    9 Sep 2021 00:33:12.435    9 Sep 2021 00:52:36.459          1164.024
                      25    9 Sep 2021 01:25:44.024    9 Sep 2021 01:45:08.050          1164.026
                      26    9 Sep 2021 02:18:15.613    9 Sep 2021 02:37:39.638          1164.024
                      27    9 Sep 2021 03:10:47.199    9 Sep 2021 03:30:11.225          1164.026

Min Duration          23    8 Sep 2021 23:40:40.848    9 Sep 2021 00:00:04.871          1164.023
Max Duration          13    8 Sep 2021 14:55:24.963    8 Sep 2021 15:14:48.992          1164.029
Mean Duration                                                                           1164.026
Total Duration                                                                         31428.689


Satellite404-To-Satellite107
----------------------------
                  Access       Start Time (UTCG)           Stop Time (UTCG)       Duration (sec)
                  ------    -----------------------    -----------------------    --------------
                       1    8 Sep 2021 04:17:07.144    8 Sep 2021 04:41:58.364          1491.221
                       2    8 Sep 2021 05:09:38.736    8 Sep 2021 05:34:29.957          1491.221
                       3    8 Sep 2021 06:02:10.320    8 Sep 2021 06:27:01.541          1491.221
                       4    8 Sep 2021 06:54:41.913    8 Sep 2021 07:19:33.134          1491.221
                       5    8 Sep 2021 07:47:13.497    8 Sep 2021 08:12:04.718          1491.221
                       6    8 Sep 2021 08:39:45.089    8 Sep 2021 09:04:36.310          1491.221
                       7    8 Sep 2021 09:32:16.674    8 Sep 2021 09:57:07.895          1491.221
                       8    8 Sep 2021 10:24:48.266    8 Sep 2021 10:49:39.487          1491.221
                       9    8 Sep 2021 11:17:19.851    8 Sep 2021 11:42:11.072          1491.221
                      10    8 Sep 2021 12:09:51.443    8 Sep 2021 12:34:42.664          1491.221
                      11    8 Sep 2021 13:02:23.028    8 Sep 2021 13:27:14.248          1491.221
                      12    8 Sep 2021 13:54:54.620    8 Sep 2021 14:19:45.841          1491.221
                      13    8 Sep 2021 14:47:26.204    8 Sep 2021 15:12:17.425          1491.221
                      14    8 Sep 2021 15:39:57.797    8 Sep 2021 16:04:49.018          1491.221
                      15    8 Sep 2021 16:32:29.381    8 Sep 2021 16:57:20.602          1491.221
                      16    8 Sep 2021 17:25:00.973    8 Sep 2021 17:49:52.194          1491.221
                      17    8 Sep 2021 18:17:32.558    8 Sep 2021 18:42:23.779          1491.221
                      18    8 Sep 2021 19:10:04.150    8 Sep 2021 19:34:55.371          1491.221
                      19    8 Sep 2021 20:02:35.735    8 Sep 2021 20:27:26.956          1491.221
                      20    8 Sep 2021 20:55:07.327    8 Sep 2021 21:19:58.548          1491.221
                      21    8 Sep 2021 21:47:38.912    8 Sep 2021 22:12:30.132          1491.221
                      22    8 Sep 2021 22:40:10.504    8 Sep 2021 23:05:01.725          1491.221
                      23    8 Sep 2021 23:32:42.088    8 Sep 2021 23:57:33.309          1491.221
                      24    9 Sep 2021 00:25:13.681    9 Sep 2021 00:50:04.902          1491.221
                      25    9 Sep 2021 01:17:45.265    9 Sep 2021 01:42:36.486          1491.221
                      26    9 Sep 2021 02:10:16.857    9 Sep 2021 02:35:08.078          1491.221
                      27    9 Sep 2021 03:02:48.442    9 Sep 2021 03:27:39.663          1491.221
                      28    9 Sep 2021 03:55:20.034    9 Sep 2021 04:00:00.000           279.966

Min Duration          28    9 Sep 2021 03:55:20.034    9 Sep 2021 04:00:00.000           279.966
Max Duration           2    8 Sep 2021 05:09:38.736    8 Sep 2021 05:34:29.957          1491.221
Mean Duration                                                                           1447.962
Total Duration                                                                         40542.930


Satellite404-To-Satellite108
----------------------------
                  Access       Start Time (UTCG)           Stop Time (UTCG)       Duration (sec)
                  ------    -----------------------    -----------------------    --------------
                       1    8 Sep 2021 04:11:54.961    8 Sep 2021 04:36:40.232          1485.271
                       2    8 Sep 2021 05:04:26.550    8 Sep 2021 05:29:11.824          1485.274
                       3    8 Sep 2021 05:56:58.138    8 Sep 2021 06:21:43.408          1485.270
                       4    8 Sep 2021 06:49:29.726    8 Sep 2021 07:14:15.000          1485.274
                       5    8 Sep 2021 07:42:01.317    8 Sep 2021 08:06:46.585          1485.269
                       6    8 Sep 2021 08:34:32.903    8 Sep 2021 08:59:18.177          1485.274
                       7    8 Sep 2021 09:27:04.494    8 Sep 2021 09:51:49.762          1485.268
                       8    8 Sep 2021 10:19:36.080    8 Sep 2021 10:44:21.354          1485.274
                       9    8 Sep 2021 11:12:07.670    8 Sep 2021 11:36:52.939          1485.268
                      10    8 Sep 2021 12:04:39.257    8 Sep 2021 12:29:24.531          1485.274
                      11    8 Sep 2021 12:57:10.847    8 Sep 2021 13:21:56.115          1485.268
                      12    8 Sep 2021 13:49:42.434    8 Sep 2021 14:14:27.708          1485.274
                      13    8 Sep 2021 14:42:14.024    8 Sep 2021 15:06:59.292          1485.268
                      14    8 Sep 2021 15:34:45.610    8 Sep 2021 15:59:30.884          1485.274
                      15    8 Sep 2021 16:27:17.201    8 Sep 2021 16:52:02.469          1485.268
                      16    8 Sep 2021 17:19:48.787    8 Sep 2021 17:44:34.061          1485.274
                      17    8 Sep 2021 18:12:20.378    8 Sep 2021 18:37:05.646          1485.268
                      18    8 Sep 2021 19:04:51.964    8 Sep 2021 19:29:37.238          1485.274
                      19    8 Sep 2021 19:57:23.554    8 Sep 2021 20:22:08.823          1485.268
                      20    8 Sep 2021 20:49:55.141    8 Sep 2021 21:14:40.415          1485.274
                      21    8 Sep 2021 21:42:26.731    8 Sep 2021 22:07:11.999          1485.268
                      22    8 Sep 2021 22:34:58.318    8 Sep 2021 22:59:43.591          1485.274
                      23    8 Sep 2021 23:27:29.908    8 Sep 2021 23:52:15.176          1485.268
                      24    9 Sep 2021 00:20:01.494    9 Sep 2021 00:44:46.768          1485.274
                      25    9 Sep 2021 01:12:33.085    9 Sep 2021 01:37:18.353          1485.268
                      26    9 Sep 2021 02:05:04.671    9 Sep 2021 02:29:49.945          1485.274
                      27    9 Sep 2021 02:57:36.261    9 Sep 2021 03:22:21.530          1485.268
                      28    9 Sep 2021 03:50:07.848    9 Sep 2021 04:00:00.000           592.152

Min Duration          28    9 Sep 2021 03:50:07.848    9 Sep 2021 04:00:00.000           592.152
Max Duration          26    9 Sep 2021 02:05:04.671    9 Sep 2021 02:29:49.945          1485.274
Mean Duration                                                                           1453.374
Total Duration                                                                         40694.474


Satellite404-To-Satellite109
----------------------------
                  Access       Start Time (UTCG)           Stop Time (UTCG)       Duration (sec)
                  ------    -----------------------    -----------------------    --------------
                       1    8 Sep 2021 04:09:29.956    8 Sep 2021 04:28:34.924          1144.967
                       2    8 Sep 2021 05:02:01.545    8 Sep 2021 05:21:06.511          1144.966
                       3    8 Sep 2021 05:54:33.133    8 Sep 2021 06:13:38.099          1144.966
                       4    8 Sep 2021 06:47:04.722    8 Sep 2021 07:06:09.686          1144.965
                       5    8 Sep 2021 07:39:36.310    8 Sep 2021 07:58:41.276          1144.966
                       6    8 Sep 2021 08:32:07.898    8 Sep 2021 08:51:12.864          1144.966
                       7    8 Sep 2021 09:24:39.483    8 Sep 2021 09:43:44.453          1144.970
                       8    8 Sep 2021 10:17:11.072    8 Sep 2021 10:36:16.041          1144.969
                       9    8 Sep 2021 11:09:42.661    8 Sep 2021 11:28:47.629          1144.969
                      10    8 Sep 2021 12:02:14.249    8 Sep 2021 12:21:19.218          1144.969
                      11    8 Sep 2021 12:54:45.838    8 Sep 2021 13:13:50.806          1144.969
                      12    8 Sep 2021 13:47:17.426    8 Sep 2021 14:06:22.395          1144.968
                      13    8 Sep 2021 14:39:49.015    8 Sep 2021 14:58:53.983          1144.968
                      14    8 Sep 2021 15:32:20.603    8 Sep 2021 15:51:25.571          1144.968
                      15    8 Sep 2021 16:24:52.192    8 Sep 2021 16:43:57.160          1144.968
                      16    8 Sep 2021 17:17:23.780    8 Sep 2021 17:36:28.748          1144.968
                      17    8 Sep 2021 18:09:55.368    8 Sep 2021 18:29:00.337          1144.968
                      18    8 Sep 2021 19:02:26.957    8 Sep 2021 19:21:31.925          1144.968
                      19    8 Sep 2021 19:54:58.545    8 Sep 2021 20:14:03.513          1144.968
                      20    8 Sep 2021 20:47:30.134    8 Sep 2021 21:06:35.102          1144.968
                      21    8 Sep 2021 21:40:01.722    8 Sep 2021 21:59:06.690          1144.968
                      22    8 Sep 2021 22:32:33.310    8 Sep 2021 22:51:38.279          1144.968
                      23    8 Sep 2021 23:25:04.899    8 Sep 2021 23:44:09.867          1144.968
                      24    9 Sep 2021 00:17:36.487    9 Sep 2021 00:36:41.455          1144.968
                      25    9 Sep 2021 01:10:08.076    9 Sep 2021 01:29:13.044          1144.968
                      26    9 Sep 2021 02:02:39.664    9 Sep 2021 02:21:44.632          1144.968
                      27    9 Sep 2021 02:55:11.252    9 Sep 2021 03:14:16.221          1144.968
                      28    9 Sep 2021 03:47:42.841    9 Sep 2021 04:00:00.000           737.159

Min Duration          28    9 Sep 2021 03:47:42.841    9 Sep 2021 04:00:00.000           737.159
Max Duration           7    8 Sep 2021 09:24:39.483    8 Sep 2021 09:43:44.453          1144.970
Mean Duration                                                                           1130.403
Total Duration                                                                         31651.294


Satellite404-To-Satellite110
----------------------------
                  Access       Start Time (UTCG)           Stop Time (UTCG)       Duration (sec)
                  ------    -----------------------    -----------------------    --------------
                       1    8 Sep 2021 04:10:50.022    8 Sep 2021 04:16:44.537           354.515
                       2    8 Sep 2021 05:03:21.611    8 Sep 2021 05:09:16.122           354.511
                       3    8 Sep 2021 05:55:53.202    8 Sep 2021 06:01:47.713           354.511
                       4    8 Sep 2021 06:48:24.792    8 Sep 2021 06:54:19.302           354.510
                       5    8 Sep 2021 07:40:56.377    8 Sep 2021 07:46:50.890           354.513
                       6    8 Sep 2021 08:33:27.965    8 Sep 2021 08:39:22.477           354.511
                       7    8 Sep 2021 09:25:59.557    8 Sep 2021 09:31:54.067           354.510
                       8    8 Sep 2021 10:18:31.142    8 Sep 2021 10:24:25.656           354.513
                       9    8 Sep 2021 11:11:02.730    8 Sep 2021 11:16:57.240           354.510
                      10    8 Sep 2021 12:03:34.322    8 Sep 2021 12:09:28.832           354.510
                      11    8 Sep 2021 12:56:05.911    8 Sep 2021 13:02:00.421           354.510
                      12    8 Sep 2021 13:48:37.495    8 Sep 2021 13:54:32.009           354.514
                      13    8 Sep 2021 14:41:09.084    8 Sep 2021 14:47:03.595           354.511
                      14    8 Sep 2021 15:33:40.675    8 Sep 2021 15:39:35.186           354.511
                      15    8 Sep 2021 16:26:12.260    8 Sep 2021 16:32:06.774           354.515
                      16    8 Sep 2021 17:18:43.848    8 Sep 2021 17:24:38.358           354.510
                      17    8 Sep 2021 18:11:15.440    8 Sep 2021 18:17:09.950           354.510
                      18    8 Sep 2021 19:03:47.029    8 Sep 2021 19:09:41.540           354.510
                      19    8 Sep 2021 19:56:18.618    8 Sep 2021 20:02:13.128           354.510
                      20    8 Sep 2021 20:48:50.202    8 Sep 2021 20:54:44.713           354.511
                      21    8 Sep 2021 21:41:21.794    8 Sep 2021 21:47:16.304           354.511
                      22    8 Sep 2021 22:33:53.379    8 Sep 2021 22:39:47.893           354.515
                      23    8 Sep 2021 23:26:24.967    8 Sep 2021 23:32:19.477           354.510
                      24    9 Sep 2021 00:18:56.558    9 Sep 2021 00:24:51.069           354.511
                      25    9 Sep 2021 01:11:28.148    9 Sep 2021 01:17:22.658           354.511
                      26    9 Sep 2021 02:03:59.736    9 Sep 2021 02:09:54.247           354.511
                      27    9 Sep 2021 02:56:31.321    9 Sep 2021 03:02:25.832           354.511
                      28    9 Sep 2021 03:49:02.912    9 Sep 2021 03:54:57.423           354.511

Min Duration          23    8 Sep 2021 23:26:24.967    8 Sep 2021 23:32:19.477           354.510
Max Duration          15    8 Sep 2021 16:26:12.260    8 Sep 2021 16:32:06.774           354.515
Mean Duration                                                                            354.511
Total Duration                                                                          9926.317


Satellite404-To-Satellite204
----------------------------
                  Access       Start Time (UTCG)           Stop Time (UTCG)       Duration (sec)
                  ------    -----------------------    -----------------------    --------------
                       1    8 Sep 2021 04:40:41.632    8 Sep 2021 04:48:36.039           474.407
                       2    8 Sep 2021 05:33:13.224    8 Sep 2021 05:41:07.632           474.407
                       3    8 Sep 2021 06:25:44.809    8 Sep 2021 06:33:39.220           474.411
                       4    8 Sep 2021 07:18:16.398    8 Sep 2021 07:26:10.807           474.409
                       5    8 Sep 2021 08:10:47.988    8 Sep 2021 08:18:42.396           474.407
                       6    8 Sep 2021 09:03:19.578    8 Sep 2021 09:11:13.985           474.407
                       7    8 Sep 2021 09:55:51.163    8 Sep 2021 10:03:45.574           474.411
                       8    8 Sep 2021 10:48:22.751    8 Sep 2021 10:56:17.162           474.411
                       9    8 Sep 2021 11:40:54.341    8 Sep 2021 11:48:48.747           474.405
                      10    8 Sep 2021 12:33:25.928    8 Sep 2021 12:41:20.339           474.411
                      11    8 Sep 2021 13:25:57.516    8 Sep 2021 13:33:51.927           474.411
                      12    8 Sep 2021 14:18:29.105    8 Sep 2021 14:26:23.514           474.409
                      13    8 Sep 2021 15:11:00.696    8 Sep 2021 15:18:55.103           474.407
                      14    8 Sep 2021 16:03:32.286    8 Sep 2021 16:11:26.692           474.407
                      15    8 Sep 2021 16:56:03.870    8 Sep 2021 17:03:58.281           474.411
                      16    8 Sep 2021 17:48:35.461    8 Sep 2021 17:56:29.865           474.405
                      17    8 Sep 2021 18:41:07.047    8 Sep 2021 18:49:01.456           474.409
                      18    8 Sep 2021 19:33:38.635    8 Sep 2021 19:41:33.046           474.411
                      19    8 Sep 2021 20:26:10.223    8 Sep 2021 20:34:04.634           474.411
                      20    8 Sep 2021 21:18:41.813    8 Sep 2021 21:26:36.221           474.408
                      21    8 Sep 2021 22:11:13.405    8 Sep 2021 22:19:07.811           474.406
                      22    8 Sep 2021 23:03:44.993    8 Sep 2021 23:11:39.399           474.406
                      23    8 Sep 2021 23:56:16.577    9 Sep 2021 00:04:10.986           474.409
                      24    9 Sep 2021 00:48:48.169    9 Sep 2021 00:56:42.572           474.402
                      25    9 Sep 2021 01:41:19.755    9 Sep 2021 01:49:14.165           474.410
                      26    9 Sep 2021 02:33:51.342    9 Sep 2021 02:41:45.753           474.411
                      27    9 Sep 2021 03:26:22.931    9 Sep 2021 03:34:17.341           474.411

Min Duration          24    9 Sep 2021 00:48:48.169    9 Sep 2021 00:56:42.572           474.402
Max Duration          10    8 Sep 2021 12:33:25.928    8 Sep 2021 12:41:20.339           474.411
Mean Duration                                                                            474.408
Total Duration                                                                         12809.029


Satellite404-To-Satellite205
----------------------------
                  Access       Start Time (UTCG)           Stop Time (UTCG)       Duration (sec)
                  ------    -----------------------    -----------------------    --------------
                       1    8 Sep 2021 04:00:00.000    8 Sep 2021 04:01:45.230           105.230
                       2    8 Sep 2021 04:24:30.543    8 Sep 2021 04:54:16.817          1786.274
                       3    8 Sep 2021 05:17:02.127    8 Sep 2021 05:46:48.408          1786.281
                       4    8 Sep 2021 06:09:33.715    8 Sep 2021 06:39:19.995          1786.280
                       5    8 Sep 2021 07:02:05.305    8 Sep 2021 07:31:51.585          1786.279
                       6    8 Sep 2021 07:54:36.892    8 Sep 2021 08:24:23.172          1786.281
                       7    8 Sep 2021 08:47:08.483    8 Sep 2021 09:16:54.762          1786.279
                       8    8 Sep 2021 09:39:40.068    8 Sep 2021 10:09:26.349          1786.281
                       9    8 Sep 2021 10:32:11.660    8 Sep 2021 11:01:57.939          1786.279
                      10    8 Sep 2021 11:24:43.245    8 Sep 2021 11:54:29.526          1786.281
                      11    8 Sep 2021 12:17:14.837    8 Sep 2021 12:47:01.115          1786.279
                      12    8 Sep 2021 13:09:46.422    8 Sep 2021 13:39:32.703          1786.281
                      13    8 Sep 2021 14:02:18.014    8 Sep 2021 14:32:04.292          1786.279
                      14    8 Sep 2021 14:54:49.599    8 Sep 2021 15:24:35.880          1786.281
                      15    8 Sep 2021 15:47:21.190    8 Sep 2021 16:17:07.469          1786.279
                      16    8 Sep 2021 16:39:52.776    8 Sep 2021 17:09:39.057          1786.281
                      17    8 Sep 2021 17:32:24.367    8 Sep 2021 18:02:10.646          1786.279
                      18    8 Sep 2021 18:24:55.952    8 Sep 2021 18:54:42.233          1786.281
                      19    8 Sep 2021 19:17:27.544    8 Sep 2021 19:47:13.822          1786.279
                      20    8 Sep 2021 20:09:59.129    8 Sep 2021 20:39:45.410          1786.281
                      21    8 Sep 2021 21:02:30.721    8 Sep 2021 21:32:16.999          1786.278
                      22    8 Sep 2021 21:55:02.306    8 Sep 2021 22:24:48.587          1786.281
                      23    8 Sep 2021 22:47:33.898    8 Sep 2021 23:17:20.176          1786.278
                      24    8 Sep 2021 23:40:05.483    9 Sep 2021 00:09:51.764          1786.281
                      25    9 Sep 2021 00:32:37.074    9 Sep 2021 01:02:23.353          1786.278
                      26    9 Sep 2021 01:25:08.660    9 Sep 2021 01:54:54.941          1786.281
                      27    9 Sep 2021 02:17:40.251    9 Sep 2021 02:47:26.530          1786.278
                      28    9 Sep 2021 03:10:11.836    9 Sep 2021 03:39:58.117          1786.281

Min Duration           1    8 Sep 2021 04:00:00.000    8 Sep 2021 04:01:45.230           105.230
Max Duration          28    9 Sep 2021 03:10:11.836    9 Sep 2021 03:39:58.117          1786.281
Mean Duration                                                                           1726.242
Total Duration                                                                         48334.780


Satellite404-To-Satellite206
----------------------------
                  Access       Start Time (UTCG)           Stop Time (UTCG)       Duration (sec)
                  ------    -----------------------    -----------------------    --------------
                       1    8 Sep 2021 04:00:00.000    8 Sep 2021 04:00:27.586            27.586
                       2    8 Sep 2021 04:15:17.870    8 Sep 2021 04:52:59.171          2261.301
                       3    8 Sep 2021 05:07:49.458    8 Sep 2021 05:45:30.760          2261.301
                       4    8 Sep 2021 06:00:21.047    8 Sep 2021 06:38:02.348          2261.301
                       5    8 Sep 2021 06:52:52.635    8 Sep 2021 07:30:33.937          2261.301
                       6    8 Sep 2021 07:45:24.224    8 Sep 2021 08:23:05.525          2261.301
                       7    8 Sep 2021 08:37:55.812    8 Sep 2021 09:15:37.113          2261.301
                       8    8 Sep 2021 09:30:27.400    8 Sep 2021 10:08:08.702          2261.301
                       9    8 Sep 2021 10:22:58.989    8 Sep 2021 11:00:40.290          2261.301
                      10    8 Sep 2021 11:15:30.577    8 Sep 2021 11:53:11.878          2261.301
                      11    8 Sep 2021 12:08:02.166    8 Sep 2021 12:45:43.467          2261.301
                      12    8 Sep 2021 13:00:33.754    8 Sep 2021 13:38:15.055          2261.301
                      13    8 Sep 2021 13:53:05.342    8 Sep 2021 14:30:46.644          2261.301
                      14    8 Sep 2021 14:45:36.931    8 Sep 2021 15:23:18.232          2261.301
                      15    8 Sep 2021 15:38:08.519    8 Sep 2021 16:15:49.820          2261.301
                      16    8 Sep 2021 16:30:40.108    8 Sep 2021 17:08:21.409          2261.301
                      17    8 Sep 2021 17:23:11.696    8 Sep 2021 18:00:52.997          2261.301
                      18    8 Sep 2021 18:15:43.284    8 Sep 2021 18:53:24.586          2261.301
                      19    8 Sep 2021 19:08:14.873    8 Sep 2021 19:45:56.174          2261.301
                      20    8 Sep 2021 20:00:46.461    8 Sep 2021 20:38:27.762          2261.301
                      21    8 Sep 2021 20:53:18.050    8 Sep 2021 21:30:59.351          2261.301
                      22    8 Sep 2021 21:45:49.638    8 Sep 2021 22:23:30.939          2261.301
                      23    8 Sep 2021 22:38:21.226    8 Sep 2021 23:16:02.528          2261.301
                      24    8 Sep 2021 23:30:52.815    9 Sep 2021 00:08:34.116          2261.301
                      25    9 Sep 2021 00:23:24.403    9 Sep 2021 01:01:05.704          2261.301
                      26    9 Sep 2021 01:15:55.992    9 Sep 2021 01:53:37.293          2261.301
                      27    9 Sep 2021 02:08:27.580    9 Sep 2021 02:46:08.881          2261.301
                      28    9 Sep 2021 03:00:59.168    9 Sep 2021 03:38:40.470          2261.301
                      29    9 Sep 2021 03:53:30.757    9 Sep 2021 04:00:00.000           389.243

Min Duration           1    8 Sep 2021 04:00:00.000    8 Sep 2021 04:00:27.586            27.586
Max Duration           2    8 Sep 2021 04:15:17.870    8 Sep 2021 04:52:59.171          2261.301
Mean Duration                                                                           2119.723
Total Duration                                                                         61471.963


Satellite404-To-Satellite207
----------------------------
                  Access       Start Time (UTCG)           Stop Time (UTCG)       Duration (sec)
                  ------    -----------------------    -----------------------    --------------
                       1    8 Sep 2021 04:13:57.519    8 Sep 2021 04:43:49.206          1791.687
                       2    8 Sep 2021 05:06:29.107    8 Sep 2021 05:36:20.794          1791.687
                       3    8 Sep 2021 05:59:00.695    8 Sep 2021 06:28:52.382          1791.687
                       4    8 Sep 2021 06:51:32.283    8 Sep 2021 07:21:23.970          1791.687
                       5    8 Sep 2021 07:44:03.871    8 Sep 2021 08:13:55.558          1791.687
                       6    8 Sep 2021 08:36:35.459    8 Sep 2021 09:06:27.146          1791.687
                       7    8 Sep 2021 09:29:07.047    8 Sep 2021 09:58:58.734          1791.687
                       8    8 Sep 2021 10:21:38.635    8 Sep 2021 10:51:30.323          1791.687
                       9    8 Sep 2021 11:14:10.224    8 Sep 2021 11:44:01.911          1791.687
                      10    8 Sep 2021 12:06:41.812    8 Sep 2021 12:36:33.499          1791.687
                      11    8 Sep 2021 12:59:13.400    8 Sep 2021 13:29:05.086          1791.686
                      12    8 Sep 2021 13:51:44.992    8 Sep 2021 14:21:36.674          1791.682
                      13    8 Sep 2021 14:44:16.580    8 Sep 2021 15:14:08.263          1791.682
                      14    8 Sep 2021 15:36:48.169    8 Sep 2021 16:06:39.856          1791.687
                      15    8 Sep 2021 16:29:19.757    8 Sep 2021 16:59:11.444          1791.687
                      16    8 Sep 2021 17:21:51.345    8 Sep 2021 17:51:43.032          1791.687
                      17    8 Sep 2021 18:14:22.933    8 Sep 2021 18:44:14.620          1791.687
                      18    8 Sep 2021 19:06:54.521    8 Sep 2021 19:36:46.208          1791.687
                      19    8 Sep 2021 19:59:26.109    8 Sep 2021 20:29:17.796          1791.687
                      20    8 Sep 2021 20:51:57.698    8 Sep 2021 21:21:49.385          1791.687
                      21    8 Sep 2021 21:44:29.286    8 Sep 2021 22:14:20.973          1791.687
                      22    8 Sep 2021 22:37:00.874    8 Sep 2021 23:06:52.561          1791.687
                      23    8 Sep 2021 23:29:32.462    8 Sep 2021 23:59:24.149          1791.687
                      24    9 Sep 2021 00:22:04.050    9 Sep 2021 00:51:55.737          1791.687
                      25    9 Sep 2021 01:14:35.638    9 Sep 2021 01:44:27.325          1791.687
                      26    9 Sep 2021 02:07:07.226    9 Sep 2021 02:36:58.914          1791.687
                      27    9 Sep 2021 02:59:38.815    9 Sep 2021 03:29:30.502          1791.687
                      28    9 Sep 2021 03:52:10.403    9 Sep 2021 04:00:00.000           469.597

Min Duration          28    9 Sep 2021 03:52:10.403    9 Sep 2021 04:00:00.000           469.597
Max Duration          10    8 Sep 2021 12:06:41.812    8 Sep 2021 12:36:33.499          1791.687
Mean Duration                                                                           1744.469
Total Duration                                                                         48845.137


Satellite404-To-Satellite208
----------------------------
                  Access       Start Time (UTCG)           Stop Time (UTCG)       Duration (sec)
                  ------    -----------------------    -----------------------    --------------
                       1    8 Sep 2021 04:19:45.368    8 Sep 2021 04:27:31.040           465.672
                       2    8 Sep 2021 05:12:16.956    8 Sep 2021 05:20:02.627           465.671
                       3    8 Sep 2021 06:04:48.542    8 Sep 2021 06:12:34.216           465.674
                       4    8 Sep 2021 06:57:20.130    8 Sep 2021 07:05:05.805           465.675
                       5    8 Sep 2021 07:49:51.719    8 Sep 2021 07:57:37.389           465.670
                       6    8 Sep 2021 08:42:23.310    8 Sep 2021 08:50:08.981           465.672
                       7    8 Sep 2021 09:34:54.895    8 Sep 2021 09:42:40.570           465.675
                       8    8 Sep 2021 10:27:26.485    8 Sep 2021 10:35:12.159           465.674
                       9    8 Sep 2021 11:19:58.075    8 Sep 2021 11:27:43.747           465.672
                      10    8 Sep 2021 12:12:29.663    8 Sep 2021 12:20:15.335           465.671
                      11    8 Sep 2021 13:05:01.249    8 Sep 2021 13:12:46.924           465.674
                      12    8 Sep 2021 13:57:32.837    8 Sep 2021 14:05:18.512           465.675
                      13    8 Sep 2021 14:50:04.426    8 Sep 2021 14:57:50.096           465.670
                      14    8 Sep 2021 15:42:36.016    8 Sep 2021 15:50:21.688           465.672
                      15    8 Sep 2021 16:35:07.603    8 Sep 2021 16:42:53.277           465.675
                      16    8 Sep 2021 17:27:39.192    8 Sep 2021 17:35:24.866           465.674
                      17    8 Sep 2021 18:20:10.784    8 Sep 2021 18:27:56.454           465.670
                      18    8 Sep 2021 19:12:42.370    8 Sep 2021 19:20:28.042           465.672
                      19    8 Sep 2021 20:05:13.957    8 Sep 2021 20:12:59.631           465.674
                      20    8 Sep 2021 20:57:45.544    8 Sep 2021 21:05:31.219           465.675
                      21    8 Sep 2021 21:50:17.133    8 Sep 2021 21:58:02.803           465.670
                      22    8 Sep 2021 22:42:48.723    8 Sep 2021 22:50:34.395           465.673
                      23    8 Sep 2021 23:35:20.310    8 Sep 2021 23:43:05.985           465.675
                      24    9 Sep 2021 00:27:51.899    9 Sep 2021 00:35:37.573           465.674
                      25    9 Sep 2021 01:20:23.491    9 Sep 2021 01:28:09.161           465.670
                      26    9 Sep 2021 02:12:55.077    9 Sep 2021 02:20:40.749           465.672
                      27    9 Sep 2021 03:05:26.664    9 Sep 2021 03:13:12.338           465.674
                      28    9 Sep 2021 03:57:58.252    9 Sep 2021 04:00:00.000           121.748

Min Duration          28    9 Sep 2021 03:57:58.252    9 Sep 2021 04:00:00.000           121.748
Max Duration          20    8 Sep 2021 20:57:45.544    8 Sep 2021 21:05:31.219           465.675
Mean Duration                                                                            453.390
Total Duration                                                                         12694.913


Satellite404-To-Satellite304
----------------------------
                  Access       Start Time (UTCG)           Stop Time (UTCG)       Duration (sec)
                  ------    -----------------------    -----------------------    --------------
                       1    8 Sep 2021 04:00:00.000    9 Sep 2021 04:00:00.000         86400.000

Min Duration           1    8 Sep 2021 04:00:00.000    9 Sep 2021 04:00:00.000         86400.000
Max Duration           1    8 Sep 2021 04:00:00.000    9 Sep 2021 04:00:00.000         86400.000
Mean Duration                                                                          86400.000
Total Duration                                                                         86400.000


Satellite404-To-Satellite305
----------------------------
                  Access       Start Time (UTCG)           Stop Time (UTCG)       Duration (sec)
                  ------    -----------------------    -----------------------    --------------
                       1    8 Sep 2021 04:00:00.000    9 Sep 2021 04:00:00.000         86400.000

Min Duration           1    8 Sep 2021 04:00:00.000    9 Sep 2021 04:00:00.000         86400.000
Max Duration           1    8 Sep 2021 04:00:00.000    9 Sep 2021 04:00:00.000         86400.000
Mean Duration                                                                          86400.000
Total Duration                                                                         86400.000


Satellite404-To-Satellite306
----------------------------
                  Access       Start Time (UTCG)           Stop Time (UTCG)       Duration (sec)
                  ------    -----------------------    -----------------------    --------------
                       1    8 Sep 2021 04:00:00.000    9 Sep 2021 04:00:00.000         86400.000

Min Duration           1    8 Sep 2021 04:00:00.000    9 Sep 2021 04:00:00.000         86400.000
Max Duration           1    8 Sep 2021 04:00:00.000    9 Sep 2021 04:00:00.000         86400.000
Mean Duration                                                                          86400.000
Total Duration                                                                         86400.000


Satellite404-To-Satellite403
----------------------------
                  Access       Start Time (UTCG)           Stop Time (UTCG)       Duration (sec)
                  ------    -----------------------    -----------------------    --------------
                       1    8 Sep 2021 04:00:00.000    9 Sep 2021 04:00:00.000         86400.000

Min Duration           1    8 Sep 2021 04:00:00.000    9 Sep 2021 04:00:00.000         86400.000
Max Duration           1    8 Sep 2021 04:00:00.000    9 Sep 2021 04:00:00.000         86400.000
Mean Duration                                                                          86400.000
Total Duration                                                                         86400.000


Satellite404-To-Satellite405
----------------------------
                  Access       Start Time (UTCG)           Stop Time (UTCG)       Duration (sec)
                  ------    -----------------------    -----------------------    --------------
                       1    8 Sep 2021 04:00:00.000    9 Sep 2021 04:00:00.000         86400.000

Min Duration           1    8 Sep 2021 04:00:00.000    9 Sep 2021 04:00:00.000         86400.000
Max Duration           1    8 Sep 2021 04:00:00.000    9 Sep 2021 04:00:00.000         86400.000
Mean Duration                                                                          86400.000
Total Duration                                                                         86400.000


Satellite404-To-Satellite502
----------------------------
                  Access       Start Time (UTCG)           Stop Time (UTCG)       Duration (sec)
                  ------    -----------------------    -----------------------    --------------
                       1    8 Sep 2021 04:00:00.000    9 Sep 2021 04:00:00.000         86400.000

Min Duration           1    8 Sep 2021 04:00:00.000    9 Sep 2021 04:00:00.000         86400.000
Max Duration           1    8 Sep 2021 04:00:00.000    9 Sep 2021 04:00:00.000         86400.000
Mean Duration                                                                          86400.000
Total Duration                                                                         86400.000


Satellite404-To-Satellite503
----------------------------
                  Access       Start Time (UTCG)           Stop Time (UTCG)       Duration (sec)
                  ------    -----------------------    -----------------------    --------------
                       1    8 Sep 2021 04:00:00.000    9 Sep 2021 04:00:00.000         86400.000

Min Duration           1    8 Sep 2021 04:00:00.000    9 Sep 2021 04:00:00.000         86400.000
Max Duration           1    8 Sep 2021 04:00:00.000    9 Sep 2021 04:00:00.000         86400.000
Mean Duration                                                                          86400.000
Total Duration                                                                         86400.000


Satellite404-To-Satellite504
----------------------------
                  Access       Start Time (UTCG)           Stop Time (UTCG)       Duration (sec)
                  ------    -----------------------    -----------------------    --------------
                       1    8 Sep 2021 04:00:00.000    9 Sep 2021 04:00:00.000         86400.000

Min Duration           1    8 Sep 2021 04:00:00.000    9 Sep 2021 04:00:00.000         86400.000
Max Duration           1    8 Sep 2021 04:00:00.000    9 Sep 2021 04:00:00.000         86400.000
Mean Duration                                                                          86400.000
Total Duration                                                                         86400.000


Satellite404-To-Satellite601
----------------------------
                  Access       Start Time (UTCG)           Stop Time (UTCG)       Duration (sec)
                  ------    -----------------------    -----------------------    --------------
                       1    8 Sep 2021 04:00:00.000    8 Sep 2021 04:20:10.992          1210.992
                       2    8 Sep 2021 04:42:50.890    8 Sep 2021 05:12:42.576          1791.687
                       3    8 Sep 2021 05:35:22.483    8 Sep 2021 06:05:14.168          1791.686
                       4    8 Sep 2021 06:27:54.069    8 Sep 2021 06:57:45.756          1791.687
                       5    8 Sep 2021 07:20:25.657    8 Sep 2021 07:50:17.344          1791.687
                       6    8 Sep 2021 08:12:57.245    8 Sep 2021 08:42:48.932          1791.687
                       7    8 Sep 2021 09:05:28.834    8 Sep 2021 09:35:20.520          1791.687
                       8    8 Sep 2021 09:58:00.422    8 Sep 2021 10:27:52.109          1791.687
                       9    8 Sep 2021 10:50:32.010    8 Sep 2021 11:20:23.697          1791.687
                      10    8 Sep 2021 11:43:03.598    8 Sep 2021 12:12:55.285          1791.687
                      11    8 Sep 2021 12:35:35.186    8 Sep 2021 13:05:26.873          1791.687
                      12    8 Sep 2021 13:28:06.774    8 Sep 2021 13:57:58.461          1791.687
                      13    8 Sep 2021 14:20:38.362    8 Sep 2021 14:50:30.050          1791.687
                      14    8 Sep 2021 15:13:09.951    8 Sep 2021 15:43:01.638          1791.687
                      15    8 Sep 2021 16:05:41.539    8 Sep 2021 16:35:33.225          1791.686
                      16    8 Sep 2021 16:58:13.131    8 Sep 2021 17:28:04.813          1791.682
                      17    8 Sep 2021 17:50:44.719    8 Sep 2021 18:20:36.401          1791.682
                      18    8 Sep 2021 18:43:16.307    8 Sep 2021 19:13:07.994          1791.687
                      19    8 Sep 2021 19:35:47.896    8 Sep 2021 20:05:39.583          1791.687
                      20    8 Sep 2021 20:28:19.484    8 Sep 2021 20:58:11.171          1791.687
                      21    8 Sep 2021 21:20:51.072    8 Sep 2021 21:50:42.759          1791.687
                      22    8 Sep 2021 22:13:22.660    8 Sep 2021 22:43:14.347          1791.687
                      23    8 Sep 2021 23:05:54.248    8 Sep 2021 23:35:45.935          1791.687
                      24    8 Sep 2021 23:58:25.836    9 Sep 2021 00:28:17.523          1791.687
                      25    9 Sep 2021 00:50:57.424    9 Sep 2021 01:20:49.111          1791.687
                      26    9 Sep 2021 01:43:29.013    9 Sep 2021 02:13:20.700          1791.687
                      27    9 Sep 2021 02:36:00.601    9 Sep 2021 03:05:52.288          1791.687
                      28    9 Sep 2021 03:28:32.189    9 Sep 2021 03:58:23.875          1791.686

Min Duration           1    8 Sep 2021 04:00:00.000    8 Sep 2021 04:20:10.992          1210.992
Max Duration          14    8 Sep 2021 15:13:09.951    8 Sep 2021 15:43:01.638          1791.687
Mean Duration                                                                           1770.947
Total Duration                                                                         49586.528


Satellite404-To-Satellite602
----------------------------
                  Access       Start Time (UTCG)           Stop Time (UTCG)       Duration (sec)
                  ------    -----------------------    -----------------------    --------------
                       1    8 Sep 2021 04:00:00.000    8 Sep 2021 04:18:50.638          1130.638
                       2    8 Sep 2021 04:33:40.926    8 Sep 2021 05:11:22.228          2261.302
                       3    8 Sep 2021 05:26:12.514    8 Sep 2021 06:03:53.816          2261.301
                       4    8 Sep 2021 06:18:44.103    8 Sep 2021 06:56:25.404          2261.301
                       5    8 Sep 2021 07:11:15.691    8 Sep 2021 07:48:56.992          2261.301
                       6    8 Sep 2021 08:03:47.280    8 Sep 2021 08:41:28.581          2261.301
                       7    8 Sep 2021 08:56:18.868    8 Sep 2021 09:34:00.169          2261.301
                       8    8 Sep 2021 09:48:50.456    8 Sep 2021 10:26:31.758          2261.301
                       9    8 Sep 2021 10:41:22.045    8 Sep 2021 11:19:03.346          2261.301
                      10    8 Sep 2021 11:33:53.633    8 Sep 2021 12:11:34.934          2261.301
                      11    8 Sep 2021 12:26:25.222    8 Sep 2021 13:04:06.523          2261.301
                      12    8 Sep 2021 13:18:56.810    8 Sep 2021 13:56:38.111          2261.301
                      13    8 Sep 2021 14:11:28.398    8 Sep 2021 14:49:09.700          2261.301
                      14    8 Sep 2021 15:03:59.987    8 Sep 2021 15:41:41.288          2261.301
                      15    8 Sep 2021 15:56:31.575    8 Sep 2021 16:34:12.876          2261.301
                      16    8 Sep 2021 16:49:03.164    8 Sep 2021 17:26:44.465          2261.301
                      17    8 Sep 2021 17:41:34.752    8 Sep 2021 18:19:16.053          2261.301
                      18    8 Sep 2021 18:34:06.340    8 Sep 2021 19:11:47.642          2261.301
                      19    8 Sep 2021 19:26:37.929    8 Sep 2021 20:04:19.230          2261.301
                      20    8 Sep 2021 20:19:09.517    8 Sep 2021 20:56:50.818          2261.301
                      21    8 Sep 2021 21:11:41.106    8 Sep 2021 21:49:22.407          2261.301
                      22    8 Sep 2021 22:04:12.694    8 Sep 2021 22:41:53.995          2261.301
                      23    8 Sep 2021 22:56:44.282    8 Sep 2021 23:34:25.584          2261.301
                      24    8 Sep 2021 23:49:15.871    9 Sep 2021 00:26:57.172          2261.301
                      25    9 Sep 2021 00:41:47.459    9 Sep 2021 01:19:28.760          2261.301
                      26    9 Sep 2021 01:34:19.047    9 Sep 2021 02:12:00.349          2261.301
                      27    9 Sep 2021 02:26:50.636    9 Sep 2021 03:04:31.937          2261.301
                      28    9 Sep 2021 03:19:22.224    9 Sep 2021 03:57:03.526          2261.301

Min Duration           1    8 Sep 2021 04:00:00.000    8 Sep 2021 04:18:50.638          1130.638
Max Duration           2    8 Sep 2021 04:33:40.926    8 Sep 2021 05:11:22.228          2261.302
Mean Duration                                                                           2220.920
Total Duration                                                                         62185.772


Satellite404-To-Satellite603
----------------------------
                  Access       Start Time (UTCG)           Stop Time (UTCG)       Duration (sec)
                  ------    -----------------------    -----------------------    --------------
                       1    8 Sep 2021 04:00:00.000    8 Sep 2021 04:09:37.970           577.970
                       2    8 Sep 2021 04:32:23.276    8 Sep 2021 05:02:09.557          1786.281
                       3    8 Sep 2021 05:24:54.868    8 Sep 2021 05:54:41.146          1786.279
                       4    8 Sep 2021 06:17:26.453    8 Sep 2021 06:47:12.734          1786.281
                       5    8 Sep 2021 07:09:58.045    8 Sep 2021 07:39:44.323          1786.279
                       6    8 Sep 2021 08:02:29.630    8 Sep 2021 08:32:15.911          1786.281
                       7    8 Sep 2021 08:55:01.221    8 Sep 2021 09:24:47.500          1786.279
                       8    8 Sep 2021 09:47:32.807    8 Sep 2021 10:17:19.088          1786.281
                       9    8 Sep 2021 10:40:04.398    8 Sep 2021 11:09:50.677          1786.279
                      10    8 Sep 2021 11:32:35.984    8 Sep 2021 12:02:22.265          1786.281
                      11    8 Sep 2021 12:25:07.575    8 Sep 2021 12:54:53.854          1786.279
                      12    8 Sep 2021 13:17:39.160    8 Sep 2021 13:47:25.441          1786.281
                      13    8 Sep 2021 14:10:10.752    8 Sep 2021 14:39:57.030          1786.278
                      14    8 Sep 2021 15:02:42.337    8 Sep 2021 15:32:28.618          1786.281
                      15    8 Sep 2021 15:55:13.929    8 Sep 2021 16:25:00.207          1786.278
                      16    8 Sep 2021 16:47:45.514    8 Sep 2021 17:17:31.795          1786.281
                      17    8 Sep 2021 17:40:17.105    8 Sep 2021 18:10:03.384          1786.278
                      18    8 Sep 2021 18:32:48.691    8 Sep 2021 19:02:34.972          1786.281
                      19    8 Sep 2021 19:25:20.282    8 Sep 2021 19:55:06.561          1786.278
                      20    8 Sep 2021 20:17:51.868    8 Sep 2021 20:47:38.148          1786.281
                      21    8 Sep 2021 21:10:23.459    8 Sep 2021 21:40:09.738          1786.278
                      22    8 Sep 2021 22:02:55.044    8 Sep 2021 22:32:41.325          1786.281
                      23    8 Sep 2021 22:55:26.636    8 Sep 2021 23:25:12.914          1786.278
                      24    8 Sep 2021 23:47:58.221    9 Sep 2021 00:17:44.502          1786.281
                      25    9 Sep 2021 00:40:29.813    9 Sep 2021 01:10:16.091          1786.278
                      26    9 Sep 2021 01:33:01.398    9 Sep 2021 02:02:47.679          1786.281
                      27    9 Sep 2021 02:25:32.989    9 Sep 2021 02:55:19.268          1786.278
                      28    9 Sep 2021 03:18:04.575    9 Sep 2021 03:47:50.856          1786.281

Min Duration           1    8 Sep 2021 04:00:00.000    8 Sep 2021 04:09:37.970           577.970
Max Duration          28    9 Sep 2021 03:18:04.575    9 Sep 2021 03:47:50.856          1786.281
Mean Duration                                                                           1743.126
Total Duration                                                                         48807.523


Satellite404-To-Satellite604
----------------------------
                  Access       Start Time (UTCG)           Stop Time (UTCG)       Duration (sec)
                  ------    -----------------------    -----------------------    --------------
                       1    8 Sep 2021 04:38:04.056    8 Sep 2021 04:45:58.464           474.407
                       2    8 Sep 2021 05:30:35.642    8 Sep 2021 05:38:30.052           474.410
                       3    8 Sep 2021 06:23:07.229    8 Sep 2021 06:31:01.640           474.411
                       4    8 Sep 2021 07:15:38.819    8 Sep 2021 07:23:33.225           474.405
                       5    8 Sep 2021 08:08:10.406    8 Sep 2021 08:16:04.817           474.411
                       6    8 Sep 2021 09:00:41.995    8 Sep 2021 09:08:36.406           474.411
                       7    8 Sep 2021 09:53:13.584    8 Sep 2021 10:01:07.992           474.409
                       8    8 Sep 2021 10:45:45.174    8 Sep 2021 10:53:39.582           474.407
                       9    8 Sep 2021 11:38:16.764    8 Sep 2021 11:46:11.171           474.407
                      10    8 Sep 2021 12:30:48.349    8 Sep 2021 12:38:42.759           474.411
                      11    8 Sep 2021 13:23:19.937    8 Sep 2021 13:31:14.348           474.411
                      12    8 Sep 2021 14:15:51.525    8 Sep 2021 14:23:45.933           474.408
                      13    8 Sep 2021 15:08:23.113    8 Sep 2021 15:16:17.525           474.411
                      14    8 Sep 2021 16:00:54.702    8 Sep 2021 16:08:49.113           474.411
                      15    8 Sep 2021 16:53:26.291    8 Sep 2021 17:01:20.700           474.408
                      16    8 Sep 2021 17:45:57.883    8 Sep 2021 17:53:52.289           474.406
                      17    8 Sep 2021 18:38:29.472    8 Sep 2021 18:46:23.878           474.406
                      18    8 Sep 2021 19:31:01.056    8 Sep 2021 19:38:55.462           474.407
                      19    8 Sep 2021 20:23:32.647    8 Sep 2021 20:31:27.054           474.407
                      20    8 Sep 2021 21:16:04.233    8 Sep 2021 21:23:58.642           474.410
                      21    8 Sep 2021 22:08:35.821    8 Sep 2021 22:16:30.232           474.411
                      22    8 Sep 2021 23:01:07.409    8 Sep 2021 23:09:01.820           474.411
                      23    8 Sep 2021 23:53:38.999    9 Sep 2021 00:01:33.407           474.408
                      24    9 Sep 2021 00:46:10.588    9 Sep 2021 00:54:04.996           474.408
                      25    9 Sep 2021 01:38:42.176    9 Sep 2021 01:46:36.585           474.410
                      26    9 Sep 2021 02:31:13.763    9 Sep 2021 02:39:08.172           474.409
                      27    9 Sep 2021 03:23:45.356    9 Sep 2021 03:31:39.757           474.402

Min Duration          27    9 Sep 2021 03:23:45.356    9 Sep 2021 03:31:39.757           474.402
Max Duration           5    8 Sep 2021 08:08:10.406    8 Sep 2021 08:16:04.817           474.411
Mean Duration                                                                            474.409
Total Duration                                                                         12809.034


Satellite404-To-Satellite610
----------------------------
                  Access       Start Time (UTCG)           Stop Time (UTCG)       Duration (sec)
                  ------    -----------------------    -----------------------    --------------
                       1    8 Sep 2021 04:06:37.468    8 Sep 2021 04:14:23.143           465.675
                       2    8 Sep 2021 04:59:09.059    8 Sep 2021 05:06:54.731           465.672
                       3    8 Sep 2021 05:51:40.649    8 Sep 2021 05:59:26.319           465.670
                       4    8 Sep 2021 06:44:12.235    8 Sep 2021 06:51:57.907           465.672
                       5    8 Sep 2021 07:36:43.822    8 Sep 2021 07:44:29.496           465.675
                       6    8 Sep 2021 08:29:15.410    8 Sep 2021 08:37:01.085           465.675
                       7    8 Sep 2021 09:21:47.003    8 Sep 2021 09:29:32.669           465.666
                       8    8 Sep 2021 10:14:18.587    8 Sep 2021 10:22:04.258           465.671
                       9    8 Sep 2021 11:06:50.175    8 Sep 2021 11:14:35.850           465.675
                      10    8 Sep 2021 11:59:21.766    8 Sep 2021 12:07:07.438           465.672
                      11    8 Sep 2021 12:51:53.356    8 Sep 2021 12:59:39.026           465.670
                      12    8 Sep 2021 13:44:24.942    8 Sep 2021 13:52:10.614           465.672
                      13    8 Sep 2021 14:36:56.529    8 Sep 2021 14:44:42.203           465.675
                      14    8 Sep 2021 15:29:28.117    8 Sep 2021 15:37:13.791           465.674
                      15    8 Sep 2021 16:21:59.710    8 Sep 2021 16:29:45.378           465.668
                      16    8 Sep 2021 17:14:31.294    8 Sep 2021 17:22:16.964           465.671
                      17    8 Sep 2021 18:07:02.883    8 Sep 2021 18:14:48.557           465.675
                      18    8 Sep 2021 18:59:34.473    8 Sep 2021 19:07:20.145           465.672
                      19    8 Sep 2021 19:52:06.063    8 Sep 2021 19:59:51.733           465.671
                      20    8 Sep 2021 20:44:37.649    8 Sep 2021 20:52:23.321           465.672
                      21    8 Sep 2021 21:37:09.236    8 Sep 2021 21:44:54.911           465.675
                      22    8 Sep 2021 22:29:40.824    8 Sep 2021 22:37:26.498           465.674
                      23    8 Sep 2021 23:22:12.417    8 Sep 2021 23:29:58.088           465.670
                      24    9 Sep 2021 00:14:44.001    9 Sep 2021 00:22:29.676           465.675
                      25    9 Sep 2021 01:07:15.590    9 Sep 2021 01:15:01.264           465.674
                      26    9 Sep 2021 01:59:47.181    9 Sep 2021 02:07:32.852           465.672
                      27    9 Sep 2021 02:52:18.770    9 Sep 2021 03:00:04.440           465.671
                      28    9 Sep 2021 03:44:50.356    9 Sep 2021 03:52:36.028           465.672

Min Duration           7    8 Sep 2021 09:21:47.003    8 Sep 2021 09:29:32.669           465.666
Max Duration          24    9 Sep 2021 00:14:44.001    9 Sep 2021 00:22:29.676           465.675
Mean Duration                                                                            465.672
Total Duration                                                                         13038.824


Satellite404-To-Satellite701
----------------------------
                  Access       Start Time (UTCG)           Stop Time (UTCG)       Duration (sec)
                  ------    -----------------------    -----------------------    --------------
                       1    8 Sep 2021 04:00:00.000    8 Sep 2021 04:17:01.361          1021.361
                       2    8 Sep 2021 04:44:41.732    8 Sep 2021 05:09:32.952          1491.221
                       3    8 Sep 2021 05:37:13.316    8 Sep 2021 06:02:04.537          1491.221
