routing/visibility/v405.txt

Satellite405-To-Satellite101
----------------------------
                  Access       Start Time (UTCG)           Stop Time (UTCG)       Duration (sec)
                  ------    -----------------------    -----------------------    --------------
                       1    8 Sep 2021 04:00:19.705    8 Sep 2021 04:06:14.219           354.515
                       2    8 Sep 2021 04:52:51.293    8 Sep 2021 04:58:45.803           354.510
                       3    8 Sep 2021 05:45:22.885    8 Sep 2021 05:51:17.395           354.510
                       4    8 Sep 2021 06:37:54.474    8 Sep 2021 06:43:48.984           354.510
                       5    8 Sep 2021 07:30:26.058    8 Sep 2021 07:36:20.573           354.514
                       6    8 Sep 2021 08:22:57.647    8 Sep 2021 08:28:52.158           354.511
                       7    8 Sep 2021 09:15:29.239    8 Sep 2021 09:21:23.749           354.511
                       8    8 Sep 2021 10:08:00.823    8 Sep 2021 10:13:55.338           354.515
                       9    8 Sep 2021 11:00:32.412    8 Sep 2021 11:06:26.922           354.510
                      10    8 Sep 2021 11:53:04.003    8 Sep 2021 11:58:58.514           354.511
                      11    8 Sep 2021 12:45:35.593    8 Sep 2021 12:51:30.103           354.511
                      12    8 Sep 2021 13:38:07.177    8 Sep 2021 13:44:01.691           354.514
                      13    8 Sep 2021 14:30:38.766    8 Sep 2021 14:36:33.277           354.511
                      14    8 Sep 2021 15:23:10.357    8 Sep 2021 15:29:04.868           354.511
                      15    8 Sep 2021 16:15:41.942    8 Sep 2021 16:21:36.457           354.515
                      16    8 Sep 2021 17:08:13.531    8 Sep 2021 17:14:08.040           354.510
                      17    8 Sep 2021 18:00:45.122    8 Sep 2021 18:06:39.632           354.511
                      18    8 Sep 2021 18:53:16.711    8 Sep 2021 18:59:11.222           354.511
                      19    8 Sep 2021 19:45:48.297    8 Sep 2021 19:51:42.810           354.514
                      20    8 Sep 2021 20:38:19.884    8 Sep 2021 20:44:14.395           354.511
                      21    8 Sep 2021 21:30:51.476    8 Sep 2021 21:36:45.987           354.511
                      22    8 Sep 2021 22:23:23.061    8 Sep 2021 22:29:17.576           354.515
                      23    8 Sep 2021 23:15:54.649    8 Sep 2021 23:21:49.161           354.512
                      24    9 Sep 2021 00:08:26.240    9 Sep 2021 00:14:20.751           354.511
                      25    9 Sep 2021 01:00:57.830    9 Sep 2021 01:06:52.341           354.511
                      26    9 Sep 2021 01:53:29.415    9 Sep 2021 01:59:23.929           354.513
                      27    9 Sep 2021 02:46:01.003    9 Sep 2021 02:51:55.514           354.511
                      28    9 Sep 2021 03:38:32.594    9 Sep 2021 03:44:27.105           354.511

Min Duration          16    8 Sep 2021 17:08:13.531    8 Sep 2021 17:14:08.040           354.510
Max Duration           8    8 Sep 2021 10:08:00.823    8 Sep 2021 10:13:55.338           354.515
Mean Duration                                                                            354.512
Total Duration                                                                          9926.328


Satellite405-To-Satellite106
----------------------------
                  Access       Start Time (UTCG)           Stop Time (UTCG)       Duration (sec)
                  ------    -----------------------    -----------------------    --------------
                       1    8 Sep 2021 04:26:01.992    8 Sep 2021 04:33:03.524           421.532
                       2    8 Sep 2021 05:18:33.576    8 Sep 2021 05:25:35.110           421.534
                       3    8 Sep 2021 06:11:05.168    8 Sep 2021 06:18:06.701           421.533
                       4    8 Sep 2021 07:03:36.753    8 Sep 2021 07:10:38.290           421.537
                       5    8 Sep 2021 07:56:08.344    8 Sep 2021 08:03:09.877           421.533
                       6    8 Sep 2021 08:48:39.930    8 Sep 2021 08:55:41.467           421.537
                       7    8 Sep 2021 09:41:11.520    8 Sep 2021 09:48:13.054           421.534
                       8    8 Sep 2021 10:33:43.107    8 Sep 2021 10:40:44.643           421.537
                       9    8 Sep 2021 11:26:14.696    8 Sep 2021 11:33:16.232           421.536
                      10    8 Sep 2021 12:18:46.284    8 Sep 2021 12:25:47.820           421.536
                      11    8 Sep 2021 13:11:17.872    8 Sep 2021 13:18:19.408           421.536
                      12    8 Sep 2021 14:03:49.463    8 Sep 2021 14:10:50.997           421.534
                      13    8 Sep 2021 14:56:21.048    8 Sep 2021 15:03:22.585           421.537
                      14    8 Sep 2021 15:48:52.639    8 Sep 2021 15:55:54.173           421.534
                      15    8 Sep 2021 16:41:24.225    8 Sep 2021 16:48:25.762           421.537
                      16    8 Sep 2021 17:33:55.818    8 Sep 2021 17:40:57.350           421.532
                      17    8 Sep 2021 18:26:27.402    8 Sep 2021 18:33:28.936           421.534
                      18    8 Sep 2021 19:18:58.994    8 Sep 2021 19:26:00.527           421.533
                      19    8 Sep 2021 20:11:30.579    8 Sep 2021 20:18:32.116           421.537
                      20    8 Sep 2021 21:04:02.170    8 Sep 2021 21:11:03.703           421.533
                      21    8 Sep 2021 21:56:33.756    8 Sep 2021 22:03:35.292           421.537
                      22    8 Sep 2021 22:49:05.346    8 Sep 2021 22:56:06.880           421.534
                      23    8 Sep 2021 23:41:36.933    8 Sep 2021 23:48:38.469           421.537
                      24    9 Sep 2021 00:34:08.522    9 Sep 2021 00:41:10.057           421.536
                      25    9 Sep 2021 01:26:40.110    9 Sep 2021 01:33:41.646           421.536
                      26    9 Sep 2021 02:19:11.698    9 Sep 2021 02:26:13.234           421.536
                      27    9 Sep 2021 03:11:43.289    9 Sep 2021 03:18:44.823           421.534

Min Duration          16    8 Sep 2021 17:33:55.818    8 Sep 2021 17:40:57.350           421.532
Max Duration          15    8 Sep 2021 16:41:24.225    8 Sep 2021 16:48:25.762           421.537
Mean Duration                                                                            421.535
Total Duration                                                                         11381.445


Satellite405-To-Satellite107
----------------------------
                  Access       Start Time (UTCG)           Stop Time (UTCG)       Duration (sec)
                  ------    -----------------------    -----------------------    --------------
                       1    8 Sep 2021 04:14:35.586    8 Sep 2021 04:33:59.609          1164.024
                       2    8 Sep 2021 05:07:07.174    8 Sep 2021 05:26:31.197          1164.023
                       3    8 Sep 2021 05:59:38.761    8 Sep 2021 06:19:02.786          1164.024
                       4    8 Sep 2021 06:52:10.350    8 Sep 2021 07:11:34.376          1164.025
                       5    8 Sep 2021 07:44:41.939    8 Sep 2021 08:04:05.964          1164.024
                       6    8 Sep 2021 08:37:13.525    8 Sep 2021 08:56:37.551          1164.026
                       7    8 Sep 2021 09:29:45.115    8 Sep 2021 09:49:09.140          1164.025
                       8    8 Sep 2021 10:22:16.700    8 Sep 2021 10:41:40.729          1164.029
                       9    8 Sep 2021 11:14:48.293    8 Sep 2021 11:34:12.318          1164.025
                      10    8 Sep 2021 12:07:19.880    8 Sep 2021 12:26:43.909          1164.028
                      11    8 Sep 2021 12:59:51.468    8 Sep 2021 13:19:15.495          1164.026
                      12    8 Sep 2021 13:52:23.058    8 Sep 2021 14:11:47.083          1164.024
                      13    8 Sep 2021 14:44:54.644    8 Sep 2021 15:04:18.670          1164.026
                      14    8 Sep 2021 15:37:26.233    8 Sep 2021 15:56:50.258          1164.025
                      15    8 Sep 2021 16:29:57.822    8 Sep 2021 16:49:21.849          1164.027
                      16    8 Sep 2021 17:22:29.412    8 Sep 2021 17:41:53.436          1164.024
                      17    8 Sep 2021 18:15:00.998    8 Sep 2021 18:34:25.024          1164.026
                      18    8 Sep 2021 19:07:32.587    8 Sep 2021 19:26:56.612          1164.025
                      19    8 Sep 2021 20:00:04.175    8 Sep 2021 20:19:28.201          1164.026
                      20    8 Sep 2021 20:52:35.765    8 Sep 2021 21:11:59.788          1164.023
                      21    8 Sep 2021 21:45:07.353    8 Sep 2021 22:04:31.381          1164.029
                      22    8 Sep 2021 22:37:38.941    8 Sep 2021 22:57:02.967          1164.026
                      23    8 Sep 2021 23:30:10.531    8 Sep 2021 23:49:34.555          1164.024
                      24    9 Sep 2021 00:22:42.116    9 Sep 2021 00:42:06.142          1164.026
                      25    9 Sep 2021 01:15:13.706    9 Sep 2021 01:34:37.731          1164.025
                      26    9 Sep 2021 02:07:45.294    9 Sep 2021 02:27:09.321          1164.027
                      27    9 Sep 2021 03:00:16.884    9 Sep 2021 03:19:40.908          1164.024
                      28    9 Sep 2021 03:52:48.471    9 Sep 2021 04:00:00.000           431.529

Min Duration          28    9 Sep 2021 03:52:48.471    9 Sep 2021 04:00:00.000           431.529
Max Duration           8    8 Sep 2021 10:22:16.700    8 Sep 2021 10:41:40.729          1164.029
Mean Duration                                                                           1137.865
Total Duration                                                                         31860.216


Satellite405-To-Satellite108
----------------------------
                  Access       Start Time (UTCG)           Stop Time (UTCG)       Duration (sec)
                  ------    -----------------------    -----------------------    --------------
                       1    8 Sep 2021 04:06:36.831    8 Sep 2021 04:31:28.046          1491.216
                       2    8 Sep 2021 04:59:08.417    8 Sep 2021 05:23:59.639          1491.222
                       3    8 Sep 2021 05:51:40.003    8 Sep 2021 06:16:31.224          1491.221
                       4    8 Sep 2021 06:44:11.595    8 Sep 2021 07:09:02.816          1491.221
                       5    8 Sep 2021 07:36:43.180    8 Sep 2021 08:01:34.400          1491.221
                       6    8 Sep 2021 08:29:14.772    8 Sep 2021 08:54:05.993          1491.221
                       7    8 Sep 2021 09:21:46.356    8 Sep 2021 09:46:37.577          1491.221
                       8    8 Sep 2021 10:14:17.949    8 Sep 2021 10:39:09.170          1491.221
                       9    8 Sep 2021 11:06:49.533    8 Sep 2021 11:31:40.754          1491.221
                      10    8 Sep 2021 11:59:21.125    8 Sep 2021 12:24:12.346          1491.221
                      11    8 Sep 2021 12:51:52.710    8 Sep 2021 13:16:43.931          1491.221
                      12    8 Sep 2021 13:44:24.302    8 Sep 2021 14:09:15.523          1491.221
                      13    8 Sep 2021 14:36:55.887    8 Sep 2021 15:01:47.108          1491.221
                      14    8 Sep 2021 15:29:27.479    8 Sep 2021 15:54:18.700          1491.221
                      15    8 Sep 2021 16:21:59.064    8 Sep 2021 16:46:50.284          1491.221
                      16    8 Sep 2021 17:14:30.656    8 Sep 2021 17:39:21.877          1491.221
                      17    8 Sep 2021 18:07:02.240    8 Sep 2021 18:31:53.461          1491.221
                      18    8 Sep 2021 18:59:33.833    8 Sep 2021 19:24:25.054          1491.221
                      19    8 Sep 2021 19:52:05.417    8 Sep 2021 20:16:56.638          1491.221
                      20    8 Sep 2021 20:44:37.009    8 Sep 2021 21:09:28.230          1491.221
                      21    8 Sep 2021 21:37:08.594    8 Sep 2021 22:01:59.815          1491.221
                      22    8 Sep 2021 22:29:40.186    8 Sep 2021 22:54:31.407          1491.221
                      23    8 Sep 2021 23:22:11.771    8 Sep 2021 23:47:02.992          1491.221
                      24    9 Sep 2021 00:14:43.363    9 Sep 2021 00:39:34.584          1491.221
                      25    9 Sep 2021 01:07:14.948    9 Sep 2021 01:32:06.168          1491.221
                      26    9 Sep 2021 01:59:46.540    9 Sep 2021 02:24:37.761          1491.221
                      27    9 Sep 2021 02:52:18.124    9 Sep 2021 03:17:09.345          1491.221
                      28    9 Sep 2021 03:44:49.716    9 Sep 2021 04:00:00.000           910.284

Min Duration          28    9 Sep 2021 03:44:49.716    9 Sep 2021 04:00:00.000           910.284
Max Duration           2    8 Sep 2021 04:59:08.417    8 Sep 2021 05:23:59.639          1491.222
Mean Duration                                                                           1470.473
Total Duration                                                                         41173.243


Satellite405-To-Satellite109
----------------------------
                  Access       Start Time (UTCG)           Stop Time (UTCG)       Duration (sec)
                  ------    -----------------------    -----------------------    --------------
                       1    8 Sep 2021 04:01:24.645    8 Sep 2021 04:26:09.918          1485.273
                       2    8 Sep 2021 04:53:56.229    8 Sep 2021 05:18:41.502          1485.273
                       3    8 Sep 2021 05:46:27.821    8 Sep 2021 06:11:13.094          1485.274
                       4    8 Sep 2021 06:38:59.410    8 Sep 2021 07:03:44.679          1485.269
                       5    8 Sep 2021 07:31:30.997    8 Sep 2021 07:56:16.271          1485.274
                       6    8 Sep 2021 08:24:02.587    8 Sep 2021 08:48:47.856          1485.269
                       7    8 Sep 2021 09:16:34.174    8 Sep 2021 09:41:19.448          1485.274
                       8    8 Sep 2021 10:09:05.764    8 Sep 2021 10:33:51.033          1485.268
                       9    8 Sep 2021 11:01:37.351    8 Sep 2021 11:26:22.625          1485.274
                      10    8 Sep 2021 11:54:08.941    8 Sep 2021 12:18:54.209          1485.268
                      11    8 Sep 2021 12:46:40.528    8 Sep 2021 13:11:25.801          1485.274
                      12    8 Sep 2021 13:39:12.118    8 Sep 2021 14:03:57.386          1485.268
                      13    8 Sep 2021 14:31:43.704    8 Sep 2021 14:56:28.978          1485.274
                      14    8 Sep 2021 15:24:15.295    8 Sep 2021 15:49:00.563          1485.268
                      15    8 Sep 2021 16:16:46.881    8 Sep 2021 16:41:32.155          1485.274
                      16    8 Sep 2021 17:09:18.471    8 Sep 2021 17:34:03.740          1485.268
                      17    8 Sep 2021 18:01:50.058    8 Sep 2021 18:26:35.332          1485.274
                      18    8 Sep 2021 18:54:21.648    8 Sep 2021 19:19:06.917          1485.268
                      19    8 Sep 2021 19:46:53.235    8 Sep 2021 20:11:38.509          1485.274
                      20    8 Sep 2021 20:39:24.825    8 Sep 2021 21:04:10.093          1485.268
                      21    8 Sep 2021 21:31:56.411    8 Sep 2021 21:56:41.685          1485.274
                      22    8 Sep 2021 22:24:28.002    8 Sep 2021 22:49:13.270          1485.268
                      23    8 Sep 2021 23:16:59.588    8 Sep 2021 23:41:44.862          1485.274
                      24    9 Sep 2021 00:09:31.179    9 Sep 2021 00:34:16.447          1485.268
                      25    9 Sep 2021 01:02:02.765    9 Sep 2021 01:26:48.039          1485.274
                      26    9 Sep 2021 01:54:34.355    9 Sep 2021 02:19:19.624          1485.268
                      27    9 Sep 2021 02:47:05.942    9 Sep 2021 03:11:51.216          1485.274
                      28    9 Sep 2021 03:39:37.532    9 Sep 2021 04:00:00.000          1222.468

Min Duration          28    9 Sep 2021 03:39:37.532    9 Sep 2021 04:00:00.000          1222.468
Max Duration          27    9 Sep 2021 02:47:05.942    9 Sep 2021 03:11:51.216          1485.274
Mean Duration                                                                           1475.886
Total Duration                                                                         41324.796


Satellite405-To-Satellite110
----------------------------
                  Access       Start Time (UTCG)           Stop Time (UTCG)       Duration (sec)
                  ------    -----------------------    -----------------------    --------------
                       1    8 Sep 2021 04:00:00.000    8 Sep 2021 04:18:04.603          1084.603
                       2    8 Sep 2021 04:51:31.227    8 Sep 2021 05:10:36.194          1144.967
                       3    8 Sep 2021 05:44:02.815    8 Sep 2021 06:03:07.781          1144.966
                       4    8 Sep 2021 06:36:34.404    8 Sep 2021 06:55:39.370          1144.966
                       5    8 Sep 2021 07:29:05.992    8 Sep 2021 07:48:10.957          1144.965
                       6    8 Sep 2021 08:21:37.581    8 Sep 2021 08:40:42.547          1144.966
                       7    8 Sep 2021 09:14:09.169    8 Sep 2021 09:33:14.135          1144.966
                       8    8 Sep 2021 10:06:40.754    8 Sep 2021 10:25:45.724          1144.970
                       9    8 Sep 2021 10:59:12.342    8 Sep 2021 11:18:17.312          1144.969
                      10    8 Sep 2021 11:51:43.931    8 Sep 2021 12:10:48.900          1144.969
                      11    8 Sep 2021 12:44:15.520    8 Sep 2021 13:03:20.489          1144.969
                      12    8 Sep 2021 13:36:47.108    8 Sep 2021 13:55:52.077          1144.969
                      13    8 Sep 2021 14:29:18.697    8 Sep 2021 14:48:23.665          1144.968
                      14    8 Sep 2021 15:21:50.285    8 Sep 2021 15:40:55.254          1144.968
                      15    8 Sep 2021 16:14:21.874    8 Sep 2021 16:33:26.842          1144.968
                      16    8 Sep 2021 17:06:53.462    8 Sep 2021 17:25:58.431          1144.968
                      17    8 Sep 2021 17:59:25.051    8 Sep 2021 18:18:30.019          1144.968
                      18    8 Sep 2021 18:51:56.639    8 Sep 2021 19:11:01.607          1144.968
                      19    8 Sep 2021 19:44:28.227    8 Sep 2021 20:03:33.196          1144.968
                      20    8 Sep 2021 20:36:59.816    8 Sep 2021 20:56:04.784          1144.968
                      21    8 Sep 2021 21:29:31.404    8 Sep 2021 21:48:36.373          1144.968
                      22    8 Sep 2021 22:22:02.993    8 Sep 2021 22:41:07.961          1144.968
                      23    8 Sep 2021 23:14:34.581    8 Sep 2021 23:33:39.549          1144.968
                      24    9 Sep 2021 00:07:06.169    9 Sep 2021 00:26:11.138          1144.968
                      25    9 Sep 2021 00:59:37.758    9 Sep 2021 01:18:42.726          1144.968
                      26    9 Sep 2021 01:52:09.346    9 Sep 2021 02:11:14.314          1144.968
                      27    9 Sep 2021 02:44:40.935    9 Sep 2021 03:03:45.903          1144.968
                      28    9 Sep 2021 03:37:12.523    9 Sep 2021 03:56:17.491          1144.968

Min Duration           1    8 Sep 2021 04:00:00.000    8 Sep 2021 04:18:04.603          1084.603
Max Duration           8    8 Sep 2021 10:06:40.754    8 Sep 2021 10:25:45.724          1144.970
Mean Duration                                                                           1142.812
Total Duration                                                                         31998.737


Satellite405-To-Satellite205
----------------------------
                  Access       Start Time (UTCG)           Stop Time (UTCG)       Duration (sec)
                  ------    -----------------------    -----------------------    --------------
                       1    8 Sep 2021 04:30:11.314    8 Sep 2021 04:38:05.726           474.411
                       2    8 Sep 2021 05:22:42.903    8 Sep 2021 05:30:37.311           474.408
                       3    8 Sep 2021 06:15:14.491    8 Sep 2021 06:23:08.902           474.411
                       4    8 Sep 2021 07:07:46.080    8 Sep 2021 07:15:40.491           474.411
                       5    8 Sep 2021 08:00:17.669    8 Sep 2021 08:08:12.077           474.408
                       6    8 Sep 2021 08:52:49.260    8 Sep 2021 09:00:43.667           474.406
                       7    8 Sep 2021 09:45:20.849    8 Sep 2021 09:53:15.256           474.406
                       8    8 Sep 2021 10:37:52.433    8 Sep 2021 10:45:46.840           474.407
                       9    8 Sep 2021 11:30:24.025    8 Sep 2021 11:38:18.432           474.407
                      10    8 Sep 2021 12:22:55.610    8 Sep 2021 12:30:50.020           474.410
                      11    8 Sep 2021 13:15:27.198    8 Sep 2021 13:23:21.609           474.411
                      12    8 Sep 2021 14:07:58.787    8 Sep 2021 14:15:53.198           474.411
                      13    8 Sep 2021 15:00:30.377    8 Sep 2021 15:08:24.785           474.408
                      14    8 Sep 2021 15:53:01.966    8 Sep 2021 16:00:56.374           474.408
                      15    8 Sep 2021 16:45:33.553    8 Sep 2021 16:53:27.963           474.410
                      16    8 Sep 2021 17:38:05.140    8 Sep 2021 17:45:59.550           474.409
                      17    8 Sep 2021 18:30:36.733    8 Sep 2021 18:38:31.135           474.402
                      18    8 Sep 2021 19:23:08.319    8 Sep 2021 19:31:02.728           474.410
                      19    8 Sep 2021 20:15:39.905    8 Sep 2021 20:23:34.317           474.411
                      20    8 Sep 2021 21:08:11.494    8 Sep 2021 21:16:05.905           474.410
                      21    8 Sep 2021 22:00:43.084    8 Sep 2021 22:08:37.492           474.408
                      22    8 Sep 2021 22:53:14.674    8 Sep 2021 23:01:09.081           474.408
                      23    8 Sep 2021 23:45:46.260    8 Sep 2021 23:53:40.670           474.410
                      24    9 Sep 2021 00:38:17.847    9 Sep 2021 00:46:12.258           474.411
                      25    9 Sep 2021 01:30:49.438    9 Sep 2021 01:38:43.843           474.405
                      26    9 Sep 2021 02:23:21.028    9 Sep 2021 02:31:15.435           474.407
                      27    9 Sep 2021 03:15:52.613    9 Sep 2021 03:23:47.024           474.411

Min Duration          17    8 Sep 2021 18:30:36.733    8 Sep 2021 18:38:31.135           474.402
Max Duration           3    8 Sep 2021 06:15:14.491    8 Sep 2021 06:23:08.902           474.411
Mean Duration                                                                            474.409
Total Duration                                                                         12809.036


Satellite405-To-Satellite206
----------------------------
                  Access       Start Time (UTCG)           Stop Time (UTCG)       Duration (sec)
                  ------    -----------------------    -----------------------    --------------
                       1    8 Sep 2021 04:14:00.223    8 Sep 2021 04:43:46.502          1786.279
                       2    8 Sep 2021 05:06:31.809    8 Sep 2021 05:36:18.090          1786.281
                       3    8 Sep 2021 05:59:03.400    8 Sep 2021 06:28:49.679          1786.279
                       4    8 Sep 2021 06:51:34.986    8 Sep 2021 07:21:21.267          1786.281
                       5    8 Sep 2021 07:44:06.577    8 Sep 2021 08:13:52.856          1786.279
                       6    8 Sep 2021 08:36:38.162    8 Sep 2021 09:06:24.443          1786.281
                       7    8 Sep 2021 09:29:09.754    8 Sep 2021 09:58:56.032          1786.279
                       8    8 Sep 2021 10:21:41.339    8 Sep 2021 10:51:27.620          1786.281
                       9    8 Sep 2021 11:14:12.931    8 Sep 2021 11:43:59.209          1786.279
                      10    8 Sep 2021 12:06:44.516    8 Sep 2021 12:36:30.797          1786.281
                      11    8 Sep 2021 12:59:16.108    8 Sep 2021 13:29:02.386          1786.279
                      12    8 Sep 2021 13:51:47.693    8 Sep 2021 14:21:33.974          1786.281
                      13    8 Sep 2021 14:44:19.284    8 Sep 2021 15:14:05.563          1786.279
                      14    8 Sep 2021 15:36:50.870    8 Sep 2021 16:06:37.151          1786.281
                      15    8 Sep 2021 16:29:22.461    8 Sep 2021 16:59:08.740          1786.278
                      16    8 Sep 2021 17:21:54.046    8 Sep 2021 17:51:40.327          1786.281
                      17    8 Sep 2021 18:14:25.638    8 Sep 2021 18:44:11.916          1786.278
                      18    8 Sep 2021 19:06:57.223    8 Sep 2021 19:36:43.504          1786.281
                      19    8 Sep 2021 19:59:28.815    8 Sep 2021 20:29:15.093          1786.278
                      20    8 Sep 2021 20:52:00.400    8 Sep 2021 21:21:46.681          1786.281
                      21    8 Sep 2021 21:44:31.992    8 Sep 2021 22:14:18.270          1786.278
                      22    8 Sep 2021 22:37:03.577    8 Sep 2021 23:06:49.858          1786.281
                      23    8 Sep 2021 23:29:35.168    8 Sep 2021 23:59:21.447          1786.278
                      24    9 Sep 2021 00:22:06.754    9 Sep 2021 00:51:53.035          1786.281
                      25    9 Sep 2021 01:14:38.345    9 Sep 2021 01:44:24.624          1786.278
                      26    9 Sep 2021 02:07:09.930    9 Sep 2021 02:36:56.211          1786.281
                      27    9 Sep 2021 02:59:41.522    9 Sep 2021 03:29:27.800          1786.278
                      28    9 Sep 2021 03:52:13.107    9 Sep 2021 04:00:00.000           466.893

Min Duration          28    9 Sep 2021 03:52:13.107    9 Sep 2021 04:00:00.000           466.893
Max Duration          26    9 Sep 2021 02:07:09.930    9 Sep 2021 02:36:56.211          1786.281
Mean Duration                                                                           1739.159
Total Duration                                                                         48696.445


Satellite405-To-Satellite207
----------------------------
                  Access       Start Time (UTCG)           Stop Time (UTCG)       Duration (sec)
                  ------    -----------------------    -----------------------    --------------
                       1    8 Sep 2021 04:04:47.550    8 Sep 2021 04:42:28.854          2261.303
                       2    8 Sep 2021 04:57:19.141    8 Sep 2021 05:35:00.442          2261.301
                       3    8 Sep 2021 05:49:50.729    8 Sep 2021 06:27:32.030          2261.301
                       4    8 Sep 2021 06:42:22.318    8 Sep 2021 07:20:03.619          2261.301
                       5    8 Sep 2021 07:34:53.906    8 Sep 2021 08:12:35.207          2261.301
                       6    8 Sep 2021 08:27:25.494    8 Sep 2021 09:05:06.796          2261.301
                       7    8 Sep 2021 09:19:57.083    8 Sep 2021 09:57:38.384          2261.301
                       8    8 Sep 2021 10:12:28.671    8 Sep 2021 10:50:09.972          2261.301
                       9    8 Sep 2021 11:05:00.260    8 Sep 2021 11:42:41.561          2261.301
                      10    8 Sep 2021 11:57:31.848    8 Sep 2021 12:35:13.149          2261.301
                      11    8 Sep 2021 12:50:03.436    8 Sep 2021 13:27:44.738          2261.301
                      12    8 Sep 2021 13:42:35.025    8 Sep 2021 14:20:16.326          2261.301
                      13    8 Sep 2021 14:35:06.613    8 Sep 2021 15:12:47.914          2261.301
                      14    8 Sep 2021 15:27:38.202    8 Sep 2021 16:05:19.503          2261.301
                      15    8 Sep 2021 16:20:09.790    8 Sep 2021 16:57:51.091          2261.301
                      16    8 Sep 2021 17:12:41.378    8 Sep 2021 17:50:22.680          2261.301
                      17    8 Sep 2021 18:05:12.967    8 Sep 2021 18:42:54.268          2261.301
                      18    8 Sep 2021 18:57:44.555    8 Sep 2021 19:35:25.856          2261.301
                      19    8 Sep 2021 19:50:16.144    8 Sep 2021 20:27:57.445          2261.301
                      20    8 Sep 2021 20:42:47.732    8 Sep 2021 21:20:29.033          2261.301
                      21    8 Sep 2021 21:35:19.320    8 Sep 2021 22:13:00.622          2261.301
                      22    8 Sep 2021 22:27:50.909    8 Sep 2021 23:05:32.210          2261.301
                      23    8 Sep 2021 23:20:22.497    8 Sep 2021 23:58:03.798          2261.301
                      24    9 Sep 2021 00:12:54.085    9 Sep 2021 00:50:35.387          2261.301
                      25    9 Sep 2021 01:05:25.674    9 Sep 2021 01:43:06.975          2261.301
                      26    9 Sep 2021 01:57:57.262    9 Sep 2021 02:35:38.564          2261.301
                      27    9 Sep 2021 02:50:28.851    9 Sep 2021 03:28:10.152          2261.301
                      28    9 Sep 2021 03:43:00.439    9 Sep 2021 04:00:00.000          1019.561

Min Duration          28    9 Sep 2021 03:43:00.439    9 Sep 2021 04:00:00.000          1019.561
Max Duration           1    8 Sep 2021 04:04:47.550    8 Sep 2021 04:42:28.854          2261.303
Mean Duration                                                                           2216.953
Total Duration                                                                         62074.697


Satellite405-To-Satellite208
----------------------------
                  Access       Start Time (UTCG)           Stop Time (UTCG)       Duration (sec)
                  ------    -----------------------    -----------------------    --------------
                       1    8 Sep 2021 04:03:27.201    8 Sep 2021 04:33:18.888          1791.687
                       2    8 Sep 2021 04:55:58.789    8 Sep 2021 05:25:50.476          1791.687
                       3    8 Sep 2021 05:48:30.377    8 Sep 2021 06:18:22.064          1791.687
                       4    8 Sep 2021 06:41:01.965    8 Sep 2021 07:10:53.652          1791.687
                       5    8 Sep 2021 07:33:33.553    8 Sep 2021 08:03:25.240          1791.687
                       6    8 Sep 2021 08:26:05.141    8 Sep 2021 08:55:56.828          1791.687
                       7    8 Sep 2021 09:18:36.730    8 Sep 2021 09:48:28.417          1791.687
                       8    8 Sep 2021 10:11:08.318    8 Sep 2021 10:41:00.005          1791.687
                       9    8 Sep 2021 11:03:39.906    8 Sep 2021 11:33:31.593          1791.687
                      10    8 Sep 2021 11:56:11.494    8 Sep 2021 12:26:03.181          1791.687
                      11    8 Sep 2021 12:48:43.083    8 Sep 2021 13:18:34.768          1791.686
                      12    8 Sep 2021 13:41:14.674    8 Sep 2021 14:11:06.357          1791.682
                      13    8 Sep 2021 14:33:46.263    8 Sep 2021 15:03:37.945          1791.682
                      14    8 Sep 2021 15:26:17.851    8 Sep 2021 15:56:09.538          1791.687
                      15    8 Sep 2021 16:18:49.439    8 Sep 2021 16:48:41.126          1791.687
                      16    8 Sep 2021 17:11:21.027    8 Sep 2021 17:41:12.714          1791.687
                      17    8 Sep 2021 18:03:52.616    8 Sep 2021 18:33:44.303          1791.687
                      18    8 Sep 2021 18:56:24.204    8 Sep 2021 19:26:15.891          1791.687
                      19    8 Sep 2021 19:48:55.792    8 Sep 2021 20:18:47.479          1791.687
                      20    8 Sep 2021 20:41:27.380    8 Sep 2021 21:11:19.067          1791.687
                      21    8 Sep 2021 21:33:58.968    8 Sep 2021 22:03:50.655          1791.687
                      22    8 Sep 2021 22:26:30.556    8 Sep 2021 22:56:22.243          1791.687
                      23    8 Sep 2021 23:19:02.144    8 Sep 2021 23:48:53.831          1791.687
                      24    9 Sep 2021 00:11:33.732    9 Sep 2021 00:41:25.419          1791.687
                      25    9 Sep 2021 01:04:05.321    9 Sep 2021 01:33:57.008          1791.687
                      26    9 Sep 2021 01:56:36.909    9 Sep 2021 02:26:28.596          1791.687
                      27    9 Sep 2021 02:49:08.497    9 Sep 2021 03:19:00.184          1791.687
                      28    9 Sep 2021 03:41:40.085    9 Sep 2021 04:00:00.000          1099.915

Min Duration          28    9 Sep 2021 03:41:40.085    9 Sep 2021 04:00:00.000          1099.915
Max Duration           1    8 Sep 2021 04:03:27.201    8 Sep 2021 04:33:18.888          1791.687
Mean Duration                                                                           1766.981
Total Duration                                                                         49475.455


Satellite405-To-Satellite209
----------------------------
                  Access       Start Time (UTCG)           Stop Time (UTCG)       Duration (sec)
                  ------    -----------------------    -----------------------    --------------
                       1    8 Sep 2021 04:09:15.048    8 Sep 2021 04:17:00.722           465.674
                       2    8 Sep 2021 05:01:46.636    8 Sep 2021 05:09:32.311           465.675
                       3    8 Sep 2021 05:54:18.224    8 Sep 2021 06:02:03.894           465.670
                       4    8 Sep 2021 06:46:49.813    8 Sep 2021 06:54:35.486           465.673
                       5    8 Sep 2021 07:39:21.401    8 Sep 2021 07:47:07.076           465.675
                       6    8 Sep 2021 08:31:52.990    8 Sep 2021 08:39:38.664           465.674
                       7    8 Sep 2021 09:24:24.582    8 Sep 2021 09:32:10.252           465.670
                       8    8 Sep 2021 10:16:56.168    8 Sep 2021 10:24:41.840           465.672
                       9    8 Sep 2021 11:09:27.755    8 Sep 2021 11:17:13.429           465.674
                      10    8 Sep 2021 12:01:59.343    8 Sep 2021 12:09:45.018           465.675
                      11    8 Sep 2021 12:54:30.931    8 Sep 2021 13:02:16.602           465.670
                      12    8 Sep 2021 13:47:02.520    8 Sep 2021 13:54:48.193           465.674
                      13    8 Sep 2021 14:39:34.108    8 Sep 2021 14:47:19.783           465.675
                      14    8 Sep 2021 15:32:05.697    8 Sep 2021 15:39:51.371           465.674
                      15    8 Sep 2021 16:24:37.289    8 Sep 2021 16:32:22.959           465.670
                      16    8 Sep 2021 17:17:08.875    8 Sep 2021 17:24:54.547           465.672
                      17    8 Sep 2021 18:09:40.462    8 Sep 2021 18:17:26.136           465.674
                      18    8 Sep 2021 19:02:12.050    8 Sep 2021 19:09:57.725           465.675
                      19    8 Sep 2021 19:54:43.638    8 Sep 2021 20:02:29.309           465.670
                      20    8 Sep 2021 20:47:15.227    8 Sep 2021 20:55:00.900           465.673
                      21    8 Sep 2021 21:39:46.815    8 Sep 2021 21:47:32.490           465.675
                      22    8 Sep 2021 22:32:18.405    8 Sep 2021 22:40:04.078           465.674
                      23    8 Sep 2021 23:24:49.996    8 Sep 2021 23:32:35.666           465.670
                      24    9 Sep 2021 00:17:21.582    9 Sep 2021 00:25:07.254           465.672
                      25    9 Sep 2021 01:09:53.169    9 Sep 2021 01:17:38.843           465.674
                      26    9 Sep 2021 02:02:24.757    9 Sep 2021 02:10:10.432           465.675
                      27    9 Sep 2021 02:54:56.346    9 Sep 2021 03:02:42.016           465.669
                      28    9 Sep 2021 03:47:27.934    9 Sep 2021 03:55:13.607           465.673

Min Duration          27    9 Sep 2021 02:54:56.346    9 Sep 2021 03:02:42.016           465.669
Max Duration          18    8 Sep 2021 19:02:12.050    8 Sep 2021 19:09:57.725           465.675
Mean Duration                                                                            465.673
Total Duration                                                                         13038.842


Satellite405-To-Satellite305
----------------------------
                  Access       Start Time (UTCG)           Stop Time (UTCG)       Duration (sec)
                  ------    -----------------------    -----------------------    --------------
                       1    8 Sep 2021 04:00:00.000    9 Sep 2021 04:00:00.000         86400.000

Min Duration           1    8 Sep 2021 04:00:00.000    9 Sep 2021 04:00:00.000         86400.000
Max Duration           1    8 Sep 2021 04:00:00.000    9 Sep 2021 04:00:00.000         86400.000
Mean Duration                                                                          86400.000
Total Duration                                                                         86400.000


Satellite405-To-Satellite306
----------------------------
                  Access       Start Time (UTCG)           Stop Time (UTCG)       Duration (sec)
                  ------    -----------------------    -----------------------    --------------
                       1    8 Sep 2021 04:00:00.000    9 Sep 2021 04:00:00.000         86400.000

Min Duration           1    8 Sep 2021 04:00:00.000    9 Sep 2021 04:00:00.000         86400.000
Max Duration           1    8 Sep 2021 04:00:00.000    9 Sep 2021 04:00:00.000         86400.000
Mean Duration                                                                          86400.000
Total Duration                                                                         86400.000


Satellite405-To-Satellite307
----------------------------
                  Access       Start Time (UTCG)           Stop Time (UTCG)       Duration (sec)
                  ------    -----------------------    -----------------------    --------------
                       1    8 Sep 2021 04:00:00.000    9 Sep 2021 04:00:00.000         86400.000

Min Duration           1    8 Sep 2021 04:00:00.000    9 Sep 2021 04:00:00.000         86400.000
Max Duration           1    8 Sep 2021 04:00:00.000    9 Sep 2021 04:00:00.000         86400.000
Mean Duration                                                                          86400.000
Total Duration                                                                         86400.000


Satellite405-To-Satellite404
----------------------------
                  Access       Start Time (UTCG)           Stop Time (UTCG)       Duration (sec)
                  ------    -----------------------    -----------------------    --------------
                       1    8 Sep 2021 04:00:00.000    9 Sep 2021 04:00:00.000         86400.000

Min Duration           1    8 Sep 2021 04:00:00.000    9 Sep 2021 04:00:00.000         86400.000
Max Duration           1    8 Sep 2021 04:00:00.000    9 Sep 2021 04:00:00.000         86400.000
Mean Duration                                                                          86400.000
Total Duration                                                                         86400.000


Satellite405-To-Satellite406
----------------------------
                  Access       Start Time (UTCG)           Stop Time (UTCG)       Duration (sec)
                  ------    -----------------------    -----------------------    --------------
                       1    8 Sep 2021 04:00:00.000    9 Sep 2021 04:00:00.000         86400.000

Min Duration           1    8 Sep 2021 04:00:00.000    9 Sep 2021 04:00:00.000         86400.000
Max Duration           1    8 Sep 2021 04:00:00.000    9 Sep 2021 04:00:00.000         86400.000
Mean Duration                                                                          86400.000
Total Duration                                                                         86400.000


Satellite405-To-Satellite503
----------------------------
                  Access       Start Time (UTCG)           Stop Time (UTCG)       Duration (sec)
                  ------    -----------------------    -----------------------    --------------
                       1    8 Sep 2021 04:00:00.000    9 Sep 2021 04:00:00.000         86400.000

Min Duration           1    8 Sep 2021 04:00:00.000    9 Sep 2021 04:00:00.000         86400.000
Max Duration           1    8 Sep 2021 04:00:00.000    9 Sep 2021 04:00:00.000         86400.000
Mean Duration                                                                          86400.000
Total Duration                                                                         86400.000


Satellite405-To-Satellite504
----------------------------
                  Access       Start Time (UTCG)           Stop Time (UTCG)       Duration (sec)
                  ------    -----------------------    -----------------------    --------------
                       1    8 Sep 2021 04:00:00.000    9 Sep 2021 04:00:00.000         86400.000

Min Duration           1    8 Sep 2021 04:00:00.000    9 Sep 2021 04:00:00.000         86400.000
Max Duration           1    8 Sep 2021 04:00:00.000    9 Sep 2021 04:00:00.000         86400.000
Mean Duration                                                                          86400.000
Total Duration                                                                         86400.000


Satellite405-To-Satellite505
----------------------------
                  Access       Start Time (UTCG)           Stop Time (UTCG)       Duration (sec)
                  ------    -----------------------    -----------------------    --------------
                       1    8 Sep 2021 04:00:00.000    9 Sep 2021 04:00:00.000         86400.000

Min Duration           1    8 Sep 2021 04:00:00.000    9 Sep 2021 04:00:00.000         86400.000
Max Duration           1    8 Sep 2021 04:00:00.000    9 Sep 2021 04:00:00.000         86400.000
Mean Duration                                                                          86400.000
Total Duration                                                                         86400.000


Satellite405-To-Satellite601
----------------------------
                  Access       Start Time (UTCG)           Stop Time (UTCG)       Duration (sec)
                  ------    -----------------------    -----------------------    --------------
                       1    8 Sep 2021 04:00:00.000    8 Sep 2021 04:03:52.825           232.825
                       2    8 Sep 2021 04:48:38.739    8 Sep 2021 04:56:24.414           465.675
                       3    8 Sep 2021 05:41:10.328    8 Sep 2021 05:48:56.002           465.674
                       4    8 Sep 2021 06:33:41.918    8 Sep 2021 06:41:27.590           465.672
                       5    8 Sep 2021 07:26:13.507    8 Sep 2021 07:33:59.178           465.671
                       6    8 Sep 2021 08:18:45.093    8 Sep 2021 08:26:30.766           465.673
                       7    8 Sep 2021 09:11:16.681    8 Sep 2021 09:19:02.355           465.675
                       8    8 Sep 2021 10:03:48.272    8 Sep 2021 10:11:33.941           465.669
                       9    8 Sep 2021 10:56:19.862    8 Sep 2021 11:04:05.532           465.671
                      10    8 Sep 2021 11:48:51.446    8 Sep 2021 11:56:37.121           465.675
                      11    8 Sep 2021 12:41:23.035    8 Sep 2021 12:49:08.709           465.674
                      12    8 Sep 2021 13:33:54.625    8 Sep 2021 13:41:40.297           465.672
                      13    8 Sep 2021 14:26:26.214    8 Sep 2021 14:34:11.885           465.671
                      14    8 Sep 2021 15:18:57.800    8 Sep 2021 15:26:43.473           465.673
                      15    8 Sep 2021 16:11:29.388    8 Sep 2021 16:19:15.063           465.675
                      16    8 Sep 2021 17:04:00.979    8 Sep 2021 17:11:46.648           465.669
                      17    8 Sep 2021 17:56:32.569    8 Sep 2021 18:04:18.239           465.671
                      18    8 Sep 2021 18:49:04.153    8 Sep 2021 18:56:49.828           465.675
                      19    8 Sep 2021 19:41:35.742    8 Sep 2021 19:49:21.416           465.674
                      20    8 Sep 2021 20:34:07.332    8 Sep 2021 20:41:53.004           465.672
                      21    8 Sep 2021 21:26:38.921    8 Sep 2021 21:34:24.592           465.671
                      22    8 Sep 2021 22:19:10.507    8 Sep 2021 22:26:56.180           465.673
                      23    8 Sep 2021 23:11:42.095    8 Sep 2021 23:19:27.770           465.675
                      24    9 Sep 2021 00:04:13.685    9 Sep 2021 00:11:59.355           465.670
                      25    9 Sep 2021 00:56:45.276    9 Sep 2021 01:04:30.946           465.671
                      26    9 Sep 2021 01:49:16.860    9 Sep 2021 01:57:02.535           465.675
                      27    9 Sep 2021 02:41:48.449    9 Sep 2021 02:49:34.123           465.674
                      28    9 Sep 2021 03:34:20.040    9 Sep 2021 03:42:05.711           465.672

Min Duration           1    8 Sep 2021 04:00:00.000    8 Sep 2021 04:03:52.825           232.825
Max Duration           2    8 Sep 2021 04:48:38.739    8 Sep 2021 04:56:24.414           465.675
Mean Duration                                                                            457.357
Total Duration                                                                         12805.985


Satellite405-To-Satellite602
----------------------------
                  Access       Start Time (UTCG)           Stop Time (UTCG)       Duration (sec)
                  ------    -----------------------    -----------------------    --------------
                       1    8 Sep 2021 04:00:00.000    8 Sep 2021 04:09:40.674           580.674
                       2    8 Sep 2021 04:32:20.572    8 Sep 2021 05:02:12.260          1791.688
                       3    8 Sep 2021 05:24:52.161    8 Sep 2021 05:54:43.848          1791.687
                       4    8 Sep 2021 06:17:23.749    8 Sep 2021 06:47:15.435          1791.686
                       5    8 Sep 2021 07:09:55.341    8 Sep 2021 07:39:47.023          1791.682
                       6    8 Sep 2021 08:02:26.929    8 Sep 2021 08:32:18.611          1791.682
                       7    8 Sep 2021 08:54:58.517    8 Sep 2021 09:24:50.204          1791.687
                       8    8 Sep 2021 09:47:30.106    8 Sep 2021 10:17:21.793          1791.687
                       9    8 Sep 2021 10:40:01.694    8 Sep 2021 11:09:53.381          1791.687
                      10    8 Sep 2021 11:32:33.282    8 Sep 2021 12:02:24.969          1791.687
                      11    8 Sep 2021 12:25:04.870    8 Sep 2021 12:54:56.557          1791.687
                      12    8 Sep 2021 13:17:36.458    8 Sep 2021 13:47:28.145          1791.687
                      13    8 Sep 2021 14:10:08.046    8 Sep 2021 14:39:59.733          1791.687
                      14    8 Sep 2021 15:02:39.634    8 Sep 2021 15:32:31.321          1791.687
                      15    8 Sep 2021 15:55:11.223    8 Sep 2021 16:25:02.910          1791.687
                      16    8 Sep 2021 16:47:42.811    8 Sep 2021 17:17:34.498          1791.687
                      17    8 Sep 2021 17:40:14.399    8 Sep 2021 18:10:06.086          1791.687
                      18    8 Sep 2021 18:32:45.987    8 Sep 2021 19:02:37.674          1791.687
                      19    8 Sep 2021 19:25:17.575    8 Sep 2021 19:55:09.262          1791.687
                      20    8 Sep 2021 20:17:49.163    8 Sep 2021 20:47:40.851          1791.687
                      21    8 Sep 2021 21:10:20.752    8 Sep 2021 21:40:12.437          1791.686
                      22    8 Sep 2021 22:02:52.344    8 Sep 2021 22:32:44.026          1791.682
                      23    8 Sep 2021 22:55:23.932    8 Sep 2021 23:25:15.614          1791.682
                      24    8 Sep 2021 23:47:55.520    9 Sep 2021 00:17:47.207          1791.687
                      25    9 Sep 2021 00:40:27.108    9 Sep 2021 01:10:18.795          1791.687
                      26    9 Sep 2021 01:32:58.697    9 Sep 2021 02:02:50.384          1791.687
                      27    9 Sep 2021 02:25:30.285    9 Sep 2021 02:55:21.972          1791.687
                      28    9 Sep 2021 03:18:01.873    9 Sep 2021 03:47:53.560          1791.687

Min Duration           1    8 Sep 2021 04:00:00.000    8 Sep 2021 04:09:40.674           580.674
Max Duration           2    8 Sep 2021 04:32:20.572    8 Sep 2021 05:02:12.260          1791.688
Mean Duration                                                                           1748.436
Total Duration                                                                         48956.204


Satellite405-To-Satellite603
----------------------------
                  Access       Start Time (UTCG)           Stop Time (UTCG)       Duration (sec)
                  ------    -----------------------    -----------------------    --------------
                       1    8 Sep 2021 04:00:00.000    8 Sep 2021 04:08:20.320           500.320
                       2    8 Sep 2021 04:23:10.607    8 Sep 2021 05:00:51.910          2261.303
                       3    8 Sep 2021 05:15:42.197    8 Sep 2021 05:53:23.498          2261.301
                       4    8 Sep 2021 06:08:13.785    8 Sep 2021 06:45:55.086          2261.301
                       5    8 Sep 2021 07:00:45.374    8 Sep 2021 07:38:26.675          2261.301
                       6    8 Sep 2021 07:53:16.962    8 Sep 2021 08:30:58.263          2261.301
                       7    8 Sep 2021 08:45:48.550    8 Sep 2021 09:23:29.852          2261.301
                       8    8 Sep 2021 09:38:20.139    8 Sep 2021 10:16:01.440          2261.301
                       9    8 Sep 2021 10:30:51.727    8 Sep 2021 11:08:33.028          2261.301
                      10    8 Sep 2021 11:23:23.315    8 Sep 2021 12:01:04.617          2261.301
                      11    8 Sep 2021 12:15:54.904    8 Sep 2021 12:53:36.205          2261.301
                      12    8 Sep 2021 13:08:26.492    8 Sep 2021 13:46:07.794          2261.301
                      13    8 Sep 2021 14:00:58.081    8 Sep 2021 14:38:39.382          2261.301
                      14    8 Sep 2021 14:53:29.669    8 Sep 2021 15:31:10.970          2261.301
                      15    8 Sep 2021 15:46:01.257    8 Sep 2021 16:23:42.559          2261.301
                      16    8 Sep 2021 16:38:32.846    8 Sep 2021 17:16:14.147          2261.301
                      17    8 Sep 2021 17:31:04.434    8 Sep 2021 18:08:45.736          2261.301
                      18    8 Sep 2021 18:23:36.023    8 Sep 2021 19:01:17.324          2261.301
                      19    8 Sep 2021 19:16:07.611    8 Sep 2021 19:53:48.912          2261.301
                      20    8 Sep 2021 20:08:39.199    8 Sep 2021 20:46:20.501          2261.301
                      21    8 Sep 2021 21:01:10.788    8 Sep 2021 21:38:52.089          2261.301
                      22    8 Sep 2021 21:53:42.376    8 Sep 2021 22:31:23.677          2261.301
                      23    8 Sep 2021 22:46:13.965    8 Sep 2021 23:23:55.266          2261.301
                      24    8 Sep 2021 23:38:45.553    9 Sep 2021 00:16:26.854          2261.301
                      25    9 Sep 2021 00:31:17.141    9 Sep 2021 01:08:58.443          2261.301
                      26    9 Sep 2021 01:23:48.730    9 Sep 2021 02:01:30.031          2261.301
                      27    9 Sep 2021 02:16:20.318    9 Sep 2021 02:54:01.619          2261.301
                      28    9 Sep 2021 03:08:51.907    9 Sep 2021 03:46:33.208          2261.301

Min Duration           1    8 Sep 2021 04:00:00.000    8 Sep 2021 04:08:20.320           500.320
Max Duration           2    8 Sep 2021 04:23:10.607    8 Sep 2021 05:00:51.910          2261.303
Mean Duration                                                                           2198.409
Total Duration                                                                         61555.456


Satellite405-To-Satellite604
----------------------------
                  Access       Start Time (UTCG)           Stop Time (UTCG)       Duration (sec)
                  ------    -----------------------    -----------------------    --------------
                       1    8 Sep 2021 04:21:52.960    8 Sep 2021 04:51:39.239          1786.279
                       2    8 Sep 2021 05:14:24.552    8 Sep 2021 05:44:10.827          1786.275
                       3    8 Sep 2021 06:06:56.136    8 Sep 2021 06:36:42.415          1786.279
                       4    8 Sep 2021 06:59:27.728    8 Sep 2021 07:29:14.005          1786.278
                       5    8 Sep 2021 07:51:59.312    8 Sep 2021 08:21:45.592          1786.280
                       6    8 Sep 2021 08:44:30.903    8 Sep 2021 09:14:17.182          1786.279
                       7    8 Sep 2021 09:37:02.489    8 Sep 2021 10:06:48.770          1786.281
                       8    8 Sep 2021 10:29:34.080    8 Sep 2021 10:59:20.359          1786.279
                       9    8 Sep 2021 11:22:05.666    8 Sep 2021 11:51:51.947          1786.281
                      10    8 Sep 2021 12:14:37.257    8 Sep 2021 12:44:23.536          1786.279
                      11    8 Sep 2021 13:07:08.843    8 Sep 2021 13:36:55.124          1786.281
                      12    8 Sep 2021 13:59:40.434    8 Sep 2021 14:29:26.713          1786.279
                      13    8 Sep 2021 14:52:12.019    8 Sep 2021 15:21:58.300          1786.281
                      14    8 Sep 2021 15:44:43.611    8 Sep 2021 16:14:29.889          1786.279
                      15    8 Sep 2021 16:37:15.196    8 Sep 2021 17:07:01.477          1786.281
                      16    8 Sep 2021 17:29:46.788    8 Sep 2021 17:59:33.066          1786.279
                      17    8 Sep 2021 18:22:18.373    8 Sep 2021 18:52:04.654          1786.281
                      18    8 Sep 2021 19:14:49.965    8 Sep 2021 19:44:36.243          1786.279
                      19    8 Sep 2021 20:07:21.550    8 Sep 2021 20:37:07.831          1786.281
                      20    8 Sep 2021 20:59:53.141    8 Sep 2021 21:29:39.420          1786.279
                      21    8 Sep 2021 21:52:24.727    8 Sep 2021 22:22:11.008          1786.281
                      22    8 Sep 2021 22:44:56.318    8 Sep 2021 23:14:42.597          1786.278
                      23    8 Sep 2021 23:37:27.903    9 Sep 2021 00:07:14.184          1786.281
                      24    9 Sep 2021 00:29:59.495    9 Sep 2021 00:59:45.773          1786.278
                      25    9 Sep 2021 01:22:31.080    9 Sep 2021 01:52:17.361          1786.281
                      26    9 Sep 2021 02:15:02.672    9 Sep 2021 02:44:48.950          1786.278
                      27    9 Sep 2021 03:07:34.257    9 Sep 2021 03:37:20.538          1786.281

Min Duration           2    8 Sep 2021 05:14:24.552    8 Sep 2021 05:44:10.827          1786.275
Max Duration          27    9 Sep 2021 03:07:34.257    9 Sep 2021 03:37:20.538          1786.281
Mean Duration                                                                           1786.279
Total Duration                                                                         48229.546


Satellite405-To-Satellite605
----------------------------
                  Access       Start Time (UTCG)           Stop Time (UTCG)       Duration (sec)
                  ------    -----------------------    -----------------------    --------------
                       1    8 Sep 2021 04:27:33.736    8 Sep 2021 04:35:28.144           474.409
                       2    8 Sep 2021 05:20:05.326    8 Sep 2021 05:27:59.734           474.407
                       3    8 Sep 2021 06:12:36.916    8 Sep 2021 06:20:31.323           474.407
                       4    8 Sep 2021 07:05:08.501    8 Sep 2021 07:13:02.911           474.411
                       5    8 Sep 2021 07:57:40.089    8 Sep 2021 08:05:34.500           474.411
                       6    8 Sep 2021 08:50:11.677    8 Sep 2021 08:58:06.085           474.408
                       7    8 Sep 2021 09:42:43.265    8 Sep 2021 09:50:37.676           474.411
                       8    8 Sep 2021 10:35:14.854    8 Sep 2021 10:43:09.265           474.411
                       9    8 Sep 2021 11:27:46.443    8 Sep 2021 11:35:40.852           474.408
                      10    8 Sep 2021 12:20:18.034    8 Sep 2021 12:28:12.441           474.406
                      11    8 Sep 2021 13:12:49.624    8 Sep 2021 13:20:44.030           474.406
                      12    8 Sep 2021 14:05:21.208    8 Sep 2021 14:13:15.614           474.407
                      13    8 Sep 2021 14:57:52.799    8 Sep 2021 15:05:47.207           474.408
                      14    8 Sep 2021 15:50:24.385    8 Sep 2021 15:58:18.794           474.409
                      15    8 Sep 2021 16:42:55.972    8 Sep 2021 16:50:50.384           474.411
                      16    8 Sep 2021 17:35:27.561    8 Sep 2021 17:43:21.972           474.411
                      17    8 Sep 2021 18:27:59.151    8 Sep 2021 18:35:53.559           474.408
                      18    8 Sep 2021 19:20:30.740    8 Sep 2021 19:28:25.148           474.408
                      19    8 Sep 2021 20:13:02.328    8 Sep 2021 20:20:56.737           474.410
                      20    8 Sep 2021 21:05:33.915    8 Sep 2021 21:13:28.324           474.409
                      21    8 Sep 2021 21:58:05.507    8 Sep 2021 22:05:59.909           474.402
                      22    8 Sep 2021 22:50:37.093    8 Sep 2021 22:58:31.503           474.410
                      23    8 Sep 2021 23:43:08.680    8 Sep 2021 23:51:03.091           474.411
                      24    9 Sep 2021 00:35:40.268    9 Sep 2021 00:43:34.679           474.410
                      25    9 Sep 2021 01:28:11.858    9 Sep 2021 01:36:06.266           474.408
                      26    9 Sep 2021 02:20:43.448    9 Sep 2021 02:28:37.856           474.408
                      27    9 Sep 2021 03:13:15.034    9 Sep 2021 03:21:09.444           474.410

Min Duration          21    8 Sep 2021 21:58:05.507    8 Sep 2021 22:05:59.909           474.402
Max Duration           7    8 Sep 2021 09:42:43.265    8 Sep 2021 09:50:37.676           474.411
Mean Duration                                                                            474.409
Total Duration                                                                         12809.035


Satellite405-To-Satellite701
----------------------------
                  Access       Start Time (UTCG)           Stop Time (UTCG)       Duration (sec)
                  ------    -----------------------    -----------------------    --------------
                       1    8 Sep 2021 04:00:00.000    8 Sep 2021 04:11:43.228           703.228
                       2    8 Sep 2021 04:39:29.546    8 Sep 2021 05:04:14.819          1485.273
                       3    8 Sep 2021 05:32:01.131    8 Sep 2021 05:56:46.404          1485.273
                       4    8 Sep 2021 06:24:32.722    8 Sep 2021 06:49:17.996          1485.274
