routing/visibility/v406.txt

Satellite406-To-Satellite101
----------------------------
                  Access       Start Time (UTCG)           Stop Time (UTCG)       Duration (sec)
                  ------    -----------------------    -----------------------    --------------
                       1    8 Sep 2021 04:00:00.000    8 Sep 2021 04:07:34.285           454.285
                       2    8 Sep 2021 04:41:00.909    8 Sep 2021 05:00:05.876          1144.966
                       3    8 Sep 2021 05:33:32.493    8 Sep 2021 05:52:37.464          1144.970
                       4    8 Sep 2021 06:26:04.083    8 Sep 2021 06:45:09.052          1144.970
                       5    8 Sep 2021 07:18:35.671    8 Sep 2021 07:37:40.641          1144.969
                       6    8 Sep 2021 08:11:07.260    8 Sep 2021 08:30:12.229          1144.969
                       7    8 Sep 2021 09:03:38.849    8 Sep 2021 09:22:43.817          1144.969
                       8    8 Sep 2021 09:56:10.437    8 Sep 2021 10:15:15.406          1144.969
                       9    8 Sep 2021 10:48:42.026    8 Sep 2021 11:07:46.994          1144.968
                      10    8 Sep 2021 11:41:13.614    8 Sep 2021 12:00:18.582          1144.968
                      11    8 Sep 2021 12:33:45.203    8 Sep 2021 12:52:50.171          1144.968
                      12    8 Sep 2021 13:26:16.791    8 Sep 2021 13:45:21.759          1144.968
                      13    8 Sep 2021 14:18:48.379    8 Sep 2021 14:37:53.348          1144.968
                      14    8 Sep 2021 15:11:19.968    8 Sep 2021 15:30:24.936          1144.968
                      15    8 Sep 2021 16:03:51.556    8 Sep 2021 16:22:56.524          1144.968
                      16    8 Sep 2021 16:56:23.145    8 Sep 2021 17:15:28.113          1144.968
                      17    8 Sep 2021 17:48:54.733    8 Sep 2021 18:07:59.701          1144.968
                      18    8 Sep 2021 18:41:26.321    8 Sep 2021 19:00:31.290          1144.968
                      19    8 Sep 2021 19:33:57.910    8 Sep 2021 19:53:02.878          1144.968
                      20    8 Sep 2021 20:26:29.498    8 Sep 2021 20:45:34.466          1144.968
                      21    8 Sep 2021 21:19:01.087    8 Sep 2021 21:38:06.055          1144.968
                      22    8 Sep 2021 22:11:32.675    8 Sep 2021 22:30:37.643          1144.968
                      23    8 Sep 2021 23:04:04.263    8 Sep 2021 23:23:09.232          1144.968
                      24    8 Sep 2021 23:56:35.852    9 Sep 2021 00:15:40.820          1144.968
                      25    9 Sep 2021 00:49:07.440    9 Sep 2021 01:08:12.408          1144.968
                      26    9 Sep 2021 01:41:39.029    9 Sep 2021 02:00:43.997          1144.968
                      27    9 Sep 2021 02:34:10.617    9 Sep 2021 02:53:15.585          1144.968
                      28    9 Sep 2021 03:26:42.205    9 Sep 2021 03:45:47.174          1144.968

Min Duration           1    8 Sep 2021 04:00:00.000    8 Sep 2021 04:07:34.285           454.285
Max Duration           3    8 Sep 2021 05:33:32.493    8 Sep 2021 05:52:37.464          1144.970
Mean Duration                                                                           1120.301
Total Duration                                                                         31368.432


Satellite406-To-Satellite102
----------------------------
                  Access       Start Time (UTCG)           Stop Time (UTCG)       Duration (sec)
                  ------    -----------------------    -----------------------    --------------
                       1    8 Sep 2021 04:42:20.976    8 Sep 2021 04:48:15.487           354.511
                       2    8 Sep 2021 05:34:52.567    8 Sep 2021 05:40:47.078           354.511
                       3    8 Sep 2021 06:27:24.157    8 Sep 2021 06:33:18.667           354.510
                       4    8 Sep 2021 07:19:55.742    8 Sep 2021 07:25:50.255           354.513
                       5    8 Sep 2021 08:12:27.330    8 Sep 2021 08:18:21.841           354.511
                       6    8 Sep 2021 09:04:58.922    8 Sep 2021 09:10:53.432           354.510
                       7    8 Sep 2021 09:57:30.508    8 Sep 2021 10:03:25.020           354.513
                       8    8 Sep 2021 10:50:02.094    8 Sep 2021 10:55:56.604           354.510
                       9    8 Sep 2021 11:42:33.687    8 Sep 2021 11:48:28.196           354.510
                      10    8 Sep 2021 12:35:05.276    8 Sep 2021 12:40:59.785           354.510
                      11    8 Sep 2021 13:27:36.859    8 Sep 2021 13:33:31.374           354.514
                      12    8 Sep 2021 14:20:08.448    8 Sep 2021 14:26:02.960           354.511
                      13    8 Sep 2021 15:12:40.040    8 Sep 2021 15:18:34.550           354.510
                      14    8 Sep 2021 16:05:11.624    8 Sep 2021 16:11:06.139           354.515
                      15    8 Sep 2021 16:57:43.213    8 Sep 2021 17:03:37.723           354.510
                      16    8 Sep 2021 17:50:14.804    8 Sep 2021 17:56:09.315           354.510
                      17    8 Sep 2021 18:42:46.394    8 Sep 2021 18:48:40.904           354.510
                      18    8 Sep 2021 19:35:17.982    8 Sep 2021 19:41:12.492           354.511
                      19    8 Sep 2021 20:27:49.567    8 Sep 2021 20:33:44.078           354.511
                      20    8 Sep 2021 21:20:21.158    8 Sep 2021 21:26:15.669           354.511
                      21    8 Sep 2021 22:12:52.743    8 Sep 2021 22:18:47.258           354.515
                      22    8 Sep 2021 23:05:24.332    8 Sep 2021 23:11:18.841           354.510
                      23    8 Sep 2021 23:57:55.923    9 Sep 2021 00:03:50.433           354.511
                      24    9 Sep 2021 00:50:27.512    9 Sep 2021 00:56:22.023           354.511
                      25    9 Sep 2021 01:42:59.099    9 Sep 2021 01:48:53.611           354.512
                      26    9 Sep 2021 02:35:30.686    9 Sep 2021 02:41:25.197           354.511
                      27    9 Sep 2021 03:28:02.277    9 Sep 2021 03:33:56.788           354.511

Min Duration           6    8 Sep 2021 09:04:58.922    8 Sep 2021 09:10:53.432           354.510
Max Duration          14    8 Sep 2021 16:05:11.624    8 Sep 2021 16:11:06.139           354.515
Mean Duration                                                                            354.511
Total Duration                                                                          9571.802


Satellite406-To-Satellite107
----------------------------
                  Access       Start Time (UTCG)           Stop Time (UTCG)       Duration (sec)
                  ------    -----------------------    -----------------------    --------------
                       1    8 Sep 2021 04:15:31.670    8 Sep 2021 04:22:33.207           421.537
                       2    8 Sep 2021 05:08:03.261    8 Sep 2021 05:15:04.795           421.534
                       3    8 Sep 2021 06:00:34.847    8 Sep 2021 06:07:36.384           421.537
                       4    8 Sep 2021 06:53:06.440    8 Sep 2021 07:00:07.972           421.532
                       5    8 Sep 2021 07:45:38.023    8 Sep 2021 07:52:39.558           421.535
                       6    8 Sep 2021 08:38:09.616    8 Sep 2021 08:45:11.148           421.533
                       7    8 Sep 2021 09:30:41.200    8 Sep 2021 09:37:42.737           421.537
                       8    8 Sep 2021 10:23:12.792    8 Sep 2021 10:30:14.325           421.533
                       9    8 Sep 2021 11:15:44.377    8 Sep 2021 11:22:45.914           421.537
                      10    8 Sep 2021 12:08:15.968    8 Sep 2021 12:15:17.502           421.534
                      11    8 Sep 2021 13:00:47.554    8 Sep 2021 13:07:49.091           421.537
                      12    8 Sep 2021 13:53:19.144    8 Sep 2021 14:00:20.679           421.535
                      13    8 Sep 2021 14:45:50.731    8 Sep 2021 14:52:52.268           421.536
                      14    8 Sep 2021 15:38:22.320    8 Sep 2021 15:45:23.856           421.536
                      15    8 Sep 2021 16:30:53.910    8 Sep 2021 16:37:55.444           421.534
                      16    8 Sep 2021 17:23:25.496    8 Sep 2021 17:30:27.033           421.537
                      17    8 Sep 2021 18:15:57.087    8 Sep 2021 18:22:58.621           421.534
                      18    8 Sep 2021 19:08:28.673    8 Sep 2021 19:15:30.210           421.537
                      19    8 Sep 2021 20:01:00.266    8 Sep 2021 20:08:01.798           421.532
                      20    8 Sep 2021 20:53:31.849    8 Sep 2021 21:00:33.384           421.534
                      21    8 Sep 2021 21:46:03.442    8 Sep 2021 21:53:04.974           421.533
                      22    8 Sep 2021 22:38:35.026    8 Sep 2021 22:45:36.563           421.537
                      23    8 Sep 2021 23:31:06.618    8 Sep 2021 23:38:08.151           421.533
                      24    9 Sep 2021 00:23:38.203    9 Sep 2021 00:30:39.740           421.537
                      25    9 Sep 2021 01:16:09.794    9 Sep 2021 01:23:11.328           421.534
                      26    9 Sep 2021 02:08:41.380    9 Sep 2021 02:15:42.917           421.537
                      27    9 Sep 2021 03:01:12.969    9 Sep 2021 03:08:14.505           421.535
                      28    9 Sep 2021 03:53:44.557    9 Sep 2021 04:00:00.000           375.443

Min Duration          28    9 Sep 2021 03:53:44.557    9 Sep 2021 04:00:00.000           375.443
Max Duration          18    8 Sep 2021 19:08:28.673    8 Sep 2021 19:15:30.210           421.537
Mean Duration                                                                            419.889
Total Duration                                                                         11756.889


Satellite406-To-Satellite108
----------------------------
                  Access       Start Time (UTCG)           Stop Time (UTCG)       Duration (sec)
                  ------    -----------------------    -----------------------    --------------
                       1    8 Sep 2021 04:04:05.267    8 Sep 2021 04:23:29.294          1164.028
                       2    8 Sep 2021 04:56:36.857    8 Sep 2021 05:16:00.881          1164.024
                       3    8 Sep 2021 05:49:08.444    8 Sep 2021 06:08:32.470          1164.025
                       4    8 Sep 2021 06:41:40.032    8 Sep 2021 07:01:04.057          1164.025
                       5    8 Sep 2021 07:34:11.622    8 Sep 2021 07:53:35.647          1164.025
                       6    8 Sep 2021 08:26:43.210    8 Sep 2021 08:46:07.233          1164.023
                       7    8 Sep 2021 09:19:14.797    8 Sep 2021 09:38:38.821          1164.024
                       8    8 Sep 2021 10:11:46.387    8 Sep 2021 10:31:10.412          1164.025
                       9    8 Sep 2021 11:04:17.975    8 Sep 2021 11:23:42.000          1164.024
                      10    8 Sep 2021 11:56:49.561    8 Sep 2021 12:16:13.587          1164.026
                      11    8 Sep 2021 12:49:21.151    8 Sep 2021 13:08:45.176          1164.025
                      12    8 Sep 2021 13:41:52.740    8 Sep 2021 14:01:16.765          1164.025
                      13    8 Sep 2021 14:34:24.329    8 Sep 2021 14:53:48.354          1164.025
                      14    8 Sep 2021 15:26:55.916    8 Sep 2021 15:46:19.945          1164.028
                      15    8 Sep 2021 16:19:27.504    8 Sep 2021 16:38:51.530          1164.026
                      16    8 Sep 2021 17:11:59.094    8 Sep 2021 17:31:23.118          1164.024
                      17    8 Sep 2021 18:04:30.680    8 Sep 2021 18:23:54.706          1164.026
                      18    8 Sep 2021 18:57:02.269    8 Sep 2021 19:16:26.294          1164.025
                      19    8 Sep 2021 19:49:33.858    8 Sep 2021 20:08:57.885          1164.027
                      20    8 Sep 2021 20:42:05.448    8 Sep 2021 21:01:29.472          1164.024
                      21    8 Sep 2021 21:34:37.034    8 Sep 2021 21:54:01.060          1164.026
                      22    8 Sep 2021 22:27:08.623    8 Sep 2021 22:46:32.648          1164.025
                      23    8 Sep 2021 23:19:40.211    8 Sep 2021 23:39:04.237          1164.026
                      24    9 Sep 2021 00:12:11.801    9 Sep 2021 00:31:35.824          1164.023
                      25    9 Sep 2021 01:04:43.388    9 Sep 2021 01:24:07.417          1164.029
                      26    9 Sep 2021 01:57:14.977    9 Sep 2021 02:16:39.003          1164.026
                      27    9 Sep 2021 02:49:46.566    9 Sep 2021 03:09:10.591          1164.024
                      28    9 Sep 2021 03:42:18.152    9 Sep 2021 04:00:00.000          1061.848

Min Duration          28    9 Sep 2021 03:42:18.152    9 Sep 2021 04:00:00.000          1061.848
Max Duration          25    9 Sep 2021 01:04:43.388    9 Sep 2021 01:24:07.417          1164.029
Mean Duration                                                                           1160.376
Total Duration                                                                         32490.532


Satellite406-To-Satellite109
----------------------------
                  Access       Start Time (UTCG)           Stop Time (UTCG)       Duration (sec)
                  ------    -----------------------    -----------------------    --------------
                       1    8 Sep 2021 04:00:00.000    8 Sep 2021 04:20:57.733          1257.733
                       2    8 Sep 2021 04:48:38.097    8 Sep 2021 05:13:29.318          1491.221
                       3    8 Sep 2021 05:41:09.689    8 Sep 2021 06:06:00.910          1491.221
                       4    8 Sep 2021 06:33:41.274    8 Sep 2021 06:58:32.494          1491.221
                       5    8 Sep 2021 07:26:12.866    8 Sep 2021 07:51:04.087          1491.221
                       6    8 Sep 2021 08:18:44.450    8 Sep 2021 08:43:35.671          1491.221
                       7    8 Sep 2021 09:11:16.043    8 Sep 2021 09:36:07.263          1491.221
                       8    8 Sep 2021 10:03:47.627    8 Sep 2021 10:28:38.848          1491.221
                       9    8 Sep 2021 10:56:19.219    8 Sep 2021 11:21:10.440          1491.221
                      10    8 Sep 2021 11:48:50.804    8 Sep 2021 12:13:42.025          1491.221
                      11    8 Sep 2021 12:41:22.396    8 Sep 2021 13:06:13.617          1491.221
                      12    8 Sep 2021 13:33:53.981    8 Sep 2021 13:58:45.202          1491.221
                      13    8 Sep 2021 14:26:25.573    8 Sep 2021 14:51:16.794          1491.221
                      14    8 Sep 2021 15:18:57.157    8 Sep 2021 15:43:48.378          1491.221
                      15    8 Sep 2021 16:11:28.750    8 Sep 2021 16:36:19.971          1491.221
                      16    8 Sep 2021 17:04:00.334    8 Sep 2021 17:28:51.555          1491.221
                      17    8 Sep 2021 17:56:31.926    8 Sep 2021 18:21:23.147          1491.221
                      18    8 Sep 2021 18:49:03.511    8 Sep 2021 19:13:54.732          1491.221
                      19    8 Sep 2021 19:41:35.103    8 Sep 2021 20:06:26.324          1491.221
                      20    8 Sep 2021 20:34:06.688    8 Sep 2021 20:58:57.909          1491.221
                      21    8 Sep 2021 21:26:38.280    8 Sep 2021 21:51:29.501          1491.221
                      22    8 Sep 2021 22:19:09.865    8 Sep 2021 22:44:01.085          1491.221
                      23    8 Sep 2021 23:11:41.457    8 Sep 2021 23:36:32.678          1491.221
                      24    9 Sep 2021 00:04:13.041    9 Sep 2021 00:29:04.262          1491.221
                      25    9 Sep 2021 00:56:44.634    9 Sep 2021 01:21:35.855          1491.221
                      26    9 Sep 2021 01:49:16.218    9 Sep 2021 02:14:07.439          1491.221
                      27    9 Sep 2021 02:41:47.810    9 Sep 2021 03:06:39.031          1491.221
                      28    9 Sep 2021 03:34:19.395    9 Sep 2021 03:59:10.615          1491.220

Min Duration           1    8 Sep 2021 04:00:00.000    8 Sep 2021 04:20:57.733          1257.733
Max Duration           3    8 Sep 2021 05:41:09.689    8 Sep 2021 06:06:00.910          1491.221
Mean Duration                                                                           1482.882
Total Duration                                                                         41520.696


Satellite406-To-Satellite110
----------------------------
                  Access       Start Time (UTCG)           Stop Time (UTCG)       Duration (sec)
                  ------    -----------------------    -----------------------    --------------
                       1    8 Sep 2021 04:00:00.000    8 Sep 2021 04:15:39.600           939.600
                       2    8 Sep 2021 04:43:25.911    8 Sep 2021 05:08:11.185          1485.273
                       3    8 Sep 2021 05:35:57.503    8 Sep 2021 06:00:42.777          1485.274
                       4    8 Sep 2021 06:28:29.092    8 Sep 2021 06:53:14.361          1485.270
                       5    8 Sep 2021 07:21:00.680    8 Sep 2021 07:45:45.953          1485.274
                       6    8 Sep 2021 08:13:32.269    8 Sep 2021 08:38:17.538          1485.269
                       7    8 Sep 2021 09:06:03.856    8 Sep 2021 09:30:49.130          1485.274
                       8    8 Sep 2021 09:58:35.447    8 Sep 2021 10:23:20.715          1485.268
                       9    8 Sep 2021 10:51:07.033    8 Sep 2021 11:15:52.307          1485.274
                      10    8 Sep 2021 11:43:38.623    8 Sep 2021 12:08:23.892          1485.268
                      11    8 Sep 2021 12:36:10.210    8 Sep 2021 13:00:55.484          1485.274
                      12    8 Sep 2021 13:28:41.800    8 Sep 2021 13:53:27.069          1485.268
                      13    8 Sep 2021 14:21:13.387    8 Sep 2021 14:45:58.661          1485.274
                      14    8 Sep 2021 15:13:44.977    8 Sep 2021 15:38:30.245          1485.268
                      15    8 Sep 2021 16:06:16.563    8 Sep 2021 16:31:01.837          1485.274
                      16    8 Sep 2021 16:58:48.154    8 Sep 2021 17:23:33.422          1485.268
                      17    8 Sep 2021 17:51:19.740    8 Sep 2021 18:16:05.014          1485.274
                      18    8 Sep 2021 18:43:51.331    8 Sep 2021 19:08:36.599          1485.268
                      19    8 Sep 2021 19:36:22.917    8 Sep 2021 20:01:08.191          1485.274
                      20    8 Sep 2021 20:28:54.507    8 Sep 2021 20:53:39.776          1485.268
                      21    8 Sep 2021 21:21:26.094    8 Sep 2021 21:46:11.368          1485.274
                      22    8 Sep 2021 22:13:57.684    8 Sep 2021 22:38:42.952          1485.268
                      23    8 Sep 2021 23:06:29.271    8 Sep 2021 23:31:14.545          1485.274
                      24    8 Sep 2021 23:59:00.861    9 Sep 2021 00:23:46.129          1485.268
                      25    9 Sep 2021 00:51:32.447    9 Sep 2021 01:16:17.721          1485.274
                      26    9 Sep 2021 01:44:04.038    9 Sep 2021 02:08:49.306          1485.268
                      27    9 Sep 2021 02:36:35.624    9 Sep 2021 03:01:20.898          1485.274
                      28    9 Sep 2021 03:29:07.215    9 Sep 2021 03:53:52.483          1485.268

Min Duration           1    8 Sep 2021 04:00:00.000    8 Sep 2021 04:15:39.600           939.600
Max Duration          27    9 Sep 2021 02:36:35.624    9 Sep 2021 03:01:20.898          1485.274
Mean Duration                                                                           1465.783
Total Duration                                                                         41041.925


Satellite406-To-Satellite206
----------------------------
                  Access       Start Time (UTCG)           Stop Time (UTCG)       Duration (sec)
                  ------    -----------------------    -----------------------    --------------
                       1    8 Sep 2021 04:19:41.002    8 Sep 2021 04:27:35.408           474.406
                       2    8 Sep 2021 05:12:12.585    8 Sep 2021 05:20:06.994           474.408
                       3    8 Sep 2021 06:04:44.178    8 Sep 2021 06:12:38.580           474.402
                       4    8 Sep 2021 06:57:15.763    8 Sep 2021 07:05:10.173           474.410
                       5    8 Sep 2021 07:49:47.350    8 Sep 2021 07:57:41.761           474.411
                       6    8 Sep 2021 08:42:18.939    8 Sep 2021 08:50:13.349           474.411
                       7    8 Sep 2021 09:34:50.529    8 Sep 2021 09:42:44.937           474.408
                       8    8 Sep 2021 10:27:22.118    8 Sep 2021 10:35:16.526           474.408
                       9    8 Sep 2021 11:19:53.705    8 Sep 2021 11:27:48.115           474.410
                      10    8 Sep 2021 12:12:25.292    8 Sep 2021 12:20:19.703           474.410
                      11    8 Sep 2021 13:04:56.885    8 Sep 2021 13:12:51.287           474.402
                      12    8 Sep 2021 13:57:28.472    8 Sep 2021 14:05:22.880           474.409
                      13    8 Sep 2021 14:50:00.057    8 Sep 2021 14:57:54.468           474.411
                      14    8 Sep 2021 15:42:31.646    8 Sep 2021 15:50:26.057           474.410
                      15    8 Sep 2021 16:35:03.237    8 Sep 2021 16:42:57.644           474.408
                      16    8 Sep 2021 17:27:34.826    8 Sep 2021 17:35:29.234           474.407
                      17    8 Sep 2021 18:20:06.412    8 Sep 2021 18:28:00.822           474.410
                      18    8 Sep 2021 19:12:37.999    8 Sep 2021 19:20:32.410           474.411
                      19    8 Sep 2021 20:05:09.592    8 Sep 2021 20:13:03.995           474.403
                      20    8 Sep 2021 20:57:41.176    8 Sep 2021 21:05:35.587           474.411
                      21    8 Sep 2021 21:50:12.765    8 Sep 2021 21:58:07.176           474.411
                      22    8 Sep 2021 22:42:44.354    8 Sep 2021 22:50:38.762           474.409
                      23    8 Sep 2021 23:35:15.945    8 Sep 2021 23:43:10.352           474.407
                      24    9 Sep 2021 00:27:47.534    9 Sep 2021 00:35:41.941           474.407
                      25    9 Sep 2021 01:20:19.119    9 Sep 2021 01:28:13.529           474.411
                      26    9 Sep 2021 02:12:50.708    9 Sep 2021 02:20:45.118           474.410
                      27    9 Sep 2021 03:05:22.295    9 Sep 2021 03:13:16.703           474.408
                      28    9 Sep 2021 03:57:53.883    9 Sep 2021 04:00:00.000           126.117

Min Duration          28    9 Sep 2021 03:57:53.883    9 Sep 2021 04:00:00.000           126.117
Max Duration          20    8 Sep 2021 20:57:41.176    8 Sep 2021 21:05:35.587           474.411
Mean Duration                                                                            461.969
Total Duration                                                                         12935.146


Satellite406-To-Satellite207
----------------------------
                  Access       Start Time (UTCG)           Stop Time (UTCG)       Duration (sec)
                  ------    -----------------------    -----------------------    --------------
                       1    8 Sep 2021 04:03:29.905    8 Sep 2021 04:33:16.184          1786.279
                       2    8 Sep 2021 04:56:01.494    8 Sep 2021 05:25:47.770          1786.277
                       3    8 Sep 2021 05:48:33.081    8 Sep 2021 06:18:19.361          1786.280
                       4    8 Sep 2021 06:41:04.668    8 Sep 2021 07:10:50.948          1786.280
                       5    8 Sep 2021 07:33:36.259    8 Sep 2021 08:03:22.538          1786.279
                       6    8 Sep 2021 08:26:07.845    8 Sep 2021 08:55:54.125          1786.281
                       7    8 Sep 2021 09:18:39.436    8 Sep 2021 09:48:25.715          1786.279
                       8    8 Sep 2021 10:11:11.021    8 Sep 2021 10:40:57.302          1786.281
                       9    8 Sep 2021 11:03:42.613    8 Sep 2021 11:33:28.892          1786.279
                      10    8 Sep 2021 11:56:14.198    8 Sep 2021 12:26:00.479          1786.281
                      11    8 Sep 2021 12:48:45.790    8 Sep 2021 13:18:32.068          1786.279
                      12    8 Sep 2021 13:41:17.375    8 Sep 2021 14:11:03.656          1786.281
                      13    8 Sep 2021 14:33:48.967    8 Sep 2021 15:03:35.245          1786.279
                      14    8 Sep 2021 15:26:20.552    8 Sep 2021 15:56:06.833          1786.281
                      15    8 Sep 2021 16:18:52.143    8 Sep 2021 16:48:38.422          1786.279
                      16    8 Sep 2021 17:11:23.729    8 Sep 2021 17:41:10.010          1786.281
                      17    8 Sep 2021 18:03:55.320    8 Sep 2021 18:33:41.599          1786.279
                      18    8 Sep 2021 18:56:26.906    8 Sep 2021 19:26:13.186          1786.281
                      19    8 Sep 2021 19:48:58.497    8 Sep 2021 20:18:44.776          1786.279
                      20    8 Sep 2021 20:41:30.082    8 Sep 2021 21:11:16.363          1786.281
                      21    8 Sep 2021 21:34:01.674    8 Sep 2021 22:03:47.952          1786.278
                      22    8 Sep 2021 22:26:33.259    8 Sep 2021 22:56:19.540          1786.281
                      23    8 Sep 2021 23:19:04.851    8 Sep 2021 23:48:51.129          1786.278
                      24    9 Sep 2021 00:11:36.436    9 Sep 2021 00:41:22.717          1786.281
                      25    9 Sep 2021 01:04:08.027    9 Sep 2021 01:33:54.306          1786.278
                      26    9 Sep 2021 01:56:39.613    9 Sep 2021 02:26:25.894          1786.281
                      27    9 Sep 2021 02:49:11.204    9 Sep 2021 03:18:57.483          1786.278
                      28    9 Sep 2021 03:41:42.789    9 Sep 2021 04:00:00.000          1097.211

Min Duration          28    9 Sep 2021 03:41:42.789    9 Sep 2021 04:00:00.000          1097.211
Max Duration          26    9 Sep 2021 01:56:39.613    9 Sep 2021 02:26:25.894          1786.281
Mean Duration                                                                           1761.670
Total Duration                                                                         49326.760


Satellite406-To-Satellite208
----------------------------
                  Access       Start Time (UTCG)           Stop Time (UTCG)       Duration (sec)
                  ------    -----------------------    -----------------------    --------------
                       1    8 Sep 2021 04:00:00.000    8 Sep 2021 04:31:58.536          1918.536
                       2    8 Sep 2021 04:46:48.823    8 Sep 2021 05:24:30.124          2261.301
                       3    8 Sep 2021 05:39:20.412    8 Sep 2021 06:17:01.713          2261.301
                       4    8 Sep 2021 06:31:52.000    8 Sep 2021 07:09:33.301          2261.301
                       5    8 Sep 2021 07:24:23.588    8 Sep 2021 08:02:04.890          2261.301
                       6    8 Sep 2021 08:16:55.177    8 Sep 2021 08:54:36.478          2261.301
                       7    8 Sep 2021 09:09:26.765    8 Sep 2021 09:47:08.066          2261.301
                       8    8 Sep 2021 10:01:58.353    8 Sep 2021 10:39:39.655          2261.301
                       9    8 Sep 2021 10:54:29.942    8 Sep 2021 11:32:11.243          2261.301
                      10    8 Sep 2021 11:47:01.530    8 Sep 2021 12:24:42.832          2261.301
                      11    8 Sep 2021 12:39:33.119    8 Sep 2021 13:17:14.420          2261.301
                      12    8 Sep 2021 13:32:04.707    8 Sep 2021 14:09:46.008          2261.301
                      13    8 Sep 2021 14:24:36.295    8 Sep 2021 15:02:17.597          2261.301
                      14    8 Sep 2021 15:17:07.884    8 Sep 2021 15:54:49.185          2261.301
                      15    8 Sep 2021 16:09:39.472    8 Sep 2021 16:47:20.773          2261.301
                      16    8 Sep 2021 17:02:11.061    8 Sep 2021 17:39:52.362          2261.301
                      17    8 Sep 2021 17:54:42.649    8 Sep 2021 18:32:23.950          2261.301
                      18    8 Sep 2021 18:47:14.237    8 Sep 2021 19:24:55.539          2261.301
                      19    8 Sep 2021 19:39:45.826    8 Sep 2021 20:17:27.127          2261.301
                      20    8 Sep 2021 20:32:17.414    8 Sep 2021 21:09:58.715          2261.301
                      21    8 Sep 2021 21:24:49.003    8 Sep 2021 22:02:30.304          2261.301
                      22    8 Sep 2021 22:17:20.591    8 Sep 2021 22:55:01.892          2261.301
                      23    8 Sep 2021 23:09:52.179    8 Sep 2021 23:47:33.481          2261.301
                      24    9 Sep 2021 00:02:23.768    9 Sep 2021 00:40:05.069          2261.301
                      25    9 Sep 2021 00:54:55.356    9 Sep 2021 01:32:36.657          2261.301
                      26    9 Sep 2021 01:47:26.945    9 Sep 2021 02:25:08.246          2261.301
                      27    9 Sep 2021 02:39:58.533    9 Sep 2021 03:17:39.834          2261.301
                      28    9 Sep 2021 03:32:30.121    9 Sep 2021 04:00:00.000          1649.879

Min Duration          28    9 Sep 2021 03:32:30.121    9 Sep 2021 04:00:00.000          1649.879
Max Duration          27    9 Sep 2021 02:39:58.533    9 Sep 2021 03:17:39.834          2261.301
Mean Duration                                                                           2227.223
Total Duration                                                                         62362.247


Satellite406-To-Satellite209
----------------------------
                  Access       Start Time (UTCG)           Stop Time (UTCG)       Duration (sec)
                  ------    -----------------------    -----------------------    --------------
                       1    8 Sep 2021 04:00:00.000    8 Sep 2021 04:22:48.567          1368.567
                       2    8 Sep 2021 04:45:28.471    8 Sep 2021 05:15:20.159          1791.687
                       3    8 Sep 2021 05:38:00.060    8 Sep 2021 06:07:51.747          1791.687
                       4    8 Sep 2021 06:30:31.648    8 Sep 2021 07:00:23.335          1791.687
                       5    8 Sep 2021 07:23:03.236    8 Sep 2021 07:52:54.923          1791.687
                       6    8 Sep 2021 08:15:34.824    8 Sep 2021 08:45:26.511          1791.687
                       7    8 Sep 2021 09:08:06.412    8 Sep 2021 09:37:58.099          1791.687
                       8    8 Sep 2021 10:00:38.001    8 Sep 2021 10:30:29.688          1791.687
                       9    8 Sep 2021 10:53:09.589    8 Sep 2021 11:23:01.276          1791.687
                      10    8 Sep 2021 11:45:41.177    8 Sep 2021 12:15:32.864          1791.687
                      11    8 Sep 2021 12:38:12.765    8 Sep 2021 13:08:04.452          1791.687
                      12    8 Sep 2021 13:30:44.353    8 Sep 2021 14:00:36.041          1791.687
                      13    8 Sep 2021 14:23:15.942    8 Sep 2021 14:53:07.627          1791.686
                      14    8 Sep 2021 15:15:47.533    8 Sep 2021 15:45:39.216          1791.682
                      15    8 Sep 2021 16:08:19.122    8 Sep 2021 16:38:10.804          1791.682
                      16    8 Sep 2021 17:00:50.710    8 Sep 2021 17:30:42.397          1791.687
                      17    8 Sep 2021 17:53:22.298    8 Sep 2021 18:23:13.985          1791.687
                      18    8 Sep 2021 18:45:53.886    8 Sep 2021 19:15:45.574          1791.687
                      19    8 Sep 2021 19:38:25.475    8 Sep 2021 20:08:17.162          1791.687
                      20    8 Sep 2021 20:30:57.063    8 Sep 2021 21:00:48.750          1791.687
                      21    8 Sep 2021 21:23:28.651    8 Sep 2021 21:53:20.338          1791.687
                      22    8 Sep 2021 22:16:00.239    8 Sep 2021 22:45:51.926          1791.687
                      23    8 Sep 2021 23:08:31.827    8 Sep 2021 23:38:23.514          1791.687
                      24    9 Sep 2021 00:01:03.415    9 Sep 2021 00:30:55.102          1791.687
                      25    9 Sep 2021 00:53:35.003    9 Sep 2021 01:23:26.690          1791.687
                      26    9 Sep 2021 01:46:06.591    9 Sep 2021 02:15:58.279          1791.687
                      27    9 Sep 2021 02:38:38.180    9 Sep 2021 03:08:29.867          1791.687
                      28    9 Sep 2021 03:31:09.768    9 Sep 2021 04:00:00.000          1730.232

Min Duration           1    8 Sep 2021 04:00:00.000    8 Sep 2021 04:22:48.567          1368.567
Max Duration           2    8 Sep 2021 04:45:28.471    8 Sep 2021 05:15:20.159          1791.687
Mean Duration                                                                           1774.380
Total Duration                                                                         49682.652


Satellite406-To-Satellite210
----------------------------
                  Access       Start Time (UTCG)           Stop Time (UTCG)       Duration (sec)
                  ------    -----------------------    -----------------------    --------------
                       1    8 Sep 2021 04:00:00.000    8 Sep 2021 04:06:30.404           390.404
                       2    8 Sep 2021 04:51:16.318    8 Sep 2021 04:59:01.993           465.675
                       3    8 Sep 2021 05:43:47.910    8 Sep 2021 05:51:33.577           465.666
                       4    8 Sep 2021 06:36:19.495    8 Sep 2021 06:44:05.167           465.673
                       5    8 Sep 2021 07:28:51.083    8 Sep 2021 07:36:36.758           465.675
                       6    8 Sep 2021 08:21:22.675    8 Sep 2021 08:29:08.346           465.672
                       7    8 Sep 2021 09:13:54.264    8 Sep 2021 09:21:39.934           465.670
                       8    8 Sep 2021 10:06:25.850    8 Sep 2021 10:14:11.522           465.672
                       9    8 Sep 2021 10:58:57.437    8 Sep 2021 11:06:43.112           465.674
                      10    8 Sep 2021 11:51:29.025    8 Sep 2021 11:59:14.700           465.675
                      11    8 Sep 2021 12:44:00.615    8 Sep 2021 12:51:46.284           465.669
                      12    8 Sep 2021 13:36:32.202    8 Sep 2021 13:44:17.874           465.672
                      13    8 Sep 2021 14:29:03.791    8 Sep 2021 14:36:49.465           465.675
                      14    8 Sep 2021 15:21:35.382    8 Sep 2021 15:29:21.054           465.672
                      15    8 Sep 2021 16:14:06.971    8 Sep 2021 16:21:52.641           465.670
                      16    8 Sep 2021 17:06:38.557    8 Sep 2021 17:14:24.229           465.672
                      17    8 Sep 2021 17:59:10.144    8 Sep 2021 18:06:55.819           465.675
                      18    8 Sep 2021 18:51:41.732    8 Sep 2021 18:59:27.407           465.675
                      19    8 Sep 2021 19:44:13.325    8 Sep 2021 19:51:58.991           465.666
                      20    8 Sep 2021 20:36:44.909    8 Sep 2021 20:44:30.580           465.671
                      21    8 Sep 2021 21:29:16.498    8 Sep 2021 21:37:02.172           465.675
                      22    8 Sep 2021 22:21:48.089    8 Sep 2021 22:29:33.761           465.672
                      23    8 Sep 2021 23:14:19.678    8 Sep 2021 23:22:05.349           465.670
                      24    9 Sep 2021 00:06:51.264    9 Sep 2021 00:14:36.936           465.672
                      25    9 Sep 2021 00:59:22.851    9 Sep 2021 01:07:08.526           465.675
                      26    9 Sep 2021 01:51:54.439    9 Sep 2021 01:59:40.114           465.675
                      27    9 Sep 2021 02:44:26.032    9 Sep 2021 02:52:11.699           465.667
                      28    9 Sep 2021 03:36:57.616    9 Sep 2021 03:44:43.287           465.671

Min Duration           1    8 Sep 2021 04:00:00.000    8 Sep 2021 04:06:30.404           390.404
Max Duration          18    8 Sep 2021 18:51:41.732    8 Sep 2021 18:59:27.407           465.675
Mean Duration                                                                            462.984
Total Duration                                                                         12963.549


Satellite406-To-Satellite306
----------------------------
                  Access       Start Time (UTCG)           Stop Time (UTCG)       Duration (sec)
                  ------    -----------------------    -----------------------    --------------
                       1    8 Sep 2021 04:00:00.000    9 Sep 2021 04:00:00.000         86400.000

Min Duration           1    8 Sep 2021 04:00:00.000    9 Sep 2021 04:00:00.000         86400.000
Max Duration           1    8 Sep 2021 04:00:00.000    9 Sep 2021 04:00:00.000         86400.000
Mean Duration                                                                          86400.000
Total Duration                                                                         86400.000


Satellite406-To-Satellite307
----------------------------
                  Access       Start Time (UTCG)           Stop Time (UTCG)       Duration (sec)
                  ------    -----------------------    -----------------------    --------------
                       1    8 Sep 2021 04:00:00.000    9 Sep 2021 04:00:00.000         86400.000

Min Duration           1    8 Sep 2021 04:00:00.000    9 Sep 2021 04:00:00.000         86400.000
Max Duration           1    8 Sep 2021 04:00:00.000    9 Sep 2021 04:00:00.000         86400.000
Mean Duration                                                                          86400.000
Total Duration                                                                         86400.000


Satellite406-To-Satellite308
----------------------------
                  Access       Start Time (UTCG)           Stop Time (UTCG)       Duration (sec)
                  ------    -----------------------    -----------------------    --------------
                       1    8 Sep 2021 04:00:00.000    9 Sep 2021 04:00:00.000         86400.000

Min Duration           1    8 Sep 2021 04:00:00.000    9 Sep 2021 04:00:00.000         86400.000
Max Duration           1    8 Sep 2021 04:00:00.000    9 Sep 2021 04:00:00.000         86400.000
Mean Duration                                                                          86400.000
Total Duration                                                                         86400.000


Satellite406-To-Satellite405
----------------------------
                  Access       Start Time (UTCG)           Stop Time (UTCG)       Duration (sec)
                  ------    -----------------------    -----------------------    --------------
                       1    8 Sep 2021 04:00:00.000    9 Sep 2021 04:00:00.000         86400.000

Min Duration           1    8 Sep 2021 04:00:00.000    9 Sep 2021 04:00:00.000         86400.000
Max Duration           1    8 Sep 2021 04:00:00.000    9 Sep 2021 04:00:00.000         86400.000
Mean Duration                                                                          86400.000
Total Duration                                                                         86400.000


Satellite406-To-Satellite407
----------------------------
                  Access       Start Time (UTCG)           Stop Time (UTCG)       Duration (sec)
                  ------    -----------------------    -----------------------    --------------
                       1    8 Sep 2021 04:00:00.000    9 Sep 2021 04:00:00.000         86400.000

Min Duration           1    8 Sep 2021 04:00:00.000    9 Sep 2021 04:00:00.000         86400.000
Max Duration           1    8 Sep 2021 04:00:00.000    9 Sep 2021 04:00:00.000         86400.000
Mean Duration                                                                          86400.000
Total Duration                                                                         86400.000


Satellite406-To-Satellite504
----------------------------
                  Access       Start Time (UTCG)           Stop Time (UTCG)       Duration (sec)
                  ------    -----------------------    -----------------------    --------------
                       1    8 Sep 2021 04:00:00.000    9 Sep 2021 04:00:00.000         86400.000

Min Duration           1    8 Sep 2021 04:00:00.000    9 Sep 2021 04:00:00.000         86400.000
Max Duration           1    8 Sep 2021 04:00:00.000    9 Sep 2021 04:00:00.000         86400.000
Mean Duration                                                                          86400.000
Total Duration                                                                         86400.000


Satellite406-To-Satellite505
----------------------------
                  Access       Start Time (UTCG)           Stop Time (UTCG)       Duration (sec)
                  ------    -----------------------    -----------------------    --------------
                       1    8 Sep 2021 04:00:00.000    9 Sep 2021 04:00:00.000         86400.000

Min Duration           1    8 Sep 2021 04:00:00.000    9 Sep 2021 04:00:00.000         86400.000
Max Duration           1    8 Sep 2021 04:00:00.000    9 Sep 2021 04:00:00.000         86400.000
Mean Duration                                                                          86400.000
Total Duration                                                                         86400.000


Satellite406-To-Satellite506
----------------------------
                  Access       Start Time (UTCG)           Stop Time (UTCG)       Duration (sec)
                  ------    -----------------------    -----------------------    --------------
                       1    8 Sep 2021 04:00:00.000    9 Sep 2021 04:00:00.000         86400.000

Min Duration           1    8 Sep 2021 04:00:00.000    9 Sep 2021 04:00:00.000         86400.000
Max Duration           1    8 Sep 2021 04:00:00.000    9 Sep 2021 04:00:00.000         86400.000
Mean Duration                                                                          86400.000
Total Duration                                                                         86400.000


Satellite406-To-Satellite602
----------------------------
                  Access       Start Time (UTCG)           Stop Time (UTCG)       Duration (sec)
                  ------    -----------------------    -----------------------    --------------
                       1    8 Sep 2021 04:38:08.423    8 Sep 2021 04:45:54.095           465.672
                       2    8 Sep 2021 05:30:40.010    8 Sep 2021 05:38:25.684           465.674
                       3    8 Sep 2021 06:23:11.598    8 Sep 2021 06:30:57.273           465.675
                       4    8 Sep 2021 07:15:43.186    8 Sep 2021 07:23:28.856           465.670
                       5    8 Sep 2021 08:08:14.774    8 Sep 2021 08:16:00.448           465.673
                       6    8 Sep 2021 09:00:46.363    8 Sep 2021 09:08:32.038           465.675
                       7    8 Sep 2021 09:53:17.954    8 Sep 2021 10:01:03.626           465.672
                       8    8 Sep 2021 10:45:49.544    8 Sep 2021 10:53:35.214           465.670
                       9    8 Sep 2021 11:38:21.130    8 Sep 2021 11:46:06.802           465.672
                      10    8 Sep 2021 12:30:52.717    8 Sep 2021 12:38:38.391           465.674
                      11    8 Sep 2021 13:23:24.305    8 Sep 2021 13:31:09.980           465.675
                      12    8 Sep 2021 14:15:55.896    8 Sep 2021 14:23:41.563           465.667
                      13    8 Sep 2021 15:08:27.482    8 Sep 2021 15:16:13.154           465.673
                      14    8 Sep 2021 16:00:59.070    8 Sep 2021 16:08:44.745           465.675
                      15    8 Sep 2021 16:53:30.661    8 Sep 2021 17:01:16.333           465.672
                      16    8 Sep 2021 17:46:02.251    8 Sep 2021 17:53:47.921           465.670
                      17    8 Sep 2021 18:38:33.837    8 Sep 2021 18:46:19.509           465.672
                      18    8 Sep 2021 19:31:05.424    8 Sep 2021 19:38:51.098           465.674
                      19    8 Sep 2021 20:23:37.012    8 Sep 2021 20:31:22.687           465.675
                      20    8 Sep 2021 21:16:08.605    8 Sep 2021 21:23:54.273           465.668
                      21    8 Sep 2021 22:08:40.189    8 Sep 2021 22:16:25.861           465.672
                      22    8 Sep 2021 23:01:11.777    8 Sep 2021 23:08:57.452           465.675
                      23    8 Sep 2021 23:53:43.369    9 Sep 2021 00:01:29.040           465.672
                      24    9 Sep 2021 00:46:14.958    9 Sep 2021 00:54:00.628           465.670
                      25    9 Sep 2021 01:38:46.544    9 Sep 2021 01:46:32.216           465.672
                      26    9 Sep 2021 02:31:18.131    9 Sep 2021 02:39:03.806           465.674
                      27    9 Sep 2021 03:23:49.719    9 Sep 2021 03:31:35.394           465.675

Min Duration          12    8 Sep 2021 14:15:55.896    8 Sep 2021 14:23:41.563           465.667
Max Duration          27    9 Sep 2021 03:23:49.719    9 Sep 2021 03:31:35.394           465.675
Mean Duration                                                                            465.673
Total Duration                                                                         12573.159


Satellite406-To-Satellite603
----------------------------
                  Access       Start Time (UTCG)           Stop Time (UTCG)       Duration (sec)
                  ------    -----------------------    -----------------------    --------------
                       1    8 Sep 2021 04:21:50.256    8 Sep 2021 04:51:41.943          1791.687
                       2    8 Sep 2021 05:14:21.844    8 Sep 2021 05:44:13.531          1791.687
                       3    8 Sep 2021 06:06:53.432    8 Sep 2021 06:36:45.119          1791.687
                       4    8 Sep 2021 06:59:25.020    8 Sep 2021 07:29:16.707          1791.687
                       5    8 Sep 2021 07:51:56.608    8 Sep 2021 08:21:48.296          1791.687
                       6    8 Sep 2021 08:44:28.197    8 Sep 2021 09:14:19.884          1791.687
                       7    8 Sep 2021 09:36:59.785    8 Sep 2021 10:06:51.472          1791.687
                       8    8 Sep 2021 10:29:31.373    8 Sep 2021 10:59:23.059          1791.686
                       9    8 Sep 2021 11:22:02.965    8 Sep 2021 11:51:54.647          1791.682
                      10    8 Sep 2021 12:14:34.553    8 Sep 2021 12:44:26.236          1791.682
                      11    8 Sep 2021 13:07:06.142    8 Sep 2021 13:36:57.829          1791.687
                      12    8 Sep 2021 13:59:37.730    8 Sep 2021 14:29:29.417          1791.687
                      13    8 Sep 2021 14:52:09.318    8 Sep 2021 15:22:01.005          1791.687
                      14    8 Sep 2021 15:44:40.906    8 Sep 2021 16:14:32.593          1791.687
                      15    8 Sep 2021 16:37:12.494    8 Sep 2021 17:07:04.181          1791.687
                      16    8 Sep 2021 17:29:44.082    8 Sep 2021 17:59:35.769          1791.687
                      17    8 Sep 2021 18:22:15.671    8 Sep 2021 18:52:07.358          1791.687
                      18    8 Sep 2021 19:14:47.259    8 Sep 2021 19:44:38.946          1791.687
                      19    8 Sep 2021 20:07:18.847    8 Sep 2021 20:37:10.534          1791.687
                      20    8 Sep 2021 20:59:50.435    8 Sep 2021 21:29:42.122          1791.687
                      21    8 Sep 2021 21:52:22.023    8 Sep 2021 22:22:13.710          1791.687
                      22    8 Sep 2021 22:44:53.611    8 Sep 2021 23:14:45.298          1791.687
                      23    8 Sep 2021 23:37:25.199    9 Sep 2021 00:07:16.887          1791.687
                      24    9 Sep 2021 00:29:56.788    9 Sep 2021 00:59:48.475          1791.687
                      25    9 Sep 2021 01:22:28.376    9 Sep 2021 01:52:20.062          1791.686
                      26    9 Sep 2021 02:14:59.968    9 Sep 2021 02:44:51.650          1791.682
                      27    9 Sep 2021 03:07:31.556    9 Sep 2021 03:37:23.238          1791.682

Min Duration          26    9 Sep 2021 02:14:59.968    9 Sep 2021 02:44:51.650          1791.682
Max Duration           7    8 Sep 2021 09:36:59.785    8 Sep 2021 10:06:51.472          1791.687
Mean Duration                                                                           1791.686
Total Duration                                                                         48375.529


Satellite406-To-Satellite604
----------------------------
                  Access       Start Time (UTCG)           Stop Time (UTCG)       Duration (sec)
                  ------    -----------------------    -----------------------    --------------
                       1    8 Sep 2021 04:12:40.289    8 Sep 2021 04:50:21.593          2261.304
                       2    8 Sep 2021 05:05:11.879    8 Sep 2021 05:42:53.180          2261.301
                       3    8 Sep 2021 05:57:43.467    8 Sep 2021 06:35:24.769          2261.301
                       4    8 Sep 2021 06:50:15.056    8 Sep 2021 07:27:56.357          2261.301
                       5    8 Sep 2021 07:42:46.644    8 Sep 2021 08:20:27.945          2261.301
                       6    8 Sep 2021 08:35:18.233    8 Sep 2021 09:12:59.534          2261.301
                       7    8 Sep 2021 09:27:49.821    8 Sep 2021 10:05:31.122          2261.301
                       8    8 Sep 2021 10:20:21.409    8 Sep 2021 10:58:02.711          2261.301
                       9    8 Sep 2021 11:12:52.998    8 Sep 2021 11:50:34.299          2261.301
                      10    8 Sep 2021 12:05:24.586    8 Sep 2021 12:43:05.887          2261.301
                      11    8 Sep 2021 12:57:56.175    8 Sep 2021 13:35:37.476          2261.301
                      12    8 Sep 2021 13:50:27.763    8 Sep 2021 14:28:09.064          2261.301
                      13    8 Sep 2021 14:42:59.351    8 Sep 2021 15:20:40.653          2261.301
                      14    8 Sep 2021 15:35:30.940    8 Sep 2021 16:13:12.241          2261.301
                      15    8 Sep 2021 16:28:02.528    8 Sep 2021 17:05:43.829          2261.301
                      16    8 Sep 2021 17:20:34.117    8 Sep 2021 17:58:15.418          2261.301
                      17    8 Sep 2021 18:13:05.705    8 Sep 2021 18:50:47.006          2261.301
                      18    8 Sep 2021 19:05:37.293    8 Sep 2021 19:43:18.595          2261.301
                      19    8 Sep 2021 19:58:08.882    8 Sep 2021 20:35:50.183          2261.301
                      20    8 Sep 2021 20:50:40.470    8 Sep 2021 21:28:21.771          2261.301
                      21    8 Sep 2021 21:43:12.059    8 Sep 2021 22:20:53.360          2261.301
                      22    8 Sep 2021 22:35:43.647    8 Sep 2021 23:13:24.948          2261.301
                      23    8 Sep 2021 23:28:15.235    9 Sep 2021 00:05:56.537          2261.301
                      24    9 Sep 2021 00:20:46.824    9 Sep 2021 00:58:28.125          2261.301
                      25    9 Sep 2021 01:13:18.412    9 Sep 2021 01:50:59.713          2261.301
                      26    9 Sep 2021 02:05:50.001    9 Sep 2021 02:43:31.302          2261.301
                      27    9 Sep 2021 02:58:21.589    9 Sep 2021 03:36:02.890          2261.301
                      28    9 Sep 2021 03:50:53.177    9 Sep 2021 04:00:00.000           546.823

Min Duration          28    9 Sep 2021 03:50:53.177    9 Sep 2021 04:00:00.000           546.823
Max Duration           1    8 Sep 2021 04:12:40.289    8 Sep 2021 04:50:21.593          2261.304
Mean Duration                                                                           2200.070
Total Duration                                                                         61601.959


Satellite406-To-Satellite605
----------------------------
                  Access       Start Time (UTCG)           Stop Time (UTCG)       Duration (sec)
                  ------    -----------------------    -----------------------    --------------
                       1    8 Sep 2021 04:11:22.641    8 Sep 2021 04:41:08.921          1786.281
                       2    8 Sep 2021 05:03:54.232    8 Sep 2021 05:33:40.511          1786.279
                       3    8 Sep 2021 05:56:25.818    8 Sep 2021 06:26:12.099          1786.281
                       4    8 Sep 2021 06:48:57.409    8 Sep 2021 07:18:43.688          1786.279
                       5    8 Sep 2021 07:41:28.995    8 Sep 2021 08:11:15.275          1786.281
                       6    8 Sep 2021 08:34:00.586    8 Sep 2021 09:03:46.865          1786.279
                       7    8 Sep 2021 09:26:32.171    8 Sep 2021 09:56:18.452          1786.281
                       8    8 Sep 2021 10:19:03.763    8 Sep 2021 10:48:50.041          1786.279
                       9    8 Sep 2021 11:11:35.348    8 Sep 2021 11:41:21.629          1786.281
                      10    8 Sep 2021 12:04:06.940    8 Sep 2021 12:33:53.218          1786.279
                      11    8 Sep 2021 12:56:38.525    8 Sep 2021 13:26:24.806          1786.281
                      12    8 Sep 2021 13:49:10.117    8 Sep 2021 14:18:56.395          1786.279
                      13    8 Sep 2021 14:41:41.702    8 Sep 2021 15:11:27.983          1786.281
                      14    8 Sep 2021 15:34:13.293    8 Sep 2021 16:03:59.572          1786.279
                      15    8 Sep 2021 16:26:44.879    8 Sep 2021 16:56:31.160          1786.281
                      16    8 Sep 2021 17:19:16.470    8 Sep 2021 17:49:02.749          1786.278
                      17    8 Sep 2021 18:11:48.055    8 Sep 2021 18:41:34.336          1786.281
                      18    8 Sep 2021 19:04:19.647    8 Sep 2021 19:34:05.925          1786.278
                      19    8 Sep 2021 19:56:51.232    8 Sep 2021 20:26:37.513          1786.281
                      20    8 Sep 2021 20:49:22.824    8 Sep 2021 21:19:09.102          1786.278
                      21    8 Sep 2021 21:41:54.409    8 Sep 2021 22:11:40.690          1786.281
                      22    8 Sep 2021 22:34:26.000    8 Sep 2021 23:04:12.279          1786.278
                      23    8 Sep 2021 23:26:57.586    8 Sep 2021 23:56:43.867          1786.281
                      24    9 Sep 2021 00:19:29.177    9 Sep 2021 00:49:15.456          1786.278
                      25    9 Sep 2021 01:12:00.763    9 Sep 2021 01:41:47.043          1786.281
                      26    9 Sep 2021 02:04:32.354    9 Sep 2021 02:34:18.633          1786.278
                      27    9 Sep 2021 02:57:03.939    9 Sep 2021 03:26:50.220          1786.281
                      28    9 Sep 2021 03:49:35.531    9 Sep 2021 04:00:00.000           624.469

Min Duration          28    9 Sep 2021 03:49:35.531    9 Sep 2021 04:00:00.000           624.469
Max Duration          27    9 Sep 2021 02:57:03.939    9 Sep 2021 03:26:50.220          1786.281
Mean Duration                                                                           1744.787
Total Duration                                                                         48854.023


Satellite406-To-Satellite606
----------------------------
                  Access       Start Time (UTCG)           Stop Time (UTCG)       Duration (sec)
                  ------    -----------------------    -----------------------    --------------
                       1    8 Sep 2021 04:17:03.419    8 Sep 2021 04:24:57.829           474.410
                       2    8 Sep 2021 05:09:35.006    8 Sep 2021 05:17:29.417           474.411
                       3    8 Sep 2021 06:02:06.594    8 Sep 2021 06:10:01.005           474.410
                       4    8 Sep 2021 06:54:38.185    8 Sep 2021 07:02:32.592           474.408
                       5    8 Sep 2021 07:47:09.774    8 Sep 2021 07:55:04.182           474.408
                       6    8 Sep 2021 08:39:41.360    8 Sep 2021 08:47:35.770           474.410
                       7    8 Sep 2021 09:32:12.948    8 Sep 2021 09:40:07.358           474.411
                       8    8 Sep 2021 10:24:44.540    8 Sep 2021 10:32:38.943           474.403
                       9    8 Sep 2021 11:17:16.128    8 Sep 2021 11:25:10.536           474.407
                      10    8 Sep 2021 12:09:47.713    8 Sep 2021 12:17:42.124           474.411
                      11    8 Sep 2021 13:02:19.302    8 Sep 2021 13:10:13.711           474.409
                      12    8 Sep 2021 13:54:50.892    8 Sep 2021 14:02:45.300           474.407
                      13    8 Sep 2021 14:47:22.482    8 Sep 2021 14:55:16.889           474.407
                      14    8 Sep 2021 15:39:54.067    8 Sep 2021 15:47:48.478           474.411
                      15    8 Sep 2021 16:32:25.655    8 Sep 2021 16:40:20.066           474.411
                      16    8 Sep 2021 17:24:57.245    8 Sep 2021 17:32:51.651           474.406
                      17    8 Sep 2021 18:17:28.832    8 Sep 2021 18:25:23.243           474.411
                      18    8 Sep 2021 19:10:00.420    8 Sep 2021 19:17:54.831           474.411
                      19    8 Sep 2021 20:02:32.009    8 Sep 2021 20:10:26.418           474.409
                      20    8 Sep 2021 20:55:03.600    8 Sep 2021 21:02:58.007           474.407
                      21    8 Sep 2021 21:47:35.190    8 Sep 2021 21:55:29.596           474.407
                      22    8 Sep 2021 22:40:06.774    8 Sep 2021 22:48:01.185           474.411
                      23    8 Sep 2021 23:32:38.365    8 Sep 2021 23:40:32.769           474.405
                      24    9 Sep 2021 00:25:09.951    9 Sep 2021 00:33:04.360           474.409
                      25    9 Sep 2021 01:17:41.539    9 Sep 2021 01:25:35.950           474.411
                      26    9 Sep 2021 02:10:13.127    9 Sep 2021 02:18:07.538           474.411
                      27    9 Sep 2021 03:02:44.717    9 Sep 2021 03:10:39.125           474.408
                      28    9 Sep 2021 03:55:16.309    9 Sep 2021 04:00:00.000           283.691

Min Duration          28    9 Sep 2021 03:55:16.309    9 Sep 2021 04:00:00.000           283.691
Max Duration          17    8 Sep 2021 18:17:28.832    8 Sep 2021 18:25:23.243           474.411
Mean Duration                                                                            467.597
Total Duration                                                                         13092.729


Satellite406-To-Satellite701
----------------------------
                  Access       Start Time (UTCG)           Stop Time (UTCG)       Duration (sec)
                  ------    -----------------------    -----------------------    --------------
                       1    8 Sep 2021 04:00:00.000    8 Sep 2021 04:03:37.916           217.916
                       2    8 Sep 2021 04:37:04.540    8 Sep 2021 04:56:09.508          1144.968
                       3    8 Sep 2021 05:29:36.129    8 Sep 2021 05:48:41.094          1144.966
