routing/visibility/v502.txt

Satellite502-To-Satellite105
----------------------------
                  Access       Start Time (UTCG)           Stop Time (UTCG)       Duration (sec)
                  ------    -----------------------    -----------------------    --------------
                       1    8 Sep 2021 04:00:00.000    8 Sep 2021 04:02:53.046           173.046
                       2    8 Sep 2021 04:44:23.357    8 Sep 2021 04:55:24.639           661.282
                       3    8 Sep 2021 05:36:54.944    8 Sep 2021 05:47:56.227           661.283
                       4    8 Sep 2021 06:29:26.531    8 Sep 2021 06:40:27.815           661.284
                       5    8 Sep 2021 07:21:58.119    8 Sep 2021 07:32:59.403           661.284
                       6    8 Sep 2021 08:14:29.712    8 Sep 2021 08:25:30.991           661.278
                       7    8 Sep 2021 09:07:01.301    8 Sep 2021 09:18:02.579           661.278
                       8    8 Sep 2021 09:59:32.889    8 Sep 2021 10:10:34.167           661.278
                       9    8 Sep 2021 10:52:04.477    8 Sep 2021 11:03:05.753           661.276
                      10    8 Sep 2021 11:44:36.064    8 Sep 2021 11:55:37.343           661.279
                      11    8 Sep 2021 12:37:07.652    8 Sep 2021 12:48:08.935           661.283
                      12    8 Sep 2021 13:29:39.239    8 Sep 2021 13:40:40.522           661.284
                      13    8 Sep 2021 14:22:10.826    8 Sep 2021 14:33:12.110           661.284
                      14    8 Sep 2021 15:14:42.418    8 Sep 2021 15:25:43.698           661.279
                      15    8 Sep 2021 16:07:14.008    8 Sep 2021 16:18:15.286           661.278
                      16    8 Sep 2021 16:59:45.596    8 Sep 2021 17:10:46.874           661.278
                      17    8 Sep 2021 17:52:17.184    8 Sep 2021 18:03:18.460           661.276
                      18    8 Sep 2021 18:44:48.772    8 Sep 2021 18:55:50.049           661.277
                      19    8 Sep 2021 19:37:20.359    8 Sep 2021 19:48:21.642           661.283
                      20    8 Sep 2021 20:29:51.946    8 Sep 2021 20:40:53.230           661.284
                      21    8 Sep 2021 21:22:23.534    8 Sep 2021 21:33:24.817           661.284
                      22    8 Sep 2021 22:14:55.124    8 Sep 2021 22:25:56.405           661.282
                      23    8 Sep 2021 23:07:26.715    8 Sep 2021 23:18:27.993           661.278
                      24    8 Sep 2021 23:59:58.303    9 Sep 2021 00:10:59.581           661.278
                      25    9 Sep 2021 00:52:29.891    9 Sep 2021 01:03:31.167           661.276
                      26    9 Sep 2021 01:45:01.479    9 Sep 2021 01:56:02.760           661.281
                      27    9 Sep 2021 02:37:33.067    9 Sep 2021 02:48:34.349           661.282
                      28    9 Sep 2021 03:30:04.654    9 Sep 2021 03:41:05.937           661.283

Min Duration           1    8 Sep 2021 04:00:00.000    8 Sep 2021 04:02:53.046           173.046
Max Duration           4    8 Sep 2021 06:29:26.531    8 Sep 2021 06:40:27.815           661.284
Mean Duration                                                                            643.843
Total Duration                                                                         18027.616


Satellite502-To-Satellite106
----------------------------
                  Access       Start Time (UTCG)           Stop Time (UTCG)       Duration (sec)
                  ------    -----------------------    -----------------------    --------------
                       1    8 Sep 2021 04:00:00.000    8 Sep 2021 04:01:28.998            88.998
                       2    8 Sep 2021 04:35:17.093    8 Sep 2021 04:54:00.585          1123.492
                       3    8 Sep 2021 05:27:48.678    8 Sep 2021 05:46:32.172          1123.494
                       4    8 Sep 2021 06:20:20.269    8 Sep 2021 06:39:03.760          1123.491
                       5    8 Sep 2021 07:12:51.857    8 Sep 2021 07:31:35.352          1123.494
                       6    8 Sep 2021 08:05:23.443    8 Sep 2021 08:24:06.940          1123.497
                       7    8 Sep 2021 08:57:55.035    8 Sep 2021 09:16:38.525          1123.491
                       8    8 Sep 2021 09:50:26.623    8 Sep 2021 10:09:10.113          1123.490
                       9    8 Sep 2021 10:42:58.210    8 Sep 2021 11:01:41.703          1123.493
                      10    8 Sep 2021 11:35:29.796    8 Sep 2021 11:54:13.294          1123.498
                      11    8 Sep 2021 12:28:01.384    8 Sep 2021 12:46:44.881          1123.497
                      12    8 Sep 2021 13:20:32.977    8 Sep 2021 13:39:16.468          1123.491
                      13    8 Sep 2021 14:13:04.565    8 Sep 2021 14:31:48.055          1123.490
                      14    8 Sep 2021 15:05:36.151    8 Sep 2021 15:24:19.645          1123.494
                      15    8 Sep 2021 15:58:07.738    8 Sep 2021 16:16:51.237          1123.499
                      16    8 Sep 2021 16:50:39.326    8 Sep 2021 17:09:22.823          1123.497
                      17    8 Sep 2021 17:43:10.919    8 Sep 2021 18:01:54.410          1123.491
                      18    8 Sep 2021 18:35:42.507    8 Sep 2021 18:54:25.997          1123.490
                      19    8 Sep 2021 19:28:14.093    8 Sep 2021 19:46:57.587          1123.494
                      20    8 Sep 2021 20:20:45.679    8 Sep 2021 20:39:29.178          1123.499
                      21    8 Sep 2021 21:13:17.268    8 Sep 2021 21:32:00.765          1123.497
                      22    8 Sep 2021 22:05:48.861    8 Sep 2021 22:24:32.352          1123.491
                      23    8 Sep 2021 22:58:20.449    8 Sep 2021 23:17:03.939          1123.490
                      24    8 Sep 2021 23:50:52.035    9 Sep 2021 00:09:35.529          1123.494
                      25    9 Sep 2021 00:43:23.621    9 Sep 2021 01:02:07.120          1123.499
                      26    9 Sep 2021 01:35:55.210    9 Sep 2021 01:54:38.706          1123.497
                      27    9 Sep 2021 02:28:26.803    9 Sep 2021 02:47:10.294          1123.491
                      28    9 Sep 2021 03:20:58.391    9 Sep 2021 03:39:41.881          1123.490

Min Duration           1    8 Sep 2021 04:00:00.000    8 Sep 2021 04:01:28.998            88.998
Max Duration          25    9 Sep 2021 00:43:23.621    9 Sep 2021 01:02:07.120          1123.499
Mean Duration                                                                           1086.547
Total Duration                                                                         30423.327


Satellite502-To-Satellite107
----------------------------
                  Access       Start Time (UTCG)           Stop Time (UTCG)       Duration (sec)
                  ------    -----------------------    -----------------------    --------------
                       1    8 Sep 2021 04:28:04.872    8 Sep 2021 04:50:42.482          1357.610
                       2    8 Sep 2021 05:20:36.461    8 Sep 2021 05:43:14.071          1357.610
                       3    8 Sep 2021 06:13:08.052    8 Sep 2021 06:35:45.662          1357.610
                       4    8 Sep 2021 07:05:39.641    8 Sep 2021 07:28:17.251          1357.610
                       5    8 Sep 2021 07:58:11.229    8 Sep 2021 08:20:48.839          1357.610
                       6    8 Sep 2021 08:50:42.817    8 Sep 2021 09:13:20.428          1357.610
                       7    8 Sep 2021 09:43:14.406    8 Sep 2021 10:05:52.016          1357.610
                       8    8 Sep 2021 10:35:45.994    8 Sep 2021 10:58:23.604          1357.610
                       9    8 Sep 2021 11:28:17.583    8 Sep 2021 11:50:55.193          1357.610
                      10    8 Sep 2021 12:20:49.171    8 Sep 2021 12:43:26.781          1357.610
                      11    8 Sep 2021 13:13:20.759    8 Sep 2021 13:35:58.370          1357.610
                      12    8 Sep 2021 14:05:52.348    8 Sep 2021 14:28:29.958          1357.610
                      13    8 Sep 2021 14:58:23.936    8 Sep 2021 15:21:01.546          1357.610
                      14    8 Sep 2021 15:50:55.525    8 Sep 2021 16:13:33.135          1357.610
                      15    8 Sep 2021 16:43:27.113    8 Sep 2021 17:06:04.723          1357.610
                      16    8 Sep 2021 17:35:58.701    8 Sep 2021 17:58:36.312          1357.610
                      17    8 Sep 2021 18:28:30.290    8 Sep 2021 18:51:07.900          1357.610
                      18    8 Sep 2021 19:21:01.878    8 Sep 2021 19:43:39.488          1357.610
                      19    8 Sep 2021 20:13:33.467    8 Sep 2021 20:36:11.077          1357.610
                      20    8 Sep 2021 21:06:05.055    8 Sep 2021 21:28:42.665          1357.610
                      21    8 Sep 2021 21:58:36.643    8 Sep 2021 22:21:14.254          1357.610
                      22    8 Sep 2021 22:51:08.232    8 Sep 2021 23:13:45.842          1357.610
                      23    8 Sep 2021 23:43:39.820    9 Sep 2021 00:06:17.430          1357.610
                      24    9 Sep 2021 00:36:11.409    9 Sep 2021 00:58:49.019          1357.610
                      25    9 Sep 2021 01:28:42.997    9 Sep 2021 01:51:20.607          1357.610
                      26    9 Sep 2021 02:21:14.585    9 Sep 2021 02:43:52.196          1357.610
                      27    9 Sep 2021 03:13:46.174    9 Sep 2021 03:36:23.784          1357.610

Min Duration          12    8 Sep 2021 14:05:52.348    8 Sep 2021 14:28:29.958          1357.610
Max Duration           2    8 Sep 2021 05:20:36.461    8 Sep 2021 05:43:14.071          1357.610
Mean Duration                                                                           1357.610
Total Duration                                                                         36655.475


Satellite502-To-Satellite108
----------------------------
                  Access       Start Time (UTCG)           Stop Time (UTCG)       Duration (sec)
                  ------    -----------------------    -----------------------    --------------
                       1    8 Sep 2021 04:22:49.708    8 Sep 2021 04:45:27.328          1357.620
                       2    8 Sep 2021 05:15:21.297    8 Sep 2021 05:37:58.916          1357.620
                       3    8 Sep 2021 06:07:52.885    8 Sep 2021 06:30:30.505          1357.620
                       4    8 Sep 2021 07:00:24.477    8 Sep 2021 07:23:02.097          1357.620
                       5    8 Sep 2021 07:52:56.065    8 Sep 2021 08:15:33.685          1357.620
                       6    8 Sep 2021 08:45:27.654    8 Sep 2021 09:08:05.274          1357.620
                       7    8 Sep 2021 09:37:59.242    8 Sep 2021 10:00:36.862          1357.620
                       8    8 Sep 2021 10:30:30.831    8 Sep 2021 10:53:08.450          1357.620
                       9    8 Sep 2021 11:23:02.419    8 Sep 2021 11:45:40.039          1357.620
                      10    8 Sep 2021 12:15:34.007    8 Sep 2021 12:38:11.627          1357.620
                      11    8 Sep 2021 13:08:05.596    8 Sep 2021 13:30:43.216          1357.620
                      12    8 Sep 2021 14:00:37.184    8 Sep 2021 14:23:14.804          1357.620
                      13    8 Sep 2021 14:53:08.773    8 Sep 2021 15:15:46.392          1357.620
                      14    8 Sep 2021 15:45:40.361    8 Sep 2021 16:08:17.981          1357.620
                      15    8 Sep 2021 16:38:11.949    8 Sep 2021 17:00:49.569          1357.620
                      16    8 Sep 2021 17:30:43.538    8 Sep 2021 17:53:21.157          1357.620
                      17    8 Sep 2021 18:23:15.126    8 Sep 2021 18:45:52.746          1357.620
                      18    8 Sep 2021 19:15:46.715    8 Sep 2021 19:38:24.334          1357.620
                      19    8 Sep 2021 20:08:18.303    8 Sep 2021 20:30:55.923          1357.620
                      20    8 Sep 2021 21:00:49.891    8 Sep 2021 21:23:27.511          1357.620
                      21    8 Sep 2021 21:53:21.480    8 Sep 2021 22:15:59.099          1357.620
                      22    8 Sep 2021 22:45:53.068    8 Sep 2021 23:08:30.688          1357.620
                      23    8 Sep 2021 23:38:24.657    9 Sep 2021 00:01:02.276          1357.620
                      24    9 Sep 2021 00:30:56.245    9 Sep 2021 00:53:33.865          1357.620
                      25    9 Sep 2021 01:23:27.833    9 Sep 2021 01:46:05.453          1357.620
                      26    9 Sep 2021 02:15:59.422    9 Sep 2021 02:38:37.041          1357.620
                      27    9 Sep 2021 03:08:31.010    9 Sep 2021 03:31:08.630          1357.620

Min Duration          27    9 Sep 2021 03:08:31.010    9 Sep 2021 03:31:08.630          1357.620
Max Duration           3    8 Sep 2021 06:07:52.885    8 Sep 2021 06:30:30.505          1357.620
Mean Duration                                                                           1357.620
Total Duration                                                                         36655.731


Satellite502-To-Satellite109
----------------------------
                  Access       Start Time (UTCG)           Stop Time (UTCG)       Duration (sec)
                  ------    -----------------------    -----------------------    --------------
                       1    8 Sep 2021 04:19:31.603    8 Sep 2021 04:38:15.121          1123.518
                       2    8 Sep 2021 05:12:03.191    8 Sep 2021 05:30:46.708          1123.517
                       3    8 Sep 2021 06:04:34.779    8 Sep 2021 06:23:18.299          1123.520
                       4    8 Sep 2021 06:57:06.367    8 Sep 2021 07:15:49.889          1123.522
                       5    8 Sep 2021 07:49:37.956    8 Sep 2021 08:08:21.474          1123.517
                       6    8 Sep 2021 08:42:09.544    8 Sep 2021 09:00:53.062          1123.518
                       7    8 Sep 2021 09:34:41.132    8 Sep 2021 09:53:24.651          1123.519
                       8    8 Sep 2021 10:27:12.719    8 Sep 2021 10:45:56.243          1123.524
                       9    8 Sep 2021 11:19:44.305    8 Sep 2021 11:38:27.830          1123.524
                      10    8 Sep 2021 12:12:15.898    8 Sep 2021 12:30:59.416          1123.518
                      11    8 Sep 2021 13:04:47.487    8 Sep 2021 13:23:31.004          1123.517
                      12    8 Sep 2021 13:57:19.073    8 Sep 2021 14:16:02.594          1123.520
                      13    8 Sep 2021 14:49:50.659    8 Sep 2021 15:08:34.185          1123.526
                      14    8 Sep 2021 15:42:22.247    8 Sep 2021 16:01:05.771          1123.524
                      15    8 Sep 2021 16:34:53.840    8 Sep 2021 16:53:37.358          1123.518
                      16    8 Sep 2021 17:27:25.429    8 Sep 2021 17:46:08.946          1123.517
                      17    8 Sep 2021 18:19:57.015    8 Sep 2021 18:38:40.536          1123.521
                      18    8 Sep 2021 19:12:28.601    8 Sep 2021 19:31:12.127          1123.526
                      19    8 Sep 2021 20:05:00.189    8 Sep 2021 20:23:43.713          1123.524
                      20    8 Sep 2021 20:57:31.782    8 Sep 2021 21:16:15.300          1123.518
                      21    8 Sep 2021 21:50:03.371    8 Sep 2021 22:08:46.888          1123.517
                      22    8 Sep 2021 22:42:34.957    8 Sep 2021 23:01:18.478          1123.521
                      23    8 Sep 2021 23:35:06.543    8 Sep 2021 23:53:50.069          1123.526
                      24    9 Sep 2021 00:27:38.131    9 Sep 2021 00:46:21.655          1123.524
                      25    9 Sep 2021 01:20:09.724    9 Sep 2021 01:38:53.242          1123.518
                      26    9 Sep 2021 02:12:41.313    9 Sep 2021 02:31:24.830          1123.517
                      27    9 Sep 2021 03:05:12.899    9 Sep 2021 03:23:56.420          1123.521
                      28    9 Sep 2021 03:57:44.485    9 Sep 2021 04:00:00.000           135.515

Min Duration          28    9 Sep 2021 03:57:44.485    9 Sep 2021 04:00:00.000           135.515
Max Duration          23    8 Sep 2021 23:35:06.543    8 Sep 2021 23:53:50.069          1123.526
Mean Duration                                                                           1088.234
Total Duration                                                                         30470.564


Satellite502-To-Satellite110
----------------------------
                  Access       Start Time (UTCG)           Stop Time (UTCG)       Duration (sec)
                  ------    -----------------------    -----------------------    --------------
                       1    8 Sep 2021 04:18:07.540    8 Sep 2021 04:29:08.867           661.327
                       2    8 Sep 2021 05:10:39.128    8 Sep 2021 05:21:40.455           661.327
                       3    8 Sep 2021 06:03:10.717    8 Sep 2021 06:14:12.041           661.325
                       4    8 Sep 2021 06:55:42.304    8 Sep 2021 07:06:43.630           661.325
                       5    8 Sep 2021 07:48:13.892    8 Sep 2021 07:59:15.223           661.331
                       6    8 Sep 2021 08:40:45.479    8 Sep 2021 08:51:46.811           661.332
                       7    8 Sep 2021 09:33:17.066    8 Sep 2021 09:44:18.399           661.332
                       8    8 Sep 2021 10:25:48.654    8 Sep 2021 10:36:49.986           661.332
                       9    8 Sep 2021 11:18:20.246    8 Sep 2021 11:29:21.574           661.328
                      10    8 Sep 2021 12:10:51.836    8 Sep 2021 12:21:53.162           661.327
                      11    8 Sep 2021 13:03:23.424    8 Sep 2021 13:14:24.749           661.325
                      12    8 Sep 2021 13:55:55.012    8 Sep 2021 14:06:56.338           661.327
                      13    8 Sep 2021 14:48:26.599    8 Sep 2021 14:59:27.930           661.331
                      14    8 Sep 2021 15:40:58.186    8 Sep 2021 15:51:59.518           661.332
                      15    8 Sep 2021 16:33:29.773    8 Sep 2021 16:44:31.106           661.332
                      16    8 Sep 2021 17:26:01.361    8 Sep 2021 17:37:02.694           661.332
                      17    8 Sep 2021 18:18:32.952    8 Sep 2021 18:29:34.282           661.330
                      18    8 Sep 2021 19:11:04.543    8 Sep 2021 19:22:05.869           661.327
                      19    8 Sep 2021 20:03:36.131    8 Sep 2021 20:14:37.458           661.327
                      20    8 Sep 2021 20:56:07.719    8 Sep 2021 21:07:09.044           661.325
                      21    8 Sep 2021 21:48:39.306    8 Sep 2021 21:59:40.636           661.329
                      22    8 Sep 2021 22:41:10.894    8 Sep 2021 22:52:12.225           661.332
                      23    8 Sep 2021 23:33:42.481    8 Sep 2021 23:44:43.813           661.332
                      24    9 Sep 2021 00:26:14.069    9 Sep 2021 00:37:15.401           661.332
                      25    9 Sep 2021 01:18:45.661    9 Sep 2021 01:29:46.989           661.327
                      26    9 Sep 2021 02:11:17.250    9 Sep 2021 02:22:18.577           661.327
                      27    9 Sep 2021 03:03:48.838    9 Sep 2021 03:14:50.165           661.327
                      28    9 Sep 2021 03:56:20.426    9 Sep 2021 04:00:00.000           219.574

Min Duration          28    9 Sep 2021 03:56:20.426    9 Sep 2021 04:00:00.000           219.574
Max Duration           7    8 Sep 2021 09:33:17.066    8 Sep 2021 09:44:18.399           661.332
Mean Duration                                                                            645.552
Total Duration                                                                         18075.454


Satellite502-To-Satellite203
----------------------------
                  Access       Start Time (UTCG)           Stop Time (UTCG)       Duration (sec)
                  ------    -----------------------    -----------------------    --------------
                       1    8 Sep 2021 04:03:42.563    8 Sep 2021 04:10:44.099           421.537
                       2    8 Sep 2021 04:56:14.153    8 Sep 2021 05:03:15.688           421.534
                       3    8 Sep 2021 05:48:45.739    8 Sep 2021 05:55:47.275           421.536
                       4    8 Sep 2021 06:41:17.332    8 Sep 2021 06:48:18.864           421.532
                       5    8 Sep 2021 07:33:48.916    8 Sep 2021 07:40:50.453           421.537
                       6    8 Sep 2021 08:26:20.508    8 Sep 2021 08:33:22.041           421.533
                       7    8 Sep 2021 09:18:52.093    8 Sep 2021 09:25:53.630           421.537
                       8    8 Sep 2021 10:11:23.684    8 Sep 2021 10:18:25.218           421.534
                       9    8 Sep 2021 11:03:55.270    8 Sep 2021 11:10:56.807           421.537
                      10    8 Sep 2021 11:56:26.860    8 Sep 2021 12:03:28.395           421.535
                      11    8 Sep 2021 12:48:58.447    8 Sep 2021 12:55:59.983           421.536
                      12    8 Sep 2021 13:41:30.036    8 Sep 2021 13:48:31.572           421.536
                      13    8 Sep 2021 14:34:01.624    8 Sep 2021 14:41:03.160           421.536
                      14    8 Sep 2021 15:26:33.212    8 Sep 2021 15:33:34.749           421.537
                      15    8 Sep 2021 16:19:04.803    8 Sep 2021 16:26:06.337           421.534
                      16    8 Sep 2021 17:11:36.388    8 Sep 2021 17:18:37.925           421.537
                      17    8 Sep 2021 18:04:07.979    8 Sep 2021 18:11:09.513           421.534
                      18    8 Sep 2021 18:56:39.565    8 Sep 2021 19:03:41.101           421.536
                      19    8 Sep 2021 19:49:11.158    8 Sep 2021 19:56:12.690           421.532
                      20    8 Sep 2021 20:41:42.742    8 Sep 2021 20:48:44.279           421.537
                      21    8 Sep 2021 21:34:14.334    8 Sep 2021 21:41:15.867           421.533
                      22    8 Sep 2021 22:26:45.919    8 Sep 2021 22:33:47.456           421.537
                      23    8 Sep 2021 23:19:17.510    8 Sep 2021 23:26:19.043           421.534
                      24    9 Sep 2021 00:11:49.096    9 Sep 2021 00:18:50.633           421.537
                      25    9 Sep 2021 01:04:20.686    9 Sep 2021 01:11:22.221           421.535
                      26    9 Sep 2021 01:56:52.273    9 Sep 2021 02:03:53.809           421.536
                      27    9 Sep 2021 02:49:23.862    9 Sep 2021 02:56:25.398           421.536
                      28    9 Sep 2021 03:41:55.450    9 Sep 2021 03:48:56.986           421.536

Min Duration           4    8 Sep 2021 06:41:17.332    8 Sep 2021 06:48:18.864           421.532
Max Duration           5    8 Sep 2021 07:33:48.916    8 Sep 2021 07:40:50.453           421.537
Mean Duration                                                                            421.535
Total Duration                                                                         11802.990


Satellite502-To-Satellite204
----------------------------
                  Access       Start Time (UTCG)           Stop Time (UTCG)       Duration (sec)
                  ------    -----------------------    -----------------------    --------------
                       1    8 Sep 2021 04:00:00.000    8 Sep 2021 04:11:40.185           700.185
                       2    8 Sep 2021 04:44:47.748    8 Sep 2021 05:04:11.775          1164.027
                       3    8 Sep 2021 05:37:19.338    8 Sep 2021 05:56:43.362          1164.024
                       4    8 Sep 2021 06:29:50.926    8 Sep 2021 06:49:14.951          1164.025
                       5    8 Sep 2021 07:22:22.513    8 Sep 2021 07:41:46.538          1164.025
                       6    8 Sep 2021 08:14:54.103    8 Sep 2021 08:34:18.128          1164.025
                       7    8 Sep 2021 09:07:25.686    8 Sep 2021 09:26:49.714          1164.028
                       8    8 Sep 2021 09:59:57.278    8 Sep 2021 10:19:21.303          1164.024
                       9    8 Sep 2021 10:52:28.868    8 Sep 2021 11:11:52.893          1164.025
                      10    8 Sep 2021 11:45:00.456    8 Sep 2021 12:04:24.481          1164.024
                      11    8 Sep 2021 12:37:32.042    8 Sep 2021 12:56:56.068          1164.026
                      12    8 Sep 2021 13:30:03.632    8 Sep 2021 13:49:27.657          1164.025
                      13    8 Sep 2021 14:22:35.219    8 Sep 2021 14:41:59.246          1164.027
                      14    8 Sep 2021 15:15:06.810    8 Sep 2021 15:34:30.835          1164.025
                      15    8 Sep 2021 16:07:38.397    8 Sep 2021 16:27:02.426          1164.028
                      16    8 Sep 2021 17:00:09.985    8 Sep 2021 17:19:34.011          1164.026
                      17    8 Sep 2021 17:52:41.575    8 Sep 2021 18:12:05.599          1164.024
                      18    8 Sep 2021 18:45:13.161    8 Sep 2021 19:04:37.187          1164.026
                      19    8 Sep 2021 19:37:44.750    8 Sep 2021 19:57:08.775          1164.025
                      20    8 Sep 2021 20:30:16.339    8 Sep 2021 20:49:40.366          1164.027
                      21    8 Sep 2021 21:22:47.929    8 Sep 2021 21:42:11.953          1164.024
                      22    8 Sep 2021 22:15:19.515    8 Sep 2021 22:34:43.541          1164.026
                      23    8 Sep 2021 23:07:51.104    8 Sep 2021 23:27:15.129          1164.025
                      24    9 Sep 2021 00:00:22.692    9 Sep 2021 00:19:46.718          1164.026
                      25    9 Sep 2021 00:52:54.282    9 Sep 2021 01:12:18.305          1164.023
                      26    9 Sep 2021 01:45:25.870    9 Sep 2021 02:04:49.898          1164.029
                      27    9 Sep 2021 02:37:57.458    9 Sep 2021 02:57:21.484          1164.026
                      28    9 Sep 2021 03:30:29.047    9 Sep 2021 03:49:53.072          1164.024

Min Duration           1    8 Sep 2021 04:00:00.000    8 Sep 2021 04:11:40.185           700.185
Max Duration          26    9 Sep 2021 01:45:25.870    9 Sep 2021 02:04:49.898          1164.029
Mean Duration                                                                           1147.460
Total Duration                                                                         32128.875


Satellite502-To-Satellite205
----------------------------
                  Access       Start Time (UTCG)           Stop Time (UTCG)       Duration (sec)
                  ------    -----------------------    -----------------------    --------------
                       1    8 Sep 2021 04:00:00.000    8 Sep 2021 04:09:08.626           548.626
                       2    8 Sep 2021 04:36:48.989    8 Sep 2021 05:01:40.210          1491.221
                       3    8 Sep 2021 05:29:20.581    8 Sep 2021 05:54:11.803          1491.221
                       4    8 Sep 2021 06:21:52.166    8 Sep 2021 06:46:43.387          1491.221
                       5    8 Sep 2021 07:14:23.758    8 Sep 2021 07:39:14.979          1491.221
                       6    8 Sep 2021 08:06:55.343    8 Sep 2021 08:31:46.564          1491.221
                       7    8 Sep 2021 08:59:26.935    8 Sep 2021 09:24:18.156          1491.221
                       8    8 Sep 2021 09:51:58.520    8 Sep 2021 10:16:49.741          1491.221
                       9    8 Sep 2021 10:44:30.112    8 Sep 2021 11:09:21.333          1491.221
                      10    8 Sep 2021 11:37:01.697    8 Sep 2021 12:01:52.917          1491.221
                      11    8 Sep 2021 12:29:33.289    8 Sep 2021 12:54:24.510          1491.221
                      12    8 Sep 2021 13:22:04.873    8 Sep 2021 13:46:56.094          1491.221
                      13    8 Sep 2021 14:14:36.466    8 Sep 2021 14:39:27.686          1491.221
                      14    8 Sep 2021 15:07:08.050    8 Sep 2021 15:31:59.271          1491.221
                      15    8 Sep 2021 15:59:39.642    8 Sep 2021 16:24:30.863          1491.221
                      16    8 Sep 2021 16:52:11.227    8 Sep 2021 17:17:02.448          1491.221
                      17    8 Sep 2021 17:44:42.819    8 Sep 2021 18:09:34.040          1491.221
                      18    8 Sep 2021 18:37:14.404    8 Sep 2021 19:02:05.625          1491.221
                      19    8 Sep 2021 19:29:45.996    8 Sep 2021 19:54:37.217          1491.221
                      20    8 Sep 2021 20:22:17.580    8 Sep 2021 20:47:08.801          1491.221
                      21    8 Sep 2021 21:14:49.173    8 Sep 2021 21:39:40.394          1491.221
                      22    8 Sep 2021 22:07:20.757    8 Sep 2021 22:32:11.978          1491.221
                      23    8 Sep 2021 22:59:52.349    8 Sep 2021 23:24:43.570          1491.221
                      24    8 Sep 2021 23:52:23.934    9 Sep 2021 00:17:15.155          1491.221
                      25    9 Sep 2021 00:44:55.526    9 Sep 2021 01:09:46.747          1491.221
                      26    9 Sep 2021 01:37:27.111    9 Sep 2021 02:02:18.332          1491.221
                      27    9 Sep 2021 02:29:58.703    9 Sep 2021 02:54:49.924          1491.221
                      28    9 Sep 2021 03:22:30.288    9 Sep 2021 03:47:21.508          1491.221

Min Duration           1    8 Sep 2021 04:00:00.000    8 Sep 2021 04:09:08.626           548.626
Max Duration           3    8 Sep 2021 05:29:20.581    8 Sep 2021 05:54:11.803          1491.221
Mean Duration                                                                           1457.557
Total Duration                                                                         40811.590


Satellite502-To-Satellite206
----------------------------
                  Access       Start Time (UTCG)           Stop Time (UTCG)       Duration (sec)
                  ------    -----------------------    -----------------------    --------------
                       1    8 Sep 2021 04:00:00.000    8 Sep 2021 04:03:50.490           230.490
                       2    8 Sep 2021 04:31:36.808    8 Sep 2021 04:56:22.081          1485.273
                       3    8 Sep 2021 05:24:08.392    8 Sep 2021 05:48:53.666          1485.273
                       4    8 Sep 2021 06:16:39.984    8 Sep 2021 06:41:25.258          1485.274
                       5    8 Sep 2021 07:09:11.572    8 Sep 2021 07:33:56.842          1485.271
                       6    8 Sep 2021 08:01:43.161    8 Sep 2021 08:26:28.434          1485.274
                       7    8 Sep 2021 08:54:14.750    8 Sep 2021 09:19:00.019          1485.269
                       8    8 Sep 2021 09:46:46.337    8 Sep 2021 10:11:31.611          1485.274
                       9    8 Sep 2021 10:39:17.928    8 Sep 2021 11:04:03.196          1485.268
                      10    8 Sep 2021 11:31:49.514    8 Sep 2021 11:56:34.788          1485.274
                      11    8 Sep 2021 12:24:21.104    8 Sep 2021 12:49:06.373          1485.268
                      12    8 Sep 2021 13:16:52.691    8 Sep 2021 13:41:37.965          1485.274
                      13    8 Sep 2021 14:09:24.281    8 Sep 2021 14:34:09.550          1485.268
                      14    8 Sep 2021 15:01:55.868    8 Sep 2021 15:26:41.142          1485.274
                      15    8 Sep 2021 15:54:27.458    8 Sep 2021 16:19:12.726          1485.268
                      16    8 Sep 2021 16:46:59.044    8 Sep 2021 17:11:44.318          1485.274
                      17    8 Sep 2021 17:39:30.635    8 Sep 2021 18:04:15.903          1485.268
                      18    8 Sep 2021 18:32:02.221    8 Sep 2021 18:56:47.495          1485.274
                      19    8 Sep 2021 19:24:33.812    8 Sep 2021 19:49:19.080          1485.268
                      20    8 Sep 2021 20:17:05.398    8 Sep 2021 20:41:50.672          1485.274
                      21    8 Sep 2021 21:09:36.988    8 Sep 2021 21:34:22.257          1485.268
                      22    8 Sep 2021 22:02:08.575    8 Sep 2021 22:26:53.849          1485.274
                      23    8 Sep 2021 22:54:40.165    8 Sep 2021 23:19:25.433          1485.268
                      24    8 Sep 2021 23:47:11.752    9 Sep 2021 00:11:57.026          1485.274
                      25    9 Sep 2021 00:39:43.342    9 Sep 2021 01:04:28.610          1485.268
                      26    9 Sep 2021 01:32:14.928    9 Sep 2021 01:57:00.202          1485.274
                      27    9 Sep 2021 02:24:46.519    9 Sep 2021 02:49:31.787          1485.268
                      28    9 Sep 2021 03:17:18.105    9 Sep 2021 03:42:03.379          1485.274

Min Duration           1    8 Sep 2021 04:00:00.000    8 Sep 2021 04:03:50.490           230.490
Max Duration          28    9 Sep 2021 03:17:18.105    9 Sep 2021 03:42:03.379          1485.274
Mean Duration                                                                           1440.458
Total Duration                                                                         40332.820


Satellite502-To-Satellite207
----------------------------
                  Access       Start Time (UTCG)           Stop Time (UTCG)       Duration (sec)
                  ------    -----------------------    -----------------------    --------------
                       1    8 Sep 2021 04:29:11.798    8 Sep 2021 04:48:16.766          1144.968
                       2    8 Sep 2021 05:21:43.391    8 Sep 2021 05:40:48.357          1144.966
                       3    8 Sep 2021 06:14:14.979    8 Sep 2021 06:33:19.945          1144.967
                       4    8 Sep 2021 07:06:46.567    8 Sep 2021 07:25:51.534          1144.966
                       5    8 Sep 2021 07:59:18.156    8 Sep 2021 08:18:23.120          1144.965
                       6    8 Sep 2021 08:51:49.744    8 Sep 2021 09:10:54.710          1144.966
                       7    8 Sep 2021 09:44:21.332    8 Sep 2021 10:03:26.299          1144.966
                       8    8 Sep 2021 10:36:52.917    8 Sep 2021 10:55:57.887          1144.970
                       9    8 Sep 2021 11:29:24.506    8 Sep 2021 11:48:29.475          1144.969
                      10    8 Sep 2021 12:21:56.095    8 Sep 2021 12:41:01.064          1144.969
                      11    8 Sep 2021 13:14:27.683    8 Sep 2021 13:33:32.652          1144.969
                      12    8 Sep 2021 14:06:59.272    8 Sep 2021 14:26:04.240          1144.969
                      13    8 Sep 2021 14:59:30.860    8 Sep 2021 15:18:35.829          1144.968
                      14    8 Sep 2021 15:52:02.449    8 Sep 2021 16:11:07.417          1144.968
                      15    8 Sep 2021 16:44:34.037    8 Sep 2021 17:03:39.005          1144.968
                      16    8 Sep 2021 17:37:05.626    8 Sep 2021 17:56:10.594          1144.968
                      17    8 Sep 2021 18:29:37.214    8 Sep 2021 18:48:42.182          1144.968
                      18    8 Sep 2021 19:22:08.802    8 Sep 2021 19:41:13.771          1144.968
                      19    8 Sep 2021 20:14:40.391    8 Sep 2021 20:33:45.359          1144.968
                      20    8 Sep 2021 21:07:11.979    8 Sep 2021 21:26:16.947          1144.968
                      21    8 Sep 2021 21:59:43.568    8 Sep 2021 22:18:48.536          1144.968
                      22    8 Sep 2021 22:52:15.156    8 Sep 2021 23:11:20.124          1144.968
                      23    8 Sep 2021 23:44:46.744    9 Sep 2021 00:03:51.713          1144.968
                      24    9 Sep 2021 00:37:18.333    9 Sep 2021 00:56:23.301          1144.968
                      25    9 Sep 2021 01:29:49.921    9 Sep 2021 01:48:54.889          1144.968
                      26    9 Sep 2021 02:22:21.510    9 Sep 2021 02:41:26.478          1144.968
                      27    9 Sep 2021 03:14:53.098    9 Sep 2021 03:33:58.066          1144.968

Min Duration           5    8 Sep 2021 07:59:18.156    8 Sep 2021 08:18:23.120          1144.965
Max Duration           8    8 Sep 2021 10:36:52.917    8 Sep 2021 10:55:57.887          1144.970
Mean Duration                                                                           1144.968
Total Duration                                                                         30914.135


Satellite502-To-Satellite208
----------------------------
                  Access       Start Time (UTCG)           Stop Time (UTCG)       Duration (sec)
                  ------    -----------------------    -----------------------    --------------
                       1    8 Sep 2021 04:30:31.871    8 Sep 2021 04:36:26.382           354.511
                       2    8 Sep 2021 05:23:03.461    8 Sep 2021 05:28:57.971           354.510
                       3    8 Sep 2021 06:15:35.046    8 Sep 2021 06:21:29.559           354.513
                       4    8 Sep 2021 07:08:06.634    8 Sep 2021 07:14:01.145           354.511
                       5    8 Sep 2021 08:00:38.226    8 Sep 2021 08:06:32.736           354.510
                       6    8 Sep 2021 08:53:09.811    8 Sep 2021 08:59:04.325           354.513
                       7    8 Sep 2021 09:45:41.398    8 Sep 2021 09:51:35.909           354.510
                       8    8 Sep 2021 10:38:12.991    8 Sep 2021 10:44:07.500           354.510
                       9    8 Sep 2021 11:30:44.580    8 Sep 2021 11:36:39.090           354.510
                      10    8 Sep 2021 12:23:16.163    8 Sep 2021 12:29:10.678           354.514
                      11    8 Sep 2021 13:15:47.752    8 Sep 2021 13:21:42.264           354.511
                      12    8 Sep 2021 14:08:19.344    8 Sep 2021 14:14:13.855           354.511
                      13    8 Sep 2021 15:00:50.929    8 Sep 2021 15:06:45.443           354.515
                      14    8 Sep 2021 15:53:22.517    8 Sep 2021 15:59:17.027           354.510
                      15    8 Sep 2021 16:45:54.109    8 Sep 2021 16:51:48.619           354.510
                      16    8 Sep 2021 17:38:25.698    8 Sep 2021 17:44:20.208           354.510
                      17    8 Sep 2021 18:30:57.287    8 Sep 2021 18:36:51.797           354.510
                      18    8 Sep 2021 19:23:28.871    8 Sep 2021 19:29:23.382           354.511
                      19    8 Sep 2021 20:16:00.462    8 Sep 2021 20:21:54.973           354.511
                      20    8 Sep 2021 21:08:32.047    8 Sep 2021 21:14:26.562           354.515
                      21    8 Sep 2021 22:01:03.636    8 Sep 2021 22:06:58.146           354.510
                      22    8 Sep 2021 22:53:35.227    8 Sep 2021 22:59:29.738           354.511
                      23    8 Sep 2021 23:46:06.817    8 Sep 2021 23:52:01.327           354.511
                      24    9 Sep 2021 00:38:38.404    9 Sep 2021 00:44:32.915           354.511
                      25    9 Sep 2021 01:31:09.990    9 Sep 2021 01:37:04.501           354.511
                      26    9 Sep 2021 02:23:41.581    9 Sep 2021 02:29:36.092           354.511
                      27    9 Sep 2021 03:16:13.166    9 Sep 2021 03:22:07.681           354.515

Min Duration          21    8 Sep 2021 22:01:03.636    8 Sep 2021 22:06:58.146           354.510
Max Duration          13    8 Sep 2021 15:00:50.929    8 Sep 2021 15:06:45.443           354.515
Mean Duration                                                                            354.511
Total Duration                                                                          9571.806


Satellite502-To-Satellite302
----------------------------
                  Access       Start Time (UTCG)           Stop Time (UTCG)       Duration (sec)
                  ------    -----------------------    -----------------------    --------------
                       1    8 Sep 2021 04:07:51.894    8 Sep 2021 04:15:46.300           474.407
                       2    8 Sep 2021 05:00:23.478    8 Sep 2021 05:08:17.889           474.411
                       3    8 Sep 2021 05:52:55.069    8 Sep 2021 06:00:49.473           474.404
                       4    8 Sep 2021 06:45:26.655    8 Sep 2021 06:53:21.064           474.409
                       5    8 Sep 2021 07:37:58.243    8 Sep 2021 07:45:52.654           474.411
                       6    8 Sep 2021 08:30:29.831    8 Sep 2021 08:38:24.242           474.411
                       7    8 Sep 2021 09:23:01.421    8 Sep 2021 09:30:55.829           474.408
                       8    8 Sep 2021 10:15:33.011    8 Sep 2021 10:23:27.419           474.408
                       9    8 Sep 2021 11:08:04.598    8 Sep 2021 11:15:59.008           474.410
                      10    8 Sep 2021 12:00:36.185    8 Sep 2021 12:08:30.594           474.409
                      11    8 Sep 2021 12:53:07.778    8 Sep 2021 13:01:02.180           474.402
                      12    8 Sep 2021 13:45:39.363    8 Sep 2021 13:53:33.773           474.410
                      13    8 Sep 2021 14:38:10.950    8 Sep 2021 14:46:05.361           474.411
                      14    8 Sep 2021 15:30:42.539    8 Sep 2021 15:38:36.949           474.410
                      15    8 Sep 2021 16:23:14.129    8 Sep 2021 16:31:08.537           474.408
                      16    8 Sep 2021 17:15:45.718    8 Sep 2021 17:23:40.126           474.408
                      17    8 Sep 2021 18:08:17.305    8 Sep 2021 18:16:11.715           474.410
                      18    8 Sep 2021 19:00:48.892    8 Sep 2021 19:08:43.303           474.410
                      19    8 Sep 2021 19:53:20.485    8 Sep 2021 20:01:14.887           474.402
                      20    8 Sep 2021 20:45:52.072    8 Sep 2021 20:53:46.480           474.408
                      21    8 Sep 2021 21:38:23.657    8 Sep 2021 21:46:18.068           474.411
                      22    8 Sep 2021 22:30:55.246    8 Sep 2021 22:38:49.656           474.410
                      23    8 Sep 2021 23:23:26.837    8 Sep 2021 23:31:21.244           474.407
                      24    9 Sep 2021 00:15:58.426    9 Sep 2021 00:23:52.833           474.407
                      25    9 Sep 2021 01:08:30.011    9 Sep 2021 01:16:24.422           474.411
                      26    9 Sep 2021 02:01:01.599    9 Sep 2021 02:08:56.010           474.411
                      27    9 Sep 2021 02:53:33.191    9 Sep 2021 03:01:27.595           474.404
                      28    9 Sep 2021 03:46:04.776    9 Sep 2021 03:53:59.187           474.411

Min Duration          19    8 Sep 2021 19:53:20.485    8 Sep 2021 20:01:14.887           474.402
Max Duration          28    9 Sep 2021 03:46:04.776    9 Sep 2021 03:53:59.187           474.411
Mean Duration                                                                            474.409
Total Duration                                                                         13283.439


Satellite502-To-Satellite303
----------------------------
                  Access       Start Time (UTCG)           Stop Time (UTCG)       Duration (sec)
                  ------    -----------------------    -----------------------    --------------
                       1    8 Sep 2021 04:00:00.000    8 Sep 2021 04:21:27.076          1287.076
                       2    8 Sep 2021 04:44:12.388    8 Sep 2021 05:13:58.663          1786.274
                       3    8 Sep 2021 05:36:43.973    8 Sep 2021 06:06:30.254          1786.281
                       4    8 Sep 2021 06:29:15.560    8 Sep 2021 06:59:01.841          1786.280
                       5    8 Sep 2021 07:21:47.151    8 Sep 2021 07:51:33.431          1786.280
                       6    8 Sep 2021 08:14:18.737    8 Sep 2021 08:44:05.018          1786.281
                       7    8 Sep 2021 09:06:50.328    8 Sep 2021 09:36:36.607          1786.279
                       8    8 Sep 2021 09:59:21.914    8 Sep 2021 10:29:08.195          1786.281
                       9    8 Sep 2021 10:51:53.505    8 Sep 2021 11:21:39.784          1786.279
                      10    8 Sep 2021 11:44:25.091    8 Sep 2021 12:14:11.372          1786.281
                      11    8 Sep 2021 12:36:56.682    8 Sep 2021 13:06:42.961          1786.279
                      12    8 Sep 2021 13:29:28.268    8 Sep 2021 13:59:14.549          1786.281
                      13    8 Sep 2021 14:21:59.859    8 Sep 2021 14:51:46.138          1786.279
                      14    8 Sep 2021 15:14:31.445    8 Sep 2021 15:44:17.725          1786.281
                      15    8 Sep 2021 16:07:03.036    8 Sep 2021 16:36:49.315          1786.279
                      16    8 Sep 2021 16:59:34.621    8 Sep 2021 17:29:20.902          1786.281
                      17    8 Sep 2021 17:52:06.213    8 Sep 2021 18:21:52.491          1786.279
                      18    8 Sep 2021 18:44:37.798    8 Sep 2021 19:14:24.079          1786.281
                      19    8 Sep 2021 19:37:09.390    8 Sep 2021 20:06:55.668          1786.279
                      20    8 Sep 2021 20:29:40.975    8 Sep 2021 20:59:27.256          1786.281
                      21    8 Sep 2021 21:22:12.566    8 Sep 2021 21:51:58.845          1786.278
                      22    8 Sep 2021 22:14:44.152    8 Sep 2021 22:44:30.433          1786.281
                      23    8 Sep 2021 23:07:15.743    8 Sep 2021 23:37:02.022          1786.278
                      24    8 Sep 2021 23:59:47.329    9 Sep 2021 00:29:33.609          1786.281
                      25    9 Sep 2021 00:52:18.920    9 Sep 2021 01:22:05.199          1786.278
                      26    9 Sep 2021 01:44:50.505    9 Sep 2021 02:14:36.786          1786.281
                      27    9 Sep 2021 02:37:22.097    9 Sep 2021 03:07:08.375          1786.278
                      28    9 Sep 2021 03:29:53.682    9 Sep 2021 03:59:39.960          1786.277

Min Duration           1    8 Sep 2021 04:00:00.000    8 Sep 2021 04:21:27.076          1287.076
Max Duration          26    9 Sep 2021 01:44:50.505    9 Sep 2021 02:14:36.786          1786.281
Mean Duration                                                                           1768.451
Total Duration                                                                         49516.622


Satellite502-To-Satellite304
----------------------------
                  Access       Start Time (UTCG)           Stop Time (UTCG)       Duration (sec)
                  ------    -----------------------    -----------------------    --------------
                       1    8 Sep 2021 04:00:00.000    8 Sep 2021 04:20:09.429          1209.429
                       2    8 Sep 2021 04:34:59.716    8 Sep 2021 05:12:41.017          2261.301
                       3    8 Sep 2021 05:27:31.304    8 Sep 2021 06:05:12.605          2261.301
                       4    8 Sep 2021 06:20:02.893    8 Sep 2021 06:57:44.194          2261.301
                       5    8 Sep 2021 07:12:34.481    8 Sep 2021 07:50:15.782          2261.301
                       6    8 Sep 2021 08:05:06.069    8 Sep 2021 08:42:47.371          2261.301
                       7    8 Sep 2021 08:57:37.658    8 Sep 2021 09:35:18.959          2261.301
                       8    8 Sep 2021 09:50:09.246    8 Sep 2021 10:27:50.547          2261.301
                       9    8 Sep 2021 10:42:40.834    8 Sep 2021 11:20:22.136          2261.301
                      10    8 Sep 2021 11:35:12.423    8 Sep 2021 12:12:53.724          2261.301
                      11    8 Sep 2021 12:27:44.011    8 Sep 2021 13:05:25.313          2261.301
                      12    8 Sep 2021 13:20:15.600    8 Sep 2021 13:57:56.901          2261.301
                      13    8 Sep 2021 14:12:47.188    8 Sep 2021 14:50:28.489          2261.301
                      14    8 Sep 2021 15:05:18.776    8 Sep 2021 15:43:00.078          2261.301
                      15    8 Sep 2021 15:57:50.365    8 Sep 2021 16:35:31.666          2261.301
                      16    8 Sep 2021 16:50:21.953    8 Sep 2021 17:28:03.255          2261.301
                      17    8 Sep 2021 17:42:53.542    8 Sep 2021 18:20:34.843          2261.301
                      18    8 Sep 2021 18:35:25.130    8 Sep 2021 19:13:06.431          2261.301
                      19    8 Sep 2021 19:27:56.718    8 Sep 2021 20:05:38.020          2261.301
                      20    8 Sep 2021 20:20:28.307    8 Sep 2021 20:58:09.608          2261.301
                      21    8 Sep 2021 21:12:59.895    8 Sep 2021 21:50:41.196          2261.301
                      22    8 Sep 2021 22:05:31.484    8 Sep 2021 22:43:12.785          2261.301
                      23    8 Sep 2021 22:58:03.072    8 Sep 2021 23:35:44.373          2261.301
                      24    8 Sep 2021 23:50:34.660    9 Sep 2021 00:28:15.962          2261.301
                      25    9 Sep 2021 00:43:06.249    9 Sep 2021 01:20:47.550          2261.301
                      26    9 Sep 2021 01:35:37.837    9 Sep 2021 02:13:19.138          2261.301
                      27    9 Sep 2021 02:28:09.426    9 Sep 2021 03:05:50.727          2261.301
                      28    9 Sep 2021 03:20:41.014    9 Sep 2021 03:58:22.315          2261.301

Min Duration           1    8 Sep 2021 04:00:00.000    8 Sep 2021 04:20:09.429          1209.429
Max Duration           2    8 Sep 2021 04:34:59.716    8 Sep 2021 05:12:41.017          2261.301
Mean Duration                                                                           2223.734
Total Duration                                                                         62264.563


Satellite502-To-Satellite305
----------------------------
                  Access       Start Time (UTCG)           Stop Time (UTCG)       Duration (sec)
                  ------    -----------------------    -----------------------    --------------
                       1    8 Sep 2021 04:00:00.000    8 Sep 2021 04:10:59.462           659.462
                       2    8 Sep 2021 04:33:39.363    8 Sep 2021 05:03:31.050          1791.687
                       3    8 Sep 2021 05:26:10.951    8 Sep 2021 05:56:02.638          1791.687
                       4    8 Sep 2021 06:18:42.539    8 Sep 2021 06:48:34.226          1791.687
                       5    8 Sep 2021 07:11:14.127    8 Sep 2021 07:41:05.814          1791.687
                       6    8 Sep 2021 08:03:45.716    8 Sep 2021 08:33:37.403          1791.687
                       7    8 Sep 2021 08:56:17.304    8 Sep 2021 09:26:08.990          1791.686
                       8    8 Sep 2021 09:48:48.896    8 Sep 2021 10:18:40.578          1791.682
                       9    8 Sep 2021 10:41:20.484    8 Sep 2021 11:11:12.171          1791.687
                      10    8 Sep 2021 11:33:52.072    8 Sep 2021 12:03:43.759          1791.687
                      11    8 Sep 2021 12:26:23.660    8 Sep 2021 12:56:15.348          1791.687
                      12    8 Sep 2021 13:18:55.249    8 Sep 2021 13:48:46.936          1791.687
                      13    8 Sep 2021 14:11:26.837    8 Sep 2021 14:41:18.524          1791.687
                      14    8 Sep 2021 15:03:58.425    8 Sep 2021 15:33:50.112          1791.687
                      15    8 Sep 2021 15:56:30.013    8 Sep 2021 16:26:21.700          1791.687
                      16    8 Sep 2021 16:49:01.601    8 Sep 2021 17:18:53.288          1791.687
                      17    8 Sep 2021 17:41:33.189    8 Sep 2021 18:11:24.876          1791.687
                      18    8 Sep 2021 18:34:04.777    8 Sep 2021 19:03:56.464          1791.687
                      19    8 Sep 2021 19:26:36.365    8 Sep 2021 19:56:28.053          1791.687
                      20    8 Sep 2021 20:19:07.954    8 Sep 2021 20:48:59.641          1791.687
                      21    8 Sep 2021 21:11:39.542    8 Sep 2021 21:41:31.229          1791.687
                      22    8 Sep 2021 22:04:11.130    8 Sep 2021 22:34:02.817          1791.687
                      23    8 Sep 2021 22:56:42.718    8 Sep 2021 23:26:34.405          1791.687
                      24    8 Sep 2021 23:49:14.307    9 Sep 2021 00:19:05.992          1791.686
                      25    9 Sep 2021 00:41:45.898    9 Sep 2021 01:11:37.581          1791.682
                      26    9 Sep 2021 01:34:17.487    9 Sep 2021 02:04:09.169          1791.682
                      27    9 Sep 2021 02:26:49.075    9 Sep 2021 02:56:40.762          1791.687
                      28    9 Sep 2021 03:19:20.663    9 Sep 2021 03:49:12.350          1791.687

Min Duration           1    8 Sep 2021 04:00:00.000    8 Sep 2021 04:10:59.462           659.462
Max Duration           6    8 Sep 2021 08:03:45.716    8 Sep 2021 08:33:37.403          1791.687
Mean Duration                                                                           1751.250
Total Duration                                                                         49034.996


Satellite502-To-Satellite306
----------------------------
                  Access       Start Time (UTCG)           Stop Time (UTCG)       Duration (sec)
                  ------    -----------------------    -----------------------    --------------
                       1    8 Sep 2021 04:39:27.211    8 Sep 2021 04:47:12.886           465.675
                       2    8 Sep 2021 05:31:58.804    8 Sep 2021 05:39:44.469           465.666
                       3    8 Sep 2021 06:24:30.387    8 Sep 2021 06:32:16.059           465.671
                       4    8 Sep 2021 07:17:01.976    8 Sep 2021 07:24:47.651           465.675
                       5    8 Sep 2021 08:09:33.567    8 Sep 2021 08:17:19.239           465.672
                       6    8 Sep 2021 09:02:05.156    8 Sep 2021 09:09:50.827           465.670
                       7    8 Sep 2021 09:54:36.742    8 Sep 2021 10:02:22.415           465.672
                       8    8 Sep 2021 10:47:08.330    8 Sep 2021 10:54:54.004           465.675
                       9    8 Sep 2021 11:39:39.918    8 Sep 2021 11:47:25.592           465.675
                      10    8 Sep 2021 12:32:11.511    8 Sep 2021 12:39:57.178           465.667
                      11    8 Sep 2021 13:24:43.095    8 Sep 2021 13:32:28.765           465.671
                      12    8 Sep 2021 14:17:14.683    8 Sep 2021 14:25:00.358           465.675
                      13    8 Sep 2021 15:09:46.274    8 Sep 2021 15:17:31.946           465.672
                      14    8 Sep 2021 16:02:17.863    8 Sep 2021 16:10:03.534           465.671
                      15    8 Sep 2021 16:54:49.449    8 Sep 2021 17:02:35.122           465.672
                      16    8 Sep 2021 17:47:21.037    8 Sep 2021 17:55:06.711           465.675
                      17    8 Sep 2021 18:39:52.625    8 Sep 2021 18:47:38.299           465.674
                      18    8 Sep 2021 19:32:24.218    8 Sep 2021 19:40:09.888           465.670
                      19    8 Sep 2021 20:24:55.802    8 Sep 2021 20:32:41.477           465.675
                      20    8 Sep 2021 21:17:27.391    8 Sep 2021 21:25:13.065           465.674
                      21    8 Sep 2021 22:09:58.981    8 Sep 2021 22:17:44.653           465.672
                      22    8 Sep 2021 23:02:30.570    8 Sep 2021 23:10:16.241           465.671
                      23    8 Sep 2021 23:55:02.156    9 Sep 2021 00:02:47.829           465.672
                      24    9 Sep 2021 00:47:33.744    9 Sep 2021 00:55:19.419           465.675
                      25    9 Sep 2021 01:40:05.336    9 Sep 2021 01:47:51.005           465.669
                      26    9 Sep 2021 02:32:36.925    9 Sep 2021 02:40:22.595           465.670
                      27    9 Sep 2021 03:25:08.509    9 Sep 2021 03:32:54.184           465.675

Min Duration           2    8 Sep 2021 05:31:58.804    8 Sep 2021 05:39:44.469           465.666
Max Duration          19    8 Sep 2021 20:24:55.802    8 Sep 2021 20:32:41.477           465.675
Mean Duration                                                                            465.672
Total Duration                                                                         12573.150


Satellite502-To-Satellite402
----------------------------
                  Access       Start Time (UTCG)           Stop Time (UTCG)       Duration (sec)
                  ------    -----------------------    -----------------------    --------------
                       1    8 Sep 2021 04:00:00.000    9 Sep 2021 04:00:00.000         86400.000

Min Duration           1    8 Sep 2021 04:00:00.000    9 Sep 2021 04:00:00.000         86400.000
Max Duration           1    8 Sep 2021 04:00:00.000    9 Sep 2021 04:00:00.000         86400.000
Mean Duration                                                                          86400.000
Total Duration                                                                         86400.000


Satellite502-To-Satellite403
----------------------------
                  Access       Start Time (UTCG)           Stop Time (UTCG)       Duration (sec)
                  ------    -----------------------    -----------------------    --------------
                       1    8 Sep 2021 04:00:00.000    9 Sep 2021 04:00:00.000         86400.000

Min Duration           1    8 Sep 2021 04:00:00.000    9 Sep 2021 04:00:00.000         86400.000
Max Duration           1    8 Sep 2021 04:00:00.000    9 Sep 2021 04:00:00.000         86400.000
Mean Duration                                                                          86400.000
Total Duration                                                                         86400.000


Satellite502-To-Satellite404
----------------------------
                  Access       Start Time (UTCG)           Stop Time (UTCG)       Duration (sec)
                  ------    -----------------------    -----------------------    --------------
                       1    8 Sep 2021 04:00:00.000    9 Sep 2021 04:00:00.000         86400.000

Min Duration           1    8 Sep 2021 04:00:00.000    9 Sep 2021 04:00:00.000         86400.000
Max Duration           1    8 Sep 2021 04:00:00.000    9 Sep 2021 04:00:00.000         86400.000
Mean Duration                                                                          86400.000
Total Duration                                                                         86400.000


Satellite502-To-Satellite501
----------------------------
                  Access       Start Time (UTCG)           Stop Time (UTCG)       Duration (sec)
                  ------    -----------------------    -----------------------    --------------
                       1    8 Sep 2021 04:00:00.000    9 Sep 2021 04:00:00.000         86400.000

Min Duration           1    8 Sep 2021 04:00:00.000    9 Sep 2021 04:00:00.000         86400.000
Max Duration           1    8 Sep 2021 04:00:00.000    9 Sep 2021 04:00:00.000         86400.000
Mean Duration                                                                          86400.000
Total Duration                                                                         86400.000


Satellite502-To-Satellite503
----------------------------
                  Access       Start Time (UTCG)           Stop Time (UTCG)       Duration (sec)
                  ------    -----------------------    -----------------------    --------------
                       1    8 Sep 2021 04:00:00.000    9 Sep 2021 04:00:00.000         86400.000

