routing/visibility/v506.txt

Satellite506-To-Satellite101
----------------------------
                  Access       Start Time (UTCG)           Stop Time (UTCG)       Duration (sec)
                  ------    -----------------------    -----------------------    --------------
                       1    8 Sep 2021 04:00:00.000    8 Sep 2021 04:08:41.212           521.212
                       2    8 Sep 2021 04:38:35.193    8 Sep 2021 05:01:12.803          1357.610
                       3    8 Sep 2021 05:31:06.782    8 Sep 2021 05:53:44.392          1357.610
                       4    8 Sep 2021 06:23:38.370    8 Sep 2021 06:46:15.980          1357.610
                       5    8 Sep 2021 07:16:09.958    8 Sep 2021 07:38:47.569          1357.610
                       6    8 Sep 2021 08:08:41.547    8 Sep 2021 08:31:19.157          1357.610
                       7    8 Sep 2021 09:01:13.135    8 Sep 2021 09:23:50.745          1357.610
                       8    8 Sep 2021 09:53:44.724    8 Sep 2021 10:16:22.334          1357.610
                       9    8 Sep 2021 10:46:16.312    8 Sep 2021 11:08:53.922          1357.610
                      10    8 Sep 2021 11:38:47.900    8 Sep 2021 12:01:25.510          1357.610
                      11    8 Sep 2021 12:31:19.489    8 Sep 2021 12:53:57.099          1357.610
                      12    8 Sep 2021 13:23:51.077    8 Sep 2021 13:46:28.687          1357.610
                      13    8 Sep 2021 14:16:22.666    8 Sep 2021 14:39:00.276          1357.610
                      14    8 Sep 2021 15:08:54.254    8 Sep 2021 15:31:31.864          1357.610
                      15    8 Sep 2021 16:01:25.842    8 Sep 2021 16:24:03.452          1357.610
                      16    8 Sep 2021 16:53:57.431    8 Sep 2021 17:16:35.041          1357.610
                      17    8 Sep 2021 17:46:29.019    8 Sep 2021 18:09:06.629          1357.610
                      18    8 Sep 2021 18:39:00.608    8 Sep 2021 19:01:38.218          1357.610
                      19    8 Sep 2021 19:31:32.196    8 Sep 2021 19:54:09.806          1357.610
                      20    8 Sep 2021 20:24:03.784    8 Sep 2021 20:46:41.394          1357.610
                      21    8 Sep 2021 21:16:35.373    8 Sep 2021 21:39:12.983          1357.610
                      22    8 Sep 2021 22:09:06.961    8 Sep 2021 22:31:44.571          1357.610
                      23    8 Sep 2021 23:01:38.549    8 Sep 2021 23:24:16.160          1357.610
                      24    8 Sep 2021 23:54:10.138    9 Sep 2021 00:16:47.748          1357.610
                      25    9 Sep 2021 00:46:41.726    9 Sep 2021 01:09:19.336          1357.610
                      26    9 Sep 2021 01:39:13.315    9 Sep 2021 02:01:50.925          1357.610
                      27    9 Sep 2021 02:31:44.903    9 Sep 2021 02:54:22.513          1357.610
                      28    9 Sep 2021 03:24:16.491    9 Sep 2021 03:46:54.102          1357.610

Min Duration           1    8 Sep 2021 04:00:00.000    8 Sep 2021 04:08:41.212           521.212
Max Duration           2    8 Sep 2021 04:38:35.193    8 Sep 2021 05:01:12.803          1357.610
Mean Duration                                                                           1327.739
Total Duration                                                                         37176.686


Satellite506-To-Satellite102
----------------------------
                  Access       Start Time (UTCG)           Stop Time (UTCG)       Duration (sec)
                  ------    -----------------------    -----------------------    --------------
                       1    8 Sep 2021 04:00:00.000    8 Sep 2021 04:03:26.058           206.058
                       2    8 Sep 2021 04:33:20.026    8 Sep 2021 04:55:57.646          1357.620
                       3    8 Sep 2021 05:25:51.618    8 Sep 2021 05:48:29.238          1357.620
                       4    8 Sep 2021 06:18:23.206    8 Sep 2021 06:41:00.826          1357.620
                       5    8 Sep 2021 07:10:54.795    8 Sep 2021 07:33:32.414          1357.620
                       6    8 Sep 2021 08:03:26.383    8 Sep 2021 08:26:04.003          1357.620
                       7    8 Sep 2021 08:55:57.972    8 Sep 2021 09:18:35.591          1357.620
                       8    8 Sep 2021 09:48:29.560    8 Sep 2021 10:11:07.180          1357.620
                       9    8 Sep 2021 10:41:01.148    8 Sep 2021 11:03:38.768          1357.620
                      10    8 Sep 2021 11:33:32.737    8 Sep 2021 11:56:10.356          1357.620
                      11    8 Sep 2021 12:26:04.325    8 Sep 2021 12:48:41.945          1357.620
                      12    8 Sep 2021 13:18:35.914    8 Sep 2021 13:41:13.533          1357.620
                      13    8 Sep 2021 14:11:07.502    8 Sep 2021 14:33:45.122          1357.620
                      14    8 Sep 2021 15:03:39.090    8 Sep 2021 15:26:16.710          1357.620
                      15    8 Sep 2021 15:56:10.679    8 Sep 2021 16:18:48.298          1357.620
                      16    8 Sep 2021 16:48:42.267    8 Sep 2021 17:11:19.887          1357.620
                      17    8 Sep 2021 17:41:13.856    8 Sep 2021 18:03:51.475          1357.620
                      18    8 Sep 2021 18:33:45.444    8 Sep 2021 18:56:23.064          1357.620
                      19    8 Sep 2021 19:26:17.032    8 Sep 2021 19:48:54.652          1357.620
                      20    8 Sep 2021 20:18:48.621    8 Sep 2021 20:41:26.240          1357.620
                      21    8 Sep 2021 21:11:20.209    8 Sep 2021 21:33:57.829          1357.620
                      22    8 Sep 2021 22:03:51.798    8 Sep 2021 22:26:29.417          1357.620
                      23    8 Sep 2021 22:56:23.386    8 Sep 2021 23:19:01.006          1357.620
                      24    8 Sep 2021 23:48:54.974    9 Sep 2021 00:11:32.594          1357.620
                      25    9 Sep 2021 00:41:26.563    9 Sep 2021 01:04:04.182          1357.620
                      26    9 Sep 2021 01:33:58.151    9 Sep 2021 01:56:35.771          1357.620
                      27    9 Sep 2021 02:26:29.739    9 Sep 2021 02:49:07.359          1357.620
                      28    9 Sep 2021 03:19:01.328    9 Sep 2021 03:41:38.948          1357.620

Min Duration           1    8 Sep 2021 04:00:00.000    8 Sep 2021 04:03:26.058           206.058
Max Duration           2    8 Sep 2021 04:33:20.026    8 Sep 2021 04:55:57.646          1357.620
Mean Duration                                                                           1316.492
Total Duration                                                                         36861.788


Satellite506-To-Satellite103
----------------------------
                  Access       Start Time (UTCG)           Stop Time (UTCG)       Duration (sec)
                  ------    -----------------------    -----------------------    --------------
                       1    8 Sep 2021 04:30:01.921    8 Sep 2021 04:48:45.439          1123.518
                       2    8 Sep 2021 05:22:33.505    8 Sep 2021 05:41:17.027          1123.522
                       3    8 Sep 2021 06:15:05.097    8 Sep 2021 06:33:48.614          1123.517
                       4    8 Sep 2021 07:07:36.685    8 Sep 2021 07:26:20.206          1123.521
                       5    8 Sep 2021 08:00:08.271    8 Sep 2021 08:18:51.794          1123.524
                       6    8 Sep 2021 08:52:39.863    8 Sep 2021 09:11:23.380          1123.518
                       7    8 Sep 2021 09:45:11.451    8 Sep 2021 10:03:54.968          1123.517
                       8    8 Sep 2021 10:37:43.037    8 Sep 2021 10:56:26.557          1123.520
                       9    8 Sep 2021 11:30:14.624    8 Sep 2021 11:48:58.149          1123.525
                      10    8 Sep 2021 12:22:46.211    8 Sep 2021 12:41:29.735          1123.524
                      11    8 Sep 2021 13:15:17.805    8 Sep 2021 13:34:01.322          1123.518
                      12    8 Sep 2021 14:07:49.393    8 Sep 2021 14:26:32.910          1123.517
                      13    8 Sep 2021 15:00:20.979    8 Sep 2021 15:19:04.500          1123.521
                      14    8 Sep 2021 15:52:52.565    8 Sep 2021 16:11:36.091          1123.526
                      15    8 Sep 2021 16:45:24.153    8 Sep 2021 17:04:07.677          1123.524
                      16    8 Sep 2021 17:37:55.746    8 Sep 2021 17:56:39.264          1123.518
                      17    8 Sep 2021 18:30:27.335    8 Sep 2021 18:49:10.852          1123.517
                      18    8 Sep 2021 19:22:58.921    8 Sep 2021 19:41:42.442          1123.521
                      19    8 Sep 2021 20:15:30.507    8 Sep 2021 20:34:14.033          1123.526
                      20    8 Sep 2021 21:08:02.095    8 Sep 2021 21:26:45.619          1123.524
                      21    8 Sep 2021 22:00:33.688    8 Sep 2021 22:19:17.206          1123.518
                      22    8 Sep 2021 22:53:05.277    8 Sep 2021 23:11:48.794          1123.517
                      23    8 Sep 2021 23:45:36.863    9 Sep 2021 00:04:20.384          1123.521
                      24    9 Sep 2021 00:38:08.449    9 Sep 2021 00:56:51.975          1123.526
                      25    9 Sep 2021 01:30:40.037    9 Sep 2021 01:49:23.561          1123.524
                      26    9 Sep 2021 02:23:11.630    9 Sep 2021 02:41:55.148          1123.518
                      27    9 Sep 2021 03:15:43.219    9 Sep 2021 03:34:26.736          1123.517

Min Duration          27    9 Sep 2021 03:15:43.219    9 Sep 2021 03:34:26.736          1123.517
Max Duration          24    9 Sep 2021 00:38:08.449    9 Sep 2021 00:56:51.975          1123.526
Mean Duration                                                                           1123.521
Total Duration                                                                         30335.055


Satellite506-To-Satellite104
----------------------------
                  Access       Start Time (UTCG)           Stop Time (UTCG)       Duration (sec)
                  ------    -----------------------    -----------------------    --------------
                       1    8 Sep 2021 04:28:37.858    8 Sep 2021 04:39:39.185           661.327
                       2    8 Sep 2021 05:21:09.446    8 Sep 2021 05:32:10.773           661.327
                       3    8 Sep 2021 06:13:41.034    8 Sep 2021 06:24:42.359           661.325
                       4    8 Sep 2021 07:06:12.622    8 Sep 2021 07:17:13.948           661.326
                       5    8 Sep 2021 07:58:44.209    8 Sep 2021 08:09:45.540           661.331
                       6    8 Sep 2021 08:51:15.797    8 Sep 2021 09:02:17.129           661.332
                       7    8 Sep 2021 09:43:47.384    8 Sep 2021 09:54:48.716           661.332
                       8    8 Sep 2021 10:36:18.972    8 Sep 2021 10:47:20.304           661.332
                       9    8 Sep 2021 11:28:50.564    8 Sep 2021 11:39:51.892           661.328
                      10    8 Sep 2021 12:21:22.153    8 Sep 2021 12:32:23.480           661.327
                      11    8 Sep 2021 13:13:53.742    8 Sep 2021 13:24:55.066           661.325
                      12    8 Sep 2021 14:06:25.329    8 Sep 2021 14:17:26.656           661.327
                      13    8 Sep 2021 14:58:56.917    8 Sep 2021 15:09:58.248           661.331
                      14    8 Sep 2021 15:51:28.504    8 Sep 2021 16:02:29.836           661.332
                      15    8 Sep 2021 16:44:00.091    8 Sep 2021 16:55:01.424           661.332
                      16    8 Sep 2021 17:36:31.679    8 Sep 2021 17:47:33.011           661.332
                      17    8 Sep 2021 18:29:03.270    8 Sep 2021 18:40:04.599           661.330
                      18    8 Sep 2021 19:21:34.861    8 Sep 2021 19:32:36.187           661.327
                      19    8 Sep 2021 20:14:06.448    8 Sep 2021 20:25:07.775           661.327
                      20    8 Sep 2021 21:06:38.037    8 Sep 2021 21:17:39.362           661.325
                      21    8 Sep 2021 21:59:09.624    8 Sep 2021 22:10:10.953           661.329
                      22    8 Sep 2021 22:51:41.211    8 Sep 2021 23:02:42.543           661.332
                      23    8 Sep 2021 23:44:12.799    8 Sep 2021 23:55:14.131           661.332
                      24    9 Sep 2021 00:36:44.386    9 Sep 2021 00:47:45.719           661.332
                      25    9 Sep 2021 01:29:15.979    9 Sep 2021 01:40:17.306           661.327
                      26    9 Sep 2021 02:21:47.568    9 Sep 2021 02:32:48.894           661.327
                      27    9 Sep 2021 03:14:19.156    9 Sep 2021 03:25:20.483           661.327

Min Duration          11    8 Sep 2021 13:13:53.742    8 Sep 2021 13:24:55.066           661.325
Max Duration           7    8 Sep 2021 09:43:47.384    8 Sep 2021 09:54:48.716           661.332
Mean Duration                                                                            661.329
Total Duration                                                                         17855.881


Satellite506-To-Satellite109
----------------------------
                  Access       Start Time (UTCG)           Stop Time (UTCG)       Duration (sec)
                  ------    -----------------------    -----------------------    --------------
                       1    8 Sep 2021 04:02:22.085    8 Sep 2021 04:13:23.368           661.283
                       2    8 Sep 2021 04:54:53.672    8 Sep 2021 05:05:54.956           661.284
                       3    8 Sep 2021 05:47:25.260    8 Sep 2021 05:58:26.544           661.284
                       4    8 Sep 2021 06:39:56.853    8 Sep 2021 06:50:58.132           661.278
                       5    8 Sep 2021 07:32:28.442    8 Sep 2021 07:43:29.720           661.278
                       6    8 Sep 2021 08:25:00.030    8 Sep 2021 08:36:01.308           661.278
                       7    8 Sep 2021 09:17:31.618    8 Sep 2021 09:28:32.894           661.276
                       8    8 Sep 2021 10:10:03.205    8 Sep 2021 10:21:04.483           661.278
                       9    8 Sep 2021 11:02:34.793    8 Sep 2021 11:13:36.075           661.283
                      10    8 Sep 2021 11:55:06.380    8 Sep 2021 12:06:07.663           661.284
                      11    8 Sep 2021 12:47:37.967    8 Sep 2021 12:58:39.251           661.284
                      12    8 Sep 2021 13:40:09.559    8 Sep 2021 13:51:10.839           661.280
                      13    8 Sep 2021 14:32:41.149    8 Sep 2021 14:43:42.427           661.278
                      14    8 Sep 2021 15:25:12.737    8 Sep 2021 15:36:14.015           661.278
                      15    8 Sep 2021 16:17:44.325    8 Sep 2021 16:28:45.601           661.276
                      16    8 Sep 2021 17:10:15.913    8 Sep 2021 17:21:17.190           661.277
                      17    8 Sep 2021 18:02:47.500    8 Sep 2021 18:13:48.783           661.282
                      18    8 Sep 2021 18:55:19.087    8 Sep 2021 19:06:20.371           661.283
                      19    8 Sep 2021 19:47:50.675    8 Sep 2021 19:58:51.958           661.284
                      20    8 Sep 2021 20:40:22.264    8 Sep 2021 20:51:23.546           661.283
                      21    8 Sep 2021 21:32:53.856    8 Sep 2021 21:43:55.134           661.278
                      22    8 Sep 2021 22:25:25.444    8 Sep 2021 22:36:26.722           661.278
                      23    8 Sep 2021 23:17:57.032    8 Sep 2021 23:28:58.308           661.276
                      24    9 Sep 2021 00:10:28.620    9 Sep 2021 00:21:29.900           661.280
                      25    9 Sep 2021 01:03:00.207    9 Sep 2021 01:14:01.490           661.282
                      26    9 Sep 2021 01:55:31.794    9 Sep 2021 02:06:33.078           661.283
                      27    9 Sep 2021 02:48:03.382    9 Sep 2021 02:59:04.666           661.284
                      28    9 Sep 2021 03:40:34.970    9 Sep 2021 03:51:36.253           661.283

Min Duration          23    8 Sep 2021 23:17:57.032    8 Sep 2021 23:28:58.308           661.276
Max Duration          27    9 Sep 2021 02:48:03.382    9 Sep 2021 02:59:04.666           661.284
Mean Duration                                                                            661.280
Total Duration                                                                         18515.854


Satellite506-To-Satellite110
----------------------------
                  Access       Start Time (UTCG)           Stop Time (UTCG)       Duration (sec)
                  ------    -----------------------    -----------------------    --------------
                       1    8 Sep 2021 04:00:00.000    8 Sep 2021 04:11:59.313           719.313
                       2    8 Sep 2021 04:45:47.411    8 Sep 2021 05:04:30.901          1123.490
                       3    8 Sep 2021 05:38:18.997    8 Sep 2021 05:57:02.490          1123.493
                       4    8 Sep 2021 06:30:50.583    8 Sep 2021 06:49:34.082          1123.498
                       5    8 Sep 2021 07:23:22.171    8 Sep 2021 07:42:05.668          1123.497
                       6    8 Sep 2021 08:15:53.764    8 Sep 2021 08:34:37.255          1123.491
                       7    8 Sep 2021 09:08:25.353    8 Sep 2021 09:27:08.842          1123.490
                       8    8 Sep 2021 10:00:56.939    8 Sep 2021 10:19:40.432          1123.494
                       9    8 Sep 2021 10:53:28.525    8 Sep 2021 11:12:12.024          1123.499
                      10    8 Sep 2021 11:46:00.113    8 Sep 2021 12:04:43.610          1123.497
                      11    8 Sep 2021 12:38:31.706    8 Sep 2021 12:57:15.197          1123.491
                      12    8 Sep 2021 13:31:03.294    8 Sep 2021 13:49:46.784          1123.490
                      13    8 Sep 2021 14:23:34.881    8 Sep 2021 14:42:18.374          1123.494
                      14    8 Sep 2021 15:16:06.467    8 Sep 2021 15:34:49.966          1123.499
                      15    8 Sep 2021 16:08:38.055    8 Sep 2021 16:27:21.552          1123.497
                      16    8 Sep 2021 17:01:09.648    8 Sep 2021 17:19:53.139          1123.491
                      17    8 Sep 2021 17:53:41.236    8 Sep 2021 18:12:24.726          1123.490
                      18    8 Sep 2021 18:46:12.823    8 Sep 2021 19:04:56.316          1123.494
                      19    8 Sep 2021 19:38:44.409    8 Sep 2021 19:57:27.908          1123.499
                      20    8 Sep 2021 20:31:15.997    8 Sep 2021 20:49:59.494          1123.497
                      21    8 Sep 2021 21:23:47.590    8 Sep 2021 21:42:31.081          1123.491
                      22    8 Sep 2021 22:16:19.178    8 Sep 2021 22:35:02.668          1123.490
                      23    8 Sep 2021 23:08:50.765    8 Sep 2021 23:27:34.258          1123.494
                      24    9 Sep 2021 00:01:22.351    9 Sep 2021 00:20:05.850          1123.499
                      25    9 Sep 2021 00:53:53.939    9 Sep 2021 01:12:37.436          1123.497
                      26    9 Sep 2021 01:46:25.532    9 Sep 2021 02:05:09.023          1123.491
                      27    9 Sep 2021 02:38:57.120    9 Sep 2021 02:57:40.610          1123.490
                      28    9 Sep 2021 03:31:28.707    9 Sep 2021 03:50:12.200          1123.494

Min Duration           1    8 Sep 2021 04:00:00.000    8 Sep 2021 04:11:59.313           719.313
Max Duration          24    9 Sep 2021 00:01:22.351    9 Sep 2021 00:20:05.850          1123.499
Mean Duration                                                                           1109.059
Total Duration                                                                         31053.649


Satellite506-To-Satellite201
----------------------------
                  Access       Start Time (UTCG)           Stop Time (UTCG)       Duration (sec)
                  ------    -----------------------    -----------------------    --------------
                       1    8 Sep 2021 04:00:00.000    8 Sep 2021 04:06:15.496           375.496
                       2    8 Sep 2021 04:39:42.118    8 Sep 2021 04:58:47.087          1144.969
                       3    8 Sep 2021 05:32:13.708    8 Sep 2021 05:51:18.673          1144.965
                       4    8 Sep 2021 06:24:45.296    8 Sep 2021 06:43:50.262          1144.966
                       5    8 Sep 2021 07:17:16.885    8 Sep 2021 07:36:21.849          1144.964
                       6    8 Sep 2021 08:09:48.473    8 Sep 2021 08:28:53.440          1144.966
                       7    8 Sep 2021 09:02:20.057    8 Sep 2021 09:21:25.028          1144.971
                       8    8 Sep 2021 09:54:51.646    8 Sep 2021 10:13:56.616          1144.970
                       9    8 Sep 2021 10:47:23.235    8 Sep 2021 11:06:28.204          1144.969
                      10    8 Sep 2021 11:39:54.824    8 Sep 2021 11:58:59.793          1144.969
                      11    8 Sep 2021 12:32:26.413    8 Sep 2021 12:51:31.381          1144.969
                      12    8 Sep 2021 13:24:58.001    8 Sep 2021 13:44:02.970          1144.969
                      13    8 Sep 2021 14:17:29.590    8 Sep 2021 14:36:34.558          1144.968
                      14    8 Sep 2021 15:10:01.178    8 Sep 2021 15:29:06.146          1144.968
                      15    8 Sep 2021 16:02:32.766    8 Sep 2021 16:21:37.735          1144.968
                      16    8 Sep 2021 16:55:04.355    8 Sep 2021 17:14:09.323          1144.968
                      17    8 Sep 2021 17:47:35.943    8 Sep 2021 18:06:40.912          1144.968
                      18    8 Sep 2021 18:40:07.532    8 Sep 2021 18:59:12.500          1144.968
                      19    8 Sep 2021 19:32:39.120    8 Sep 2021 19:51:44.088          1144.968
                      20    8 Sep 2021 20:25:10.708    8 Sep 2021 20:44:15.677          1144.968
                      21    8 Sep 2021 21:17:42.297    8 Sep 2021 21:36:47.265          1144.968
                      22    8 Sep 2021 22:10:13.885    8 Sep 2021 22:29:18.854          1144.968
                      23    8 Sep 2021 23:02:45.474    8 Sep 2021 23:21:50.442          1144.968
                      24    8 Sep 2021 23:55:17.062    9 Sep 2021 00:14:22.030          1144.968
                      25    9 Sep 2021 00:47:48.650    9 Sep 2021 01:06:53.619          1144.968
                      26    9 Sep 2021 01:40:20.239    9 Sep 2021 01:59:25.207          1144.968
                      27    9 Sep 2021 02:32:51.827    9 Sep 2021 02:51:56.795          1144.968
                      28    9 Sep 2021 03:25:23.416    9 Sep 2021 03:44:28.384          1144.968

Min Duration           1    8 Sep 2021 04:00:00.000    8 Sep 2021 04:06:15.496           375.496
Max Duration           7    8 Sep 2021 09:02:20.057    8 Sep 2021 09:21:25.028          1144.971
Mean Duration                                                                           1117.487
Total Duration                                                                         31289.634


Satellite506-To-Satellite202
----------------------------
                  Access       Start Time (UTCG)           Stop Time (UTCG)       Duration (sec)
                  ------    -----------------------    -----------------------    --------------
                       1    8 Sep 2021 04:41:02.188    8 Sep 2021 04:46:56.700           354.512
                       2    8 Sep 2021 05:33:33.774    8 Sep 2021 05:39:28.289           354.514
                       3    8 Sep 2021 06:26:05.363    8 Sep 2021 06:31:59.873           354.511
                       4    8 Sep 2021 07:18:36.956    8 Sep 2021 07:24:31.465           354.509
                       5    8 Sep 2021 08:11:08.544    8 Sep 2021 08:17:03.054           354.510
                       6    8 Sep 2021 09:03:40.128    8 Sep 2021 09:09:34.642           354.514
                       7    8 Sep 2021 09:56:11.717    8 Sep 2021 10:02:06.228           354.511
                       8    8 Sep 2021 10:48:43.309    8 Sep 2021 10:54:37.819           354.510
                       9    8 Sep 2021 11:41:14.893    8 Sep 2021 11:47:09.407           354.515
                      10    8 Sep 2021 12:33:46.481    8 Sep 2021 12:39:40.991           354.510
                      11    8 Sep 2021 13:26:18.073    8 Sep 2021 13:32:12.583           354.510
                      12    8 Sep 2021 14:18:49.662    8 Sep 2021 14:24:44.173           354.510
                      13    8 Sep 2021 15:11:21.246    8 Sep 2021 15:17:15.761           354.514
                      14    8 Sep 2021 16:03:52.835    8 Sep 2021 16:09:47.346           354.511
                      15    8 Sep 2021 16:56:24.427    8 Sep 2021 17:02:18.937           354.511
                      16    8 Sep 2021 17:48:56.011    8 Sep 2021 17:54:50.526           354.515
                      17    8 Sep 2021 18:41:27.600    8 Sep 2021 18:47:22.110           354.510
                      18    8 Sep 2021 19:33:59.191    8 Sep 2021 19:39:53.702           354.511
                      19    8 Sep 2021 20:26:30.781    8 Sep 2021 20:32:25.291           354.511
                      20    8 Sep 2021 21:19:02.365    8 Sep 2021 21:24:56.879           354.514
                      21    8 Sep 2021 22:11:33.954    8 Sep 2021 22:17:28.465           354.511
                      22    8 Sep 2021 23:04:05.545    8 Sep 2021 23:10:00.056           354.511
                      23    8 Sep 2021 23:56:37.130    9 Sep 2021 00:02:31.645           354.515
                      24    9 Sep 2021 00:49:08.719    9 Sep 2021 00:55:03.228           354.510
                      25    9 Sep 2021 01:41:40.310    9 Sep 2021 01:47:34.821           354.511
                      26    9 Sep 2021 02:34:11.899    9 Sep 2021 02:40:06.410           354.511
                      27    9 Sep 2021 03:26:43.485    9 Sep 2021 03:32:37.998           354.514

Min Duration           4    8 Sep 2021 07:18:36.956    8 Sep 2021 07:24:31.465           354.509
Max Duration          16    8 Sep 2021 17:48:56.011    8 Sep 2021 17:54:50.526           354.515
Mean Duration                                                                            354.512
Total Duration                                                                          9571.814


Satellite506-To-Satellite207
----------------------------
                  Access       Start Time (UTCG)           Stop Time (UTCG)       Duration (sec)
                  ------    -----------------------    -----------------------    --------------
                       1    8 Sep 2021 04:14:12.884    8 Sep 2021 04:21:14.417           421.533
                       2    8 Sep 2021 05:06:44.469    8 Sep 2021 05:13:46.006           421.537
                       3    8 Sep 2021 05:59:16.060    8 Sep 2021 06:06:17.593           421.533
                       4    8 Sep 2021 06:51:47.646    8 Sep 2021 06:58:49.182           421.537
                       5    8 Sep 2021 07:44:19.236    8 Sep 2021 07:51:20.770           421.534
                       6    8 Sep 2021 08:36:50.823    8 Sep 2021 08:43:52.359           421.537
                       7    8 Sep 2021 09:29:22.412    8 Sep 2021 09:36:23.947           421.535
                       8    8 Sep 2021 10:21:54.000    8 Sep 2021 10:28:55.536           421.536
                       9    8 Sep 2021 11:14:25.588    8 Sep 2021 11:21:27.124           421.536
                      10    8 Sep 2021 12:06:57.179    8 Sep 2021 12:13:58.713           421.534
                      11    8 Sep 2021 12:59:28.764    8 Sep 2021 13:06:30.301           421.537
                      12    8 Sep 2021 13:52:00.355    8 Sep 2021 13:59:01.889           421.534
                      13    8 Sep 2021 14:44:31.941    8 Sep 2021 14:51:33.478           421.537
                      14    8 Sep 2021 15:37:03.534    8 Sep 2021 15:44:05.066           421.532
                      15    8 Sep 2021 16:29:35.118    8 Sep 2021 16:36:36.652           421.534
                      16    8 Sep 2021 17:22:06.710    8 Sep 2021 17:29:08.243           421.533
                      17    8 Sep 2021 18:14:38.294    8 Sep 2021 18:21:39.831           421.537
                      18    8 Sep 2021 19:07:09.886    8 Sep 2021 19:14:11.419           421.533
                      19    8 Sep 2021 19:59:41.471    8 Sep 2021 20:06:43.008           421.537
                      20    8 Sep 2021 20:52:13.062    8 Sep 2021 20:59:14.596           421.534
                      21    8 Sep 2021 21:44:44.648    8 Sep 2021 21:51:46.185           421.537
                      22    8 Sep 2021 22:37:16.238    8 Sep 2021 22:44:17.773           421.535
                      23    8 Sep 2021 23:29:47.826    8 Sep 2021 23:36:49.362           421.536
                      24    9 Sep 2021 00:22:19.414    9 Sep 2021 00:29:20.950           421.536
                      25    9 Sep 2021 01:14:51.005    9 Sep 2021 01:21:52.538           421.534
                      26    9 Sep 2021 02:07:22.590    9 Sep 2021 02:14:24.127           421.537
                      27    9 Sep 2021 02:59:54.181    9 Sep 2021 03:06:55.715           421.534
                      28    9 Sep 2021 03:52:25.767    9 Sep 2021 03:59:27.304           421.537

Min Duration          14    8 Sep 2021 15:37:03.534    8 Sep 2021 15:44:05.066           421.532
Max Duration          13    8 Sep 2021 14:44:31.941    8 Sep 2021 14:51:33.478           421.537
Mean Duration                                                                            421.535
Total Duration                                                                         11802.986


Satellite506-To-Satellite208
----------------------------
                  Access       Start Time (UTCG)           Stop Time (UTCG)       Duration (sec)
                  ------    -----------------------    -----------------------    --------------
                       1    8 Sep 2021 04:02:46.476    8 Sep 2021 04:22:10.501          1164.025
                       2    8 Sep 2021 04:55:18.067    8 Sep 2021 05:14:42.092          1164.025
                       3    8 Sep 2021 05:47:49.654    8 Sep 2021 06:07:13.682          1164.028
                       4    8 Sep 2021 06:40:21.242    8 Sep 2021 06:59:45.268          1164.027
                       5    8 Sep 2021 07:32:52.832    8 Sep 2021 07:52:16.856          1164.024
                       6    8 Sep 2021 08:25:24.417    8 Sep 2021 08:44:48.444          1164.027
                       7    8 Sep 2021 09:17:56.007    8 Sep 2021 09:37:20.032          1164.025
                       8    8 Sep 2021 10:10:27.595    8 Sep 2021 10:29:51.622          1164.027
                       9    8 Sep 2021 11:02:59.186    8 Sep 2021 11:22:23.210          1164.024
                      10    8 Sep 2021 11:55:30.772    8 Sep 2021 12:14:54.798          1164.026
                      11    8 Sep 2021 12:48:02.361    8 Sep 2021 13:07:26.386          1164.025
                      12    8 Sep 2021 13:40:33.949    8 Sep 2021 13:59:57.975          1164.026
                      13    8 Sep 2021 14:33:05.539    8 Sep 2021 14:52:29.562          1164.023
                      14    8 Sep 2021 15:25:37.126    8 Sep 2021 15:45:01.155          1164.029
                      15    8 Sep 2021 16:18:08.715    8 Sep 2021 16:37:32.741          1164.026
                      16    8 Sep 2021 17:10:40.304    8 Sep 2021 17:30:04.329          1164.024
                      17    8 Sep 2021 18:03:11.890    8 Sep 2021 18:22:35.916          1164.026
                      18    8 Sep 2021 18:55:43.480    8 Sep 2021 19:15:07.505          1164.025
                      19    8 Sep 2021 19:48:15.068    8 Sep 2021 20:07:39.095          1164.027
                      20    8 Sep 2021 20:40:46.658    8 Sep 2021 21:00:10.682          1164.024
                      21    8 Sep 2021 21:33:18.245    8 Sep 2021 21:52:42.270          1164.026
                      22    8 Sep 2021 22:25:49.833    8 Sep 2021 22:45:13.858          1164.025
                      23    8 Sep 2021 23:18:21.421    8 Sep 2021 23:37:45.447          1164.026
                      24    9 Sep 2021 00:10:53.012    9 Sep 2021 00:30:17.034          1164.023
                      25    9 Sep 2021 01:03:24.599    9 Sep 2021 01:22:48.623          1164.024
                      26    9 Sep 2021 01:55:56.187    9 Sep 2021 02:15:20.213          1164.026
                      27    9 Sep 2021 02:48:27.777    9 Sep 2021 03:07:51.801          1164.024
                      28    9 Sep 2021 03:40:59.362    9 Sep 2021 04:00:00.000          1140.638

Min Duration          28    9 Sep 2021 03:40:59.362    9 Sep 2021 04:00:00.000          1140.638
Max Duration          14    8 Sep 2021 15:25:37.126    8 Sep 2021 15:45:01.155          1164.029
Mean Duration                                                                           1163.190
Total Duration                                                                         32569.323


Satellite506-To-Satellite209
----------------------------
                  Access       Start Time (UTCG)           Stop Time (UTCG)       Duration (sec)
                  ------    -----------------------    -----------------------    --------------
                       1    8 Sep 2021 04:00:00.000    8 Sep 2021 04:19:38.939          1178.939
                       2    8 Sep 2021 04:47:19.310    8 Sep 2021 05:12:10.532          1491.222
                       3    8 Sep 2021 05:39:50.895    8 Sep 2021 06:04:42.116          1491.221
                       4    8 Sep 2021 06:32:22.487    8 Sep 2021 06:57:13.709          1491.221
                       5    8 Sep 2021 07:24:54.072    8 Sep 2021 07:49:45.293          1491.221
                       6    8 Sep 2021 08:17:25.664    8 Sep 2021 08:42:16.885          1491.221
                       7    8 Sep 2021 09:09:57.249    8 Sep 2021 09:34:48.470          1491.221
                       8    8 Sep 2021 10:02:28.841    8 Sep 2021 10:27:20.062          1491.221
                       9    8 Sep 2021 10:55:00.426    8 Sep 2021 11:19:51.647          1491.221
                      10    8 Sep 2021 11:47:32.018    8 Sep 2021 12:12:23.239          1491.221
                      11    8 Sep 2021 12:40:03.603    8 Sep 2021 13:04:54.823          1491.221
                      12    8 Sep 2021 13:32:35.195    8 Sep 2021 13:57:26.416          1491.221
                      13    8 Sep 2021 14:25:06.779    8 Sep 2021 14:49:58.000          1491.221
                      14    8 Sep 2021 15:17:38.372    8 Sep 2021 15:42:29.593          1491.221
                      15    8 Sep 2021 16:10:09.956    8 Sep 2021 16:35:01.177          1491.221
                      16    8 Sep 2021 17:02:41.548    8 Sep 2021 17:27:32.769          1491.221
                      17    8 Sep 2021 17:55:13.133    8 Sep 2021 18:20:04.354          1491.221
                      18    8 Sep 2021 18:47:44.725    8 Sep 2021 19:12:35.946          1491.221
                      19    8 Sep 2021 19:40:16.310    8 Sep 2021 20:05:07.531          1491.221
                      20    8 Sep 2021 20:32:47.902    8 Sep 2021 20:57:39.123          1491.221
                      21    8 Sep 2021 21:25:19.487    8 Sep 2021 21:50:10.707          1491.221
                      22    8 Sep 2021 22:17:51.079    8 Sep 2021 22:42:42.300          1491.221
                      23    8 Sep 2021 23:10:22.663    8 Sep 2021 23:35:13.884          1491.221
                      24    9 Sep 2021 00:02:54.256    9 Sep 2021 00:27:45.476          1491.221
                      25    9 Sep 2021 00:55:25.840    9 Sep 2021 01:20:17.061          1491.221
                      26    9 Sep 2021 01:47:57.432    9 Sep 2021 02:12:48.653          1491.221
                      27    9 Sep 2021 02:40:29.017    9 Sep 2021 03:05:20.238          1491.221
                      28    9 Sep 2021 03:33:00.609    9 Sep 2021 03:57:51.830          1491.221

Min Duration           1    8 Sep 2021 04:00:00.000    8 Sep 2021 04:19:38.939          1178.939
Max Duration           2    8 Sep 2021 04:47:19.310    8 Sep 2021 05:12:10.532          1491.222
Mean Duration                                                                           1480.068
Total Duration                                                                         41441.904


Satellite506-To-Satellite210
----------------------------
                  Access       Start Time (UTCG)           Stop Time (UTCG)       Duration (sec)
                  ------    -----------------------    -----------------------    --------------
                       1    8 Sep 2021 04:00:00.000    8 Sep 2021 04:14:20.808           860.808
                       2    8 Sep 2021 04:42:07.126    8 Sep 2021 05:06:52.395          1485.269
                       3    8 Sep 2021 05:34:38.713    8 Sep 2021 05:59:23.987          1485.274
                       4    8 Sep 2021 06:27:10.301    8 Sep 2021 06:51:55.572          1485.270
                       5    8 Sep 2021 07:19:41.890    8 Sep 2021 07:44:27.164          1485.274
                       6    8 Sep 2021 08:12:13.478    8 Sep 2021 08:36:58.748          1485.271
                       7    8 Sep 2021 09:04:45.067    8 Sep 2021 09:29:30.340          1485.274
                       8    8 Sep 2021 09:57:16.657    8 Sep 2021 10:22:01.925          1485.268
                       9    8 Sep 2021 10:49:48.243    8 Sep 2021 11:14:33.517          1485.274
                      10    8 Sep 2021 11:42:19.834    8 Sep 2021 12:07:05.102          1485.268
                      11    8 Sep 2021 12:34:51.420    8 Sep 2021 12:59:36.694          1485.274
                      12    8 Sep 2021 13:27:23.010    8 Sep 2021 13:52:08.279          1485.268
                      13    8 Sep 2021 14:19:54.597    8 Sep 2021 14:44:39.871          1485.274
                      14    8 Sep 2021 15:12:26.187    8 Sep 2021 15:37:11.456          1485.268
                      15    8 Sep 2021 16:04:57.774    8 Sep 2021 16:29:43.048          1485.274
                      16    8 Sep 2021 16:57:29.364    8 Sep 2021 17:22:14.632          1485.268
                      17    8 Sep 2021 17:50:00.951    8 Sep 2021 18:14:46.224          1485.274
                      18    8 Sep 2021 18:42:32.541    8 Sep 2021 19:07:17.809          1485.268
                      19    8 Sep 2021 19:35:04.127    8 Sep 2021 19:59:49.401          1485.274
                      20    8 Sep 2021 20:27:35.718    8 Sep 2021 20:52:20.986          1485.268
                      21    8 Sep 2021 21:20:07.304    8 Sep 2021 21:44:52.578          1485.274
                      22    8 Sep 2021 22:12:38.894    8 Sep 2021 22:37:24.163          1485.268
                      23    8 Sep 2021 23:05:10.481    8 Sep 2021 23:29:55.755          1485.274
                      24    8 Sep 2021 23:57:42.071    9 Sep 2021 00:22:27.340          1485.268
                      25    9 Sep 2021 00:50:13.658    9 Sep 2021 01:14:58.932          1485.274
                      26    9 Sep 2021 01:42:45.248    9 Sep 2021 02:07:30.516          1485.268
                      27    9 Sep 2021 02:35:16.834    9 Sep 2021 03:00:02.108          1485.274
                      28    9 Sep 2021 03:27:48.425    9 Sep 2021 03:52:33.693          1485.268

Min Duration           1    8 Sep 2021 04:00:00.000    8 Sep 2021 04:14:20.808           860.808
Max Duration           3    8 Sep 2021 05:34:38.713    8 Sep 2021 05:59:23.987          1485.274
Mean Duration                                                                           1462.969
Total Duration                                                                         40963.130


Satellite506-To-Satellite306
----------------------------
                  Access       Start Time (UTCG)           Stop Time (UTCG)       Duration (sec)
                  ------    -----------------------    -----------------------    --------------
                       1    8 Sep 2021 04:18:22.207    8 Sep 2021 04:26:16.618           474.411
                       2    8 Sep 2021 05:10:53.797    8 Sep 2021 05:18:48.202           474.405
                       3    8 Sep 2021 06:03:25.384    8 Sep 2021 06:11:19.795           474.411
                       4    8 Sep 2021 06:55:56.972    8 Sep 2021 07:03:51.383           474.411
                       5    8 Sep 2021 07:48:28.561    8 Sep 2021 07:56:22.970           474.409
                       6    8 Sep 2021 08:41:00.152    8 Sep 2021 08:48:54.559           474.407
                       7    8 Sep 2021 09:33:31.742    8 Sep 2021 09:41:26.148           474.407
                       8    8 Sep 2021 10:26:03.326    8 Sep 2021 10:33:57.737           474.411
                       9    8 Sep 2021 11:18:34.915    8 Sep 2021 11:26:29.325           474.411
                      10    8 Sep 2021 12:11:06.503    8 Sep 2021 12:19:00.911           474.408
                      11    8 Sep 2021 13:03:38.091    8 Sep 2021 13:11:32.502           474.411
                      12    8 Sep 2021 13:56:09.679    8 Sep 2021 14:04:04.090           474.411
                      13    8 Sep 2021 14:48:41.269    8 Sep 2021 14:56:35.677           474.408
                      14    8 Sep 2021 15:41:12.860    8 Sep 2021 15:49:07.267           474.406
                      15    8 Sep 2021 16:33:44.449    8 Sep 2021 16:41:38.856           474.406
                      16    8 Sep 2021 17:26:16.033    8 Sep 2021 17:34:10.440           474.407
                      17    8 Sep 2021 18:18:47.625    8 Sep 2021 18:26:42.029           474.404
                      18    8 Sep 2021 19:11:19.210    8 Sep 2021 19:19:13.620           474.410
                      19    8 Sep 2021 20:03:50.798    8 Sep 2021 20:11:45.209           474.411
                      20    8 Sep 2021 20:56:22.387    8 Sep 2021 21:04:16.797           474.411
                      21    8 Sep 2021 21:48:53.976    8 Sep 2021 21:56:48.385           474.408
                      22    8 Sep 2021 22:41:25.566    8 Sep 2021 22:49:19.974           474.408
                      23    8 Sep 2021 23:33:57.153    8 Sep 2021 23:41:51.563           474.410
                      24    9 Sep 2021 00:26:28.740    9 Sep 2021 00:34:23.150           474.410
                      25    9 Sep 2021 01:19:00.333    9 Sep 2021 01:26:54.735           474.402
                      26    9 Sep 2021 02:11:31.919    9 Sep 2021 02:19:26.328           474.409
                      27    9 Sep 2021 03:04:03.505    9 Sep 2021 03:11:57.916           474.411
                      28    9 Sep 2021 03:56:35.094    9 Sep 2021 04:00:00.000           204.906

Min Duration          28    9 Sep 2021 03:56:35.094    9 Sep 2021 04:00:00.000           204.906
Max Duration           3    8 Sep 2021 06:03:25.384    8 Sep 2021 06:11:19.795           474.411
Mean Duration                                                                            464.784
Total Duration                                                                         13013.940


Satellite506-To-Satellite307
----------------------------
                  Access       Start Time (UTCG)           Stop Time (UTCG)       Duration (sec)
                  ------    -----------------------    -----------------------    --------------
                       1    8 Sep 2021 04:02:11.115    8 Sep 2021 04:31:57.395          1786.279
                       2    8 Sep 2021 04:54:42.701    8 Sep 2021 05:24:28.982          1786.281
                       3    8 Sep 2021 05:47:14.293    8 Sep 2021 06:17:00.572          1786.279
                       4    8 Sep 2021 06:39:45.878    8 Sep 2021 07:09:32.159          1786.281
                       5    8 Sep 2021 07:32:17.470    8 Sep 2021 08:02:03.748          1786.279
                       6    8 Sep 2021 08:24:49.055    8 Sep 2021 08:54:35.336          1786.281
                       7    8 Sep 2021 09:17:20.646    8 Sep 2021 09:47:06.925          1786.279
                       8    8 Sep 2021 10:09:52.232    8 Sep 2021 10:39:38.513          1786.281
                       9    8 Sep 2021 11:02:23.823    8 Sep 2021 11:32:10.102          1786.279
                      10    8 Sep 2021 11:54:55.409    8 Sep 2021 12:24:41.690          1786.281
                      11    8 Sep 2021 12:47:27.000    8 Sep 2021 13:17:13.279          1786.279
                      12    8 Sep 2021 13:39:58.585    8 Sep 2021 14:09:44.866          1786.281
                      13    8 Sep 2021 14:32:30.177    8 Sep 2021 15:02:16.455          1786.279
                      14    8 Sep 2021 15:25:01.762    8 Sep 2021 15:54:48.043          1786.281
                      15    8 Sep 2021 16:17:33.354    8 Sep 2021 16:47:19.632          1786.279
                      16    8 Sep 2021 17:10:04.939    8 Sep 2021 17:39:51.220          1786.281
                      17    8 Sep 2021 18:02:36.531    8 Sep 2021 18:32:22.809          1786.278
                      18    8 Sep 2021 18:55:08.116    8 Sep 2021 19:24:54.397          1786.281
                      19    8 Sep 2021 19:47:39.707    8 Sep 2021 20:17:25.986          1786.278
                      20    8 Sep 2021 20:40:11.293    8 Sep 2021 21:09:57.574          1786.281
                      21    8 Sep 2021 21:32:42.884    8 Sep 2021 22:02:29.163          1786.278
                      22    8 Sep 2021 22:25:14.469    8 Sep 2021 22:55:00.750          1786.281
                      23    8 Sep 2021 23:17:46.061    8 Sep 2021 23:47:32.339          1786.278
                      24    9 Sep 2021 00:10:17.646    9 Sep 2021 00:40:03.927          1786.281
                      25    9 Sep 2021 01:02:49.238    9 Sep 2021 01:32:35.516          1786.278
                      26    9 Sep 2021 01:55:20.823    9 Sep 2021 02:25:07.104          1786.281
                      27    9 Sep 2021 02:47:52.414    9 Sep 2021 03:17:38.693          1786.278
                      28    9 Sep 2021 03:40:24.000    9 Sep 2021 04:00:00.000          1176.000

Min Duration          28    9 Sep 2021 03:40:24.000    9 Sep 2021 04:00:00.000          1176.000
Max Duration          26    9 Sep 2021 01:55:20.823    9 Sep 2021 02:25:07.104          1786.281
Mean Duration                                                                           1764.484
Total Duration                                                                         49405.553


Satellite506-To-Satellite308
----------------------------
                  Access       Start Time (UTCG)           Stop Time (UTCG)       Duration (sec)
                  ------    -----------------------    -----------------------    --------------
                       1    8 Sep 2021 04:00:00.000    8 Sep 2021 04:30:39.746          1839.746
                       2    8 Sep 2021 04:45:30.033    8 Sep 2021 05:23:11.335          2261.301
                       3    8 Sep 2021 05:38:01.622    8 Sep 2021 06:15:42.923          2261.301
                       4    8 Sep 2021 06:30:33.210    8 Sep 2021 07:08:14.511          2261.301
                       5    8 Sep 2021 07:23:04.799    8 Sep 2021 08:00:46.100          2261.301
                       6    8 Sep 2021 08:15:36.387    8 Sep 2021 08:53:17.688          2261.301
                       7    8 Sep 2021 09:08:07.975    8 Sep 2021 09:45:49.277          2261.301
                       8    8 Sep 2021 10:00:39.564    8 Sep 2021 10:38:20.865          2261.301
                       9    8 Sep 2021 10:53:11.152    8 Sep 2021 11:30:52.453          2261.301
                      10    8 Sep 2021 11:45:42.741    8 Sep 2021 12:23:24.042          2261.301
                      11    8 Sep 2021 12:38:14.329    8 Sep 2021 13:15:55.630          2261.301
                      12    8 Sep 2021 13:30:45.917    8 Sep 2021 14:08:27.219          2261.301
                      13    8 Sep 2021 14:23:17.506    8 Sep 2021 15:00:58.807          2261.301
                      14    8 Sep 2021 15:15:49.094    8 Sep 2021 15:53:30.395          2261.301
                      15    8 Sep 2021 16:08:20.683    8 Sep 2021 16:46:01.984          2261.301
                      16    8 Sep 2021 17:00:52.271    8 Sep 2021 17:38:33.572          2261.301
                      17    8 Sep 2021 17:53:23.859    8 Sep 2021 18:31:05.161          2261.301
                      18    8 Sep 2021 18:45:55.448    8 Sep 2021 19:23:36.749          2261.301
                      19    8 Sep 2021 19:38:27.036    8 Sep 2021 20:16:08.337          2261.301
                      20    8 Sep 2021 20:30:58.625    8 Sep 2021 21:08:39.926          2261.301
                      21    8 Sep 2021 21:23:30.213    8 Sep 2021 22:01:11.514          2261.301
                      22    8 Sep 2021 22:16:01.801    8 Sep 2021 22:53:43.103          2261.301
                      23    8 Sep 2021 23:08:33.390    8 Sep 2021 23:46:14.691          2261.301
                      24    9 Sep 2021 00:01:04.978    9 Sep 2021 00:38:46.279          2261.301
                      25    9 Sep 2021 00:53:36.566    9 Sep 2021 01:31:17.868          2261.301
                      26    9 Sep 2021 01:46:08.155    9 Sep 2021 02:23:49.456          2261.301
                      27    9 Sep 2021 02:38:39.743    9 Sep 2021 03:16:21.045          2261.301
                      28    9 Sep 2021 03:31:11.332    9 Sep 2021 04:00:00.000          1728.668

Min Duration          28    9 Sep 2021 03:31:11.332    9 Sep 2021 04:00:00.000          1728.668
Max Duration           2    8 Sep 2021 04:45:30.033    8 Sep 2021 05:23:11.335          2261.301
Mean Duration                                                                           2227.223
Total Duration                                                                         62362.247


Satellite506-To-Satellite309
----------------------------
                  Access       Start Time (UTCG)           Stop Time (UTCG)       Duration (sec)
                  ------    -----------------------    -----------------------    --------------
                       1    8 Sep 2021 04:00:00.000    8 Sep 2021 04:21:29.780          1289.780
                       2    8 Sep 2021 04:44:09.681    8 Sep 2021 05:14:01.368          1791.687
                       3    8 Sep 2021 05:36:41.269    8 Sep 2021 06:06:32.956          1791.687
                       4    8 Sep 2021 06:29:12.857    8 Sep 2021 06:59:04.544          1791.687
                       5    8 Sep 2021 07:21:44.445    8 Sep 2021 07:51:36.133          1791.687
                       6    8 Sep 2021 08:14:16.034    8 Sep 2021 08:44:07.721          1791.687
                       7    8 Sep 2021 09:06:47.622    8 Sep 2021 09:36:39.309          1791.687
                       8    8 Sep 2021 09:59:19.210    8 Sep 2021 10:29:10.897          1791.687
                       9    8 Sep 2021 10:51:50.798    8 Sep 2021 11:21:42.486          1791.687
                      10    8 Sep 2021 11:44:22.387    8 Sep 2021 12:14:14.072          1791.686
                      11    8 Sep 2021 12:36:53.979    8 Sep 2021 13:06:45.661          1791.682
                      12    8 Sep 2021 13:29:25.567    8 Sep 2021 13:59:17.254          1791.687
                      13    8 Sep 2021 14:21:57.155    8 Sep 2021 14:51:48.842          1791.687
                      14    8 Sep 2021 15:14:28.743    8 Sep 2021 15:44:20.430          1791.687
                      15    8 Sep 2021 16:07:00.331    8 Sep 2021 16:36:52.019          1791.687
                      16    8 Sep 2021 16:59:31.920    8 Sep 2021 17:29:23.607          1791.687
                      17    8 Sep 2021 17:52:03.508    8 Sep 2021 18:21:55.195          1791.687
                      18    8 Sep 2021 18:44:35.096    8 Sep 2021 19:14:26.783          1791.687
                      19    8 Sep 2021 19:37:06.684    8 Sep 2021 20:06:58.371          1791.687
                      20    8 Sep 2021 20:29:38.272    8 Sep 2021 20:59:29.959          1791.687
                      21    8 Sep 2021 21:22:09.860    8 Sep 2021 21:52:01.547          1791.687
                      22    8 Sep 2021 22:14:41.448    8 Sep 2021 22:44:33.135          1791.687
                      23    8 Sep 2021 23:07:13.036    8 Sep 2021 23:37:04.724          1791.687
                      24    8 Sep 2021 23:59:44.625    9 Sep 2021 00:29:36.312          1791.687
                      25    9 Sep 2021 00:52:16.213    9 Sep 2021 01:22:07.900          1791.687
                      26    9 Sep 2021 01:44:47.801    9 Sep 2021 02:14:39.488          1791.687
                      27    9 Sep 2021 02:37:19.389    9 Sep 2021 03:07:11.075          1791.686
                      28    9 Sep 2021 03:29:50.981    9 Sep 2021 03:59:42.665          1791.684

Min Duration           1    8 Sep 2021 04:00:00.000    8 Sep 2021 04:21:29.780          1289.780
Max Duration           9    8 Sep 2021 10:51:50.798    8 Sep 2021 11:21:42.486          1791.687
Mean Duration                                                                           1773.761
Total Duration                                                                         49665.321


Satellite506-To-Satellite310
----------------------------
                  Access       Start Time (UTCG)           Stop Time (UTCG)       Duration (sec)
                  ------    -----------------------    -----------------------    --------------
                       1    8 Sep 2021 04:00:00.000    8 Sep 2021 04:05:11.615           311.615
                       2    8 Sep 2021 04:49:57.532    8 Sep 2021 04:57:43.203           465.671
                       3    8 Sep 2021 05:42:29.118    8 Sep 2021 05:50:14.790           465.672
                       4    8 Sep 2021 06:35:00.705    8 Sep 2021 06:42:46.380           465.675
                       5    8 Sep 2021 07:27:32.298    8 Sep 2021 07:35:17.967           465.669
                       6    8 Sep 2021 08:20:03.886    8 Sep 2021 08:27:49.557           465.670
                       7    8 Sep 2021 09:12:35.470    8 Sep 2021 09:20:21.145           465.675
                       8    8 Sep 2021 10:05:07.059    8 Sep 2021 10:12:52.734           465.674
                       9    8 Sep 2021 10:57:38.650    8 Sep 2021 11:05:24.322           465.672
                      10    8 Sep 2021 11:50:10.239    8 Sep 2021 11:57:55.910           465.671
                      11    8 Sep 2021 12:42:41.825    8 Sep 2021 12:50:27.497           465.672
                      12    8 Sep 2021 13:35:13.412    8 Sep 2021 13:42:59.087           465.675
                      13    8 Sep 2021 14:27:45.004    8 Sep 2021 14:35:30.673           465.669
                      14    8 Sep 2021 15:20:16.594    8 Sep 2021 15:28:02.264           465.670
                      15    8 Sep 2021 16:12:48.177    8 Sep 2021 16:20:33.852           465.675
                      16    8 Sep 2021 17:05:19.766    8 Sep 2021 17:13:05.441           465.674
                      17    8 Sep 2021 17:57:51.357    8 Sep 2021 18:05:37.029           465.672
                      18    8 Sep 2021 18:50:22.946    8 Sep 2021 18:58:08.617           465.671
                      19    8 Sep 2021 19:42:54.532    8 Sep 2021 19:50:40.205           465.673
                      20    8 Sep 2021 20:35:26.119    8 Sep 2021 20:43:11.794           465.675
                      21    8 Sep 2021 21:27:57.711    8 Sep 2021 21:35:43.380           465.669
                      22    8 Sep 2021 22:20:29.301    8 Sep 2021 22:28:14.971           465.671
                      23    8 Sep 2021 23:13:00.885    8 Sep 2021 23:20:46.560           465.675
                      24    9 Sep 2021 00:05:32.474    9 Sep 2021 00:13:18.148           465.674
                      25    9 Sep 2021 00:58:04.064    9 Sep 2021 01:05:49.736           465.672
                      26    9 Sep 2021 01:50:35.653    9 Sep 2021 01:58:21.324           465.671
                      27    9 Sep 2021 02:43:07.239    9 Sep 2021 02:50:52.912           465.673
                      28    9 Sep 2021 03:35:38.827    9 Sep 2021 03:43:24.501           465.675

Min Duration           1    8 Sep 2021 04:00:00.000    8 Sep 2021 04:05:11.615           311.615
Max Duration           7    8 Sep 2021 09:12:35.470    8 Sep 2021 09:20:21.145           465.675
Mean Duration                                                                            460.170
Total Duration                                                                         12884.769


Satellite506-To-Satellite406
----------------------------
                  Access       Start Time (UTCG)           Stop Time (UTCG)       Duration (sec)
                  ------    -----------------------    -----------------------    --------------
                       1    8 Sep 2021 04:00:00.000    9 Sep 2021 04:00:00.000         86400.000

Min Duration           1    8 Sep 2021 04:00:00.000    9 Sep 2021 04:00:00.000         86400.000
Max Duration           1    8 Sep 2021 04:00:00.000    9 Sep 2021 04:00:00.000         86400.000
Mean Duration                                                                          86400.000
Total Duration                                                                         86400.000


Satellite506-To-Satellite407
----------------------------
                  Access       Start Time (UTCG)           Stop Time (UTCG)       Duration (sec)
                  ------    -----------------------    -----------------------    --------------
                       1    8 Sep 2021 04:00:00.000    9 Sep 2021 04:00:00.000         86400.000

Min Duration           1    8 Sep 2021 04:00:00.000    9 Sep 2021 04:00:00.000         86400.000
Max Duration           1    8 Sep 2021 04:00:00.000    9 Sep 2021 04:00:00.000         86400.000
Mean Duration                                                                          86400.000
Total Duration                                                                         86400.000


Satellite506-To-Satellite408
----------------------------
                  Access       Start Time (UTCG)           Stop Time (UTCG)       Duration (sec)
                  ------    -----------------------    -----------------------    --------------
                       1    8 Sep 2021 04:00:00.000    9 Sep 2021 04:00:00.000         86400.000

Min Duration           1    8 Sep 2021 04:00:00.000    9 Sep 2021 04:00:00.000         86400.000
Max Duration           1    8 Sep 2021 04:00:00.000    9 Sep 2021 04:00:00.000         86400.000
Mean Duration                                                                          86400.000
Total Duration                                                                         86400.000


Satellite506-To-Satellite505
----------------------------
                  Access       Start Time (UTCG)           Stop Time (UTCG)       Duration (sec)
                  ------    -----------------------    -----------------------    --------------
                       1    8 Sep 2021 04:00:00.000    9 Sep 2021 04:00:00.000         86400.000

Min Duration           1    8 Sep 2021 04:00:00.000    9 Sep 2021 04:00:00.000         86400.000
Max Duration           1    8 Sep 2021 04:00:00.000    9 Sep 2021 04:00:00.000         86400.000
Mean Duration                                                                          86400.000
Total Duration                                                                         86400.000


Satellite506-To-Satellite507
----------------------------
                  Access       Start Time (UTCG)           Stop Time (UTCG)       Duration (sec)
