routing/visibility/v508.txt

Satellite508-To-Satellite101
----------------------------
                  Access       Start Time (UTCG)           Stop Time (UTCG)       Duration (sec)
                  ------    -----------------------    -----------------------    --------------
                       1    8 Sep 2021 04:33:53.036    8 Sep 2021 04:44:54.320           661.284
                       2    8 Sep 2021 05:26:24.630    8 Sep 2021 05:37:25.908           661.278
                       3    8 Sep 2021 06:18:56.218    8 Sep 2021 06:29:57.496           661.278
                       4    8 Sep 2021 07:11:27.806    8 Sep 2021 07:22:29.084           661.278
                       5    8 Sep 2021 08:03:59.394    8 Sep 2021 08:15:00.670           661.276
                       6    8 Sep 2021 08:56:30.981    8 Sep 2021 09:07:32.260           661.279
                       7    8 Sep 2021 09:49:02.569    8 Sep 2021 10:00:03.852           661.283
                       8    8 Sep 2021 10:41:34.156    8 Sep 2021 10:52:35.440           661.284
                       9    8 Sep 2021 11:34:05.744    8 Sep 2021 11:45:07.027           661.284
                      10    8 Sep 2021 12:26:37.336    8 Sep 2021 12:37:38.615           661.279
                      11    8 Sep 2021 13:19:08.925    8 Sep 2021 13:30:10.203           661.278
                      12    8 Sep 2021 14:11:40.513    8 Sep 2021 14:22:41.791           661.278
                      13    8 Sep 2021 15:04:12.101    8 Sep 2021 15:15:13.377           661.276
                      14    8 Sep 2021 15:56:43.689    8 Sep 2021 16:07:44.966           661.277
                      15    8 Sep 2021 16:49:15.276    8 Sep 2021 17:00:16.559           661.283
                      16    8 Sep 2021 17:41:46.863    8 Sep 2021 17:52:48.147           661.284
                      17    8 Sep 2021 18:34:18.451    8 Sep 2021 18:45:19.735           661.284
                      18    8 Sep 2021 19:26:50.041    8 Sep 2021 19:37:51.322           661.282
                      19    8 Sep 2021 20:19:21.632    8 Sep 2021 20:30:22.910           661.278
                      20    8 Sep 2021 21:11:53.220    8 Sep 2021 21:22:54.498           661.278
                      21    8 Sep 2021 22:04:24.809    8 Sep 2021 22:15:26.085           661.276
                      22    8 Sep 2021 22:56:56.396    8 Sep 2021 23:07:57.677           661.281
                      23    8 Sep 2021 23:49:27.984    9 Sep 2021 00:00:29.266           661.282
                      24    9 Sep 2021 00:41:59.571    9 Sep 2021 00:53:00.854           661.283
                      25    9 Sep 2021 01:34:31.158    9 Sep 2021 01:45:32.442           661.284
                      26    9 Sep 2021 02:27:02.746    9 Sep 2021 02:38:04.030           661.283
                      27    9 Sep 2021 03:19:34.339    9 Sep 2021 03:30:35.617           661.278

Min Duration          21    8 Sep 2021 22:04:24.809    8 Sep 2021 22:15:26.085           661.276
Max Duration          25    9 Sep 2021 01:34:31.158    9 Sep 2021 01:45:32.442           661.284
Mean Duration                                                                            661.280
Total Duration                                                                         17854.566


Satellite508-To-Satellite102
----------------------------
                  Access       Start Time (UTCG)           Stop Time (UTCG)       Duration (sec)
                  ------    -----------------------    -----------------------    --------------
                       1    8 Sep 2021 04:24:46.775    8 Sep 2021 04:43:30.265          1123.490
                       2    8 Sep 2021 05:17:18.363    8 Sep 2021 05:36:01.854          1123.491
                       3    8 Sep 2021 06:09:49.950    8 Sep 2021 06:28:33.443          1123.492
                       4    8 Sep 2021 07:02:21.538    8 Sep 2021 07:21:05.035          1123.497
                       5    8 Sep 2021 07:54:53.124    8 Sep 2021 08:13:36.621          1123.497
                       6    8 Sep 2021 08:47:24.717    8 Sep 2021 09:06:08.208          1123.491
                       7    8 Sep 2021 09:39:56.306    8 Sep 2021 09:58:39.796          1123.490
                       8    8 Sep 2021 10:32:27.892    8 Sep 2021 10:51:11.385          1123.493
                       9    8 Sep 2021 11:24:59.478    8 Sep 2021 11:43:42.977          1123.499
                      10    8 Sep 2021 12:17:31.066    8 Sep 2021 12:36:14.563          1123.497
                      11    8 Sep 2021 13:10:02.659    8 Sep 2021 13:28:46.150          1123.491
                      12    8 Sep 2021 14:02:34.248    8 Sep 2021 14:21:17.737          1123.490
                      13    8 Sep 2021 14:55:05.834    8 Sep 2021 15:13:49.327          1123.494
                      14    8 Sep 2021 15:47:37.420    8 Sep 2021 16:06:20.919          1123.499
                      15    8 Sep 2021 16:40:09.008    8 Sep 2021 16:58:52.505          1123.497
                      16    8 Sep 2021 17:32:40.601    8 Sep 2021 17:51:24.092          1123.491
                      17    8 Sep 2021 18:25:12.190    8 Sep 2021 18:43:55.679          1123.490
                      18    8 Sep 2021 19:17:43.776    8 Sep 2021 19:36:27.270          1123.494
                      19    8 Sep 2021 20:10:15.362    8 Sep 2021 20:28:58.861          1123.499
                      20    8 Sep 2021 21:02:46.950    8 Sep 2021 21:21:30.447          1123.497
                      21    8 Sep 2021 21:55:18.543    8 Sep 2021 22:14:02.034          1123.491
                      22    8 Sep 2021 22:47:50.131    8 Sep 2021 23:06:33.621          1123.490
                      23    8 Sep 2021 23:40:21.718    8 Sep 2021 23:59:05.211          1123.494
                      24    9 Sep 2021 00:32:53.304    9 Sep 2021 00:51:36.803          1123.499
                      25    9 Sep 2021 01:25:24.892    9 Sep 2021 01:44:08.389          1123.497
                      26    9 Sep 2021 02:17:56.485    9 Sep 2021 02:36:39.976          1123.491
                      27    9 Sep 2021 03:10:28.073    9 Sep 2021 03:29:11.563          1123.490

Min Duration          27    9 Sep 2021 03:10:28.073    9 Sep 2021 03:29:11.563          1123.490
Max Duration          24    9 Sep 2021 00:32:53.304    9 Sep 2021 00:51:36.803          1123.499
Mean Duration                                                                           1123.494
Total Duration                                                                         30334.330


Satellite508-To-Satellite103
----------------------------
                  Access       Start Time (UTCG)           Stop Time (UTCG)       Duration (sec)
                  ------    -----------------------    -----------------------    --------------
                       1    8 Sep 2021 04:17:34.554    8 Sep 2021 04:40:12.164          1357.610
                       2    8 Sep 2021 05:10:06.142    8 Sep 2021 05:32:43.753          1357.610
                       3    8 Sep 2021 06:02:37.731    8 Sep 2021 06:25:15.341          1357.610
                       4    8 Sep 2021 06:55:09.320    8 Sep 2021 07:17:46.930          1357.610
                       5    8 Sep 2021 07:47:40.911    8 Sep 2021 08:10:18.522          1357.610
                       6    8 Sep 2021 08:40:12.500    8 Sep 2021 09:02:50.110          1357.610
                       7    8 Sep 2021 09:32:44.088    8 Sep 2021 09:55:21.698          1357.610
                       8    8 Sep 2021 10:25:15.677    8 Sep 2021 10:47:53.287          1357.610
                       9    8 Sep 2021 11:17:47.265    8 Sep 2021 11:40:24.875          1357.610
                      10    8 Sep 2021 12:10:18.853    8 Sep 2021 12:32:56.464          1357.610
                      11    8 Sep 2021 13:02:50.442    8 Sep 2021 13:25:28.052          1357.610
                      12    8 Sep 2021 13:55:22.030    8 Sep 2021 14:17:59.640          1357.610
                      13    8 Sep 2021 14:47:53.619    8 Sep 2021 15:10:31.229          1357.610
                      14    8 Sep 2021 15:40:25.207    8 Sep 2021 16:03:02.817          1357.610
                      15    8 Sep 2021 16:32:56.795    8 Sep 2021 16:55:34.406          1357.610
                      16    8 Sep 2021 17:25:28.384    8 Sep 2021 17:48:05.994          1357.610
                      17    8 Sep 2021 18:17:59.972    8 Sep 2021 18:40:37.582          1357.610
                      18    8 Sep 2021 19:10:31.561    8 Sep 2021 19:33:09.171          1357.610
                      19    8 Sep 2021 20:03:03.149    8 Sep 2021 20:25:40.759          1357.610
                      20    8 Sep 2021 20:55:34.737    8 Sep 2021 21:18:12.347          1357.610
                      21    8 Sep 2021 21:48:06.326    8 Sep 2021 22:10:43.936          1357.610
                      22    8 Sep 2021 22:40:37.914    8 Sep 2021 23:03:15.524          1357.610
                      23    8 Sep 2021 23:33:09.503    8 Sep 2021 23:55:47.113          1357.610
                      24    9 Sep 2021 00:25:41.091    9 Sep 2021 00:48:18.701          1357.610
                      25    9 Sep 2021 01:18:12.679    9 Sep 2021 01:40:50.289          1357.610
                      26    9 Sep 2021 02:10:44.268    9 Sep 2021 02:33:21.878          1357.610
                      27    9 Sep 2021 03:03:15.856    9 Sep 2021 03:25:53.466          1357.610
                      28    9 Sep 2021 03:55:47.444    9 Sep 2021 04:00:00.000           252.556

Min Duration          28    9 Sep 2021 03:55:47.444    9 Sep 2021 04:00:00.000           252.556
Max Duration           4    8 Sep 2021 06:55:09.320    8 Sep 2021 07:17:46.930          1357.610
Mean Duration                                                                           1318.144
Total Duration                                                                         36908.030


Satellite508-To-Satellite104
----------------------------
                  Access       Start Time (UTCG)           Stop Time (UTCG)       Duration (sec)
                  ------    -----------------------    -----------------------    --------------
                       1    8 Sep 2021 04:12:19.395    8 Sep 2021 04:34:57.010          1357.615
                       2    8 Sep 2021 05:04:50.979    8 Sep 2021 05:27:28.598          1357.620
                       3    8 Sep 2021 05:57:22.567    8 Sep 2021 06:20:00.187          1357.620
                       4    8 Sep 2021 06:49:54.156    8 Sep 2021 07:12:31.776          1357.620
                       5    8 Sep 2021 07:42:25.748    8 Sep 2021 08:05:03.364          1357.617
                       6    8 Sep 2021 08:34:57.336    8 Sep 2021 08:57:34.956          1357.620
                       7    8 Sep 2021 09:27:28.925    8 Sep 2021 09:50:06.544          1357.620
                       8    8 Sep 2021 10:20:00.513    8 Sep 2021 10:42:38.133          1357.620
                       9    8 Sep 2021 11:12:32.101    8 Sep 2021 11:35:09.721          1357.620
                      10    8 Sep 2021 12:05:03.690    8 Sep 2021 12:27:41.309          1357.620
                      11    8 Sep 2021 12:57:35.278    8 Sep 2021 13:20:12.898          1357.620
                      12    8 Sep 2021 13:50:06.867    8 Sep 2021 14:12:44.486          1357.620
                      13    8 Sep 2021 14:42:38.455    8 Sep 2021 15:05:16.075          1357.620
                      14    8 Sep 2021 15:35:10.043    8 Sep 2021 15:57:47.663          1357.620
                      15    8 Sep 2021 16:27:41.632    8 Sep 2021 16:50:19.251          1357.620
                      16    8 Sep 2021 17:20:13.220    8 Sep 2021 17:42:50.840          1357.620
                      17    8 Sep 2021 18:12:44.809    8 Sep 2021 18:35:22.428          1357.620
                      18    8 Sep 2021 19:05:16.397    8 Sep 2021 19:27:54.017          1357.620
                      19    8 Sep 2021 19:57:47.985    8 Sep 2021 20:20:25.605          1357.620
                      20    8 Sep 2021 20:50:19.574    8 Sep 2021 21:12:57.193          1357.620
                      21    8 Sep 2021 21:42:51.162    8 Sep 2021 22:05:28.782          1357.620
                      22    8 Sep 2021 22:35:22.751    8 Sep 2021 22:58:00.370          1357.620
                      23    8 Sep 2021 23:27:54.339    8 Sep 2021 23:50:31.959          1357.620
                      24    9 Sep 2021 00:20:25.927    9 Sep 2021 00:43:03.547          1357.620
                      25    9 Sep 2021 01:12:57.516    9 Sep 2021 01:35:35.135          1357.620
                      26    9 Sep 2021 02:05:29.104    9 Sep 2021 02:28:06.724          1357.620
                      27    9 Sep 2021 02:58:00.693    9 Sep 2021 03:20:38.312          1357.620
                      28    9 Sep 2021 03:50:32.281    9 Sep 2021 04:00:00.000           567.719

Min Duration          28    9 Sep 2021 03:50:32.281    9 Sep 2021 04:00:00.000           567.719
Max Duration           4    8 Sep 2021 06:49:54.156    8 Sep 2021 07:12:31.776          1357.620
Mean Duration                                                                           1329.409
Total Duration                                                                         37223.442


Satellite508-To-Satellite105
----------------------------
                  Access       Start Time (UTCG)           Stop Time (UTCG)       Duration (sec)
                  ------    -----------------------    -----------------------    --------------
                       1    8 Sep 2021 04:09:01.285    8 Sep 2021 04:27:44.802          1123.517
                       2    8 Sep 2021 05:01:32.872    8 Sep 2021 05:20:16.393          1123.521
                       3    8 Sep 2021 05:54:04.460    8 Sep 2021 06:12:47.983          1123.523
                       4    8 Sep 2021 06:46:36.050    8 Sep 2021 07:05:19.568          1123.517
                       5    8 Sep 2021 07:39:07.639    8 Sep 2021 07:57:51.156          1123.517
                       6    8 Sep 2021 08:31:39.226    8 Sep 2021 08:50:22.745          1123.519
                       7    8 Sep 2021 09:24:10.813    8 Sep 2021 09:42:54.337          1123.524
                       8    8 Sep 2021 10:16:42.399    8 Sep 2021 10:35:25.923          1123.524
                       9    8 Sep 2021 11:09:13.992    8 Sep 2021 11:27:57.510          1123.518
                      10    8 Sep 2021 12:01:45.581    8 Sep 2021 12:20:29.098          1123.517
                      11    8 Sep 2021 12:54:17.167    8 Sep 2021 13:13:00.687          1123.520
                      12    8 Sep 2021 13:46:48.753    8 Sep 2021 14:05:32.279          1123.526
                      13    8 Sep 2021 14:39:20.341    8 Sep 2021 14:58:03.865          1123.524
                      14    8 Sep 2021 15:31:51.934    8 Sep 2021 15:50:35.452          1123.518
                      15    8 Sep 2021 16:24:23.523    8 Sep 2021 16:43:07.040          1123.517
                      16    8 Sep 2021 17:16:55.109    8 Sep 2021 17:35:38.630          1123.521
                      17    8 Sep 2021 18:09:26.695    8 Sep 2021 18:28:10.221          1123.526
                      18    8 Sep 2021 19:01:58.283    8 Sep 2021 19:20:41.807          1123.524
                      19    8 Sep 2021 19:54:29.876    8 Sep 2021 20:13:13.394          1123.518
                      20    8 Sep 2021 20:47:01.465    8 Sep 2021 21:05:44.982          1123.517
                      21    8 Sep 2021 21:39:33.051    8 Sep 2021 21:58:16.572          1123.521
                      22    8 Sep 2021 22:32:04.637    8 Sep 2021 22:50:48.163          1123.526
                      23    8 Sep 2021 23:24:36.225    8 Sep 2021 23:43:19.749          1123.524
                      24    9 Sep 2021 00:17:07.818    9 Sep 2021 00:35:51.336          1123.518
                      25    9 Sep 2021 01:09:39.407    9 Sep 2021 01:28:22.923          1123.517
                      26    9 Sep 2021 02:02:10.993    9 Sep 2021 02:20:54.514          1123.521
                      27    9 Sep 2021 02:54:42.579    9 Sep 2021 03:13:26.105          1123.526
                      28    9 Sep 2021 03:47:14.167    9 Sep 2021 04:00:00.000           765.833

Min Duration          28    9 Sep 2021 03:47:14.167    9 Sep 2021 04:00:00.000           765.833
Max Duration          27    9 Sep 2021 02:54:42.579    9 Sep 2021 03:13:26.105          1123.526
Mean Duration                                                                           1110.746
Total Duration                                                                         31100.892


Satellite508-To-Satellite106
----------------------------
                  Access       Start Time (UTCG)           Stop Time (UTCG)       Duration (sec)
                  ------    -----------------------    -----------------------    --------------
                       1    8 Sep 2021 04:07:37.221    8 Sep 2021 04:18:38.549           661.329
                       2    8 Sep 2021 05:00:08.808    8 Sep 2021 05:11:10.140           661.332
                       3    8 Sep 2021 05:52:40.395    8 Sep 2021 06:03:41.728           661.332
                       4    8 Sep 2021 06:45:11.983    8 Sep 2021 06:56:13.315           661.332
                       5    8 Sep 2021 07:37:43.576    8 Sep 2021 07:48:44.903           661.328
                       6    8 Sep 2021 08:30:15.164    8 Sep 2021 08:41:16.491           661.327
                       7    8 Sep 2021 09:22:46.753    8 Sep 2021 09:33:48.079           661.327
                       8    8 Sep 2021 10:15:18.341    8 Sep 2021 10:26:19.666           661.325
                       9    8 Sep 2021 11:07:49.928    8 Sep 2021 11:18:51.254           661.327
                      10    8 Sep 2021 12:00:21.516    8 Sep 2021 12:11:22.847           661.331
                      11    8 Sep 2021 12:52:53.103    8 Sep 2021 13:03:54.435           661.332
                      12    8 Sep 2021 13:45:24.690    8 Sep 2021 13:56:26.023           661.332
                      13    8 Sep 2021 14:37:56.281    8 Sep 2021 14:48:57.610           661.329
                      14    8 Sep 2021 15:30:27.872    8 Sep 2021 15:41:29.198           661.327
                      15    8 Sep 2021 16:22:59.460    8 Sep 2021 16:34:00.786           661.327
                      16    8 Sep 2021 17:15:31.048    8 Sep 2021 17:26:32.373           661.325
                      17    8 Sep 2021 18:08:02.636    8 Sep 2021 18:19:03.966           661.330
                      18    8 Sep 2021 19:00:34.223    8 Sep 2021 19:11:35.554           661.331
                      19    8 Sep 2021 19:53:05.810    8 Sep 2021 20:04:07.142           661.332
                      20    8 Sep 2021 20:45:37.397    8 Sep 2021 20:56:38.730           661.332
                      21    8 Sep 2021 21:38:08.986    8 Sep 2021 21:49:10.318           661.332
                      22    8 Sep 2021 22:30:40.579    8 Sep 2021 22:41:41.906           661.327
                      23    8 Sep 2021 23:23:12.167    8 Sep 2021 23:34:13.494           661.327
                      24    9 Sep 2021 00:15:43.755    9 Sep 2021 00:26:45.080           661.325
                      25    9 Sep 2021 01:08:15.343    9 Sep 2021 01:19:16.671           661.328
                      26    9 Sep 2021 02:00:46.930    9 Sep 2021 02:11:48.261           661.331
                      27    9 Sep 2021 02:53:18.517    9 Sep 2021 03:04:19.849           661.332
                      28    9 Sep 2021 03:45:50.105    9 Sep 2021 03:56:51.437           661.332

Min Duration          24    9 Sep 2021 00:15:43.755    9 Sep 2021 00:26:45.080           661.325
Max Duration          28    9 Sep 2021 03:45:50.105    9 Sep 2021 03:56:51.437           661.332
Mean Duration                                                                            661.329
Total Duration                                                                         18517.221


Satellite508-To-Satellite201
----------------------------
                  Access       Start Time (UTCG)           Stop Time (UTCG)       Duration (sec)
                  ------    -----------------------    -----------------------    --------------
                       1    8 Sep 2021 04:26:18.675    8 Sep 2021 04:51:09.896          1491.221
                       2    8 Sep 2021 05:18:50.260    8 Sep 2021 05:43:41.481          1491.221
                       3    8 Sep 2021 06:11:21.852    8 Sep 2021 06:36:13.073          1491.221
                       4    8 Sep 2021 07:03:53.437    8 Sep 2021 07:28:44.658          1491.221
                       5    8 Sep 2021 07:56:25.029    8 Sep 2021 08:21:16.250          1491.221
                       6    8 Sep 2021 08:48:56.614    8 Sep 2021 09:13:47.834          1491.221
                       7    8 Sep 2021 09:41:28.206    8 Sep 2021 10:06:19.427          1491.221
                       8    8 Sep 2021 10:33:59.790    8 Sep 2021 10:58:51.011          1491.221
                       9    8 Sep 2021 11:26:31.383    8 Sep 2021 11:51:22.604          1491.221
                      10    8 Sep 2021 12:19:02.967    8 Sep 2021 12:43:54.188          1491.221
                      11    8 Sep 2021 13:11:34.559    8 Sep 2021 13:36:25.780          1491.221
                      12    8 Sep 2021 14:04:06.144    8 Sep 2021 14:28:57.365          1491.221
                      13    8 Sep 2021 14:56:37.736    8 Sep 2021 15:21:28.957          1491.221
                      14    8 Sep 2021 15:49:09.321    8 Sep 2021 16:14:00.542          1491.221
                      15    8 Sep 2021 16:41:40.913    8 Sep 2021 17:06:32.134          1491.221
                      16    8 Sep 2021 17:34:12.498    8 Sep 2021 17:59:03.718          1491.221
                      17    8 Sep 2021 18:26:44.090    8 Sep 2021 18:51:35.311          1491.221
                      18    8 Sep 2021 19:19:15.674    8 Sep 2021 19:44:06.895          1491.221
                      19    8 Sep 2021 20:11:47.267    8 Sep 2021 20:36:38.488          1491.221
                      20    8 Sep 2021 21:04:18.851    8 Sep 2021 21:29:10.072          1491.221
                      21    8 Sep 2021 21:56:50.443    8 Sep 2021 22:21:41.664          1491.221
                      22    8 Sep 2021 22:49:22.028    8 Sep 2021 23:14:13.249          1491.221
                      23    8 Sep 2021 23:41:53.620    9 Sep 2021 00:06:44.841          1491.221
                      24    9 Sep 2021 00:34:25.205    9 Sep 2021 00:59:16.426          1491.221
                      25    9 Sep 2021 01:26:56.797    9 Sep 2021 01:51:48.018          1491.221
                      26    9 Sep 2021 02:19:28.382    9 Sep 2021 02:44:19.602          1491.221
                      27    9 Sep 2021 03:11:59.974    9 Sep 2021 03:36:51.195          1491.221

Min Duration          14    8 Sep 2021 15:49:09.321    8 Sep 2021 16:14:00.542          1491.221
Max Duration           1    8 Sep 2021 04:26:18.675    8 Sep 2021 04:51:09.896          1491.221
Mean Duration                                                                           1491.221
Total Duration                                                                         40262.965


Satellite508-To-Satellite202
----------------------------
                  Access       Start Time (UTCG)           Stop Time (UTCG)       Duration (sec)
                  ------    -----------------------    -----------------------    --------------
                       1    8 Sep 2021 04:21:06.489    8 Sep 2021 04:45:51.763          1485.274
                       2    8 Sep 2021 05:13:38.077    8 Sep 2021 05:38:23.348          1485.271
                       3    8 Sep 2021 06:06:09.666    8 Sep 2021 06:30:54.940          1485.274
                       4    8 Sep 2021 06:58:41.256    8 Sep 2021 07:23:26.525          1485.268
                       5    8 Sep 2021 07:51:12.843    8 Sep 2021 08:15:58.117          1485.274
                       6    8 Sep 2021 08:43:44.433    8 Sep 2021 09:08:29.701          1485.268
                       7    8 Sep 2021 09:36:16.020    8 Sep 2021 10:01:01.294          1485.274
                       8    8 Sep 2021 10:28:47.610    8 Sep 2021 10:53:32.878          1485.268
                       9    8 Sep 2021 11:21:19.196    8 Sep 2021 11:46:04.470          1485.274
                      10    8 Sep 2021 12:13:50.787    8 Sep 2021 12:38:36.055          1485.268
                      11    8 Sep 2021 13:06:22.373    8 Sep 2021 13:31:07.647          1485.274
                      12    8 Sep 2021 13:58:53.964    8 Sep 2021 14:23:39.232          1485.268
                      13    8 Sep 2021 14:51:25.550    8 Sep 2021 15:16:10.824          1485.274
                      14    8 Sep 2021 15:43:57.140    8 Sep 2021 16:08:42.409          1485.268
                      15    8 Sep 2021 16:36:28.727    8 Sep 2021 17:01:14.001          1485.274
                      16    8 Sep 2021 17:29:00.317    8 Sep 2021 17:53:45.585          1485.268
                      17    8 Sep 2021 18:21:31.904    8 Sep 2021 18:46:17.177          1485.274
                      18    8 Sep 2021 19:14:03.494    8 Sep 2021 19:38:48.762          1485.268
                      19    8 Sep 2021 20:06:35.080    8 Sep 2021 20:31:20.354          1485.274
                      20    8 Sep 2021 20:59:06.671    8 Sep 2021 21:23:51.939          1485.268
                      21    8 Sep 2021 21:51:38.257    8 Sep 2021 22:16:23.531          1485.274
                      22    8 Sep 2021 22:44:09.847    8 Sep 2021 23:08:55.116          1485.268
                      23    8 Sep 2021 23:36:41.434    9 Sep 2021 00:01:26.708          1485.274
                      24    9 Sep 2021 00:29:13.024    9 Sep 2021 00:53:58.293          1485.268
                      25    9 Sep 2021 01:21:44.611    9 Sep 2021 01:46:29.885          1485.274
                      26    9 Sep 2021 02:14:16.201    9 Sep 2021 02:39:01.469          1485.268
                      27    9 Sep 2021 03:06:47.787    9 Sep 2021 03:31:33.061          1485.274
                      28    9 Sep 2021 03:59:19.373    9 Sep 2021 04:00:00.000            40.627

Min Duration          28    9 Sep 2021 03:59:19.373    9 Sep 2021 04:00:00.000            40.627
Max Duration           1    8 Sep 2021 04:21:06.489    8 Sep 2021 04:45:51.763          1485.274
Mean Duration                                                                           1433.677
Total Duration                                                                         40142.952


Satellite508-To-Satellite203
----------------------------
                  Access       Start Time (UTCG)           Stop Time (UTCG)       Duration (sec)
                  ------    -----------------------    -----------------------    --------------
                       1    8 Sep 2021 04:18:41.481    8 Sep 2021 04:37:46.450          1144.969
                       2    8 Sep 2021 05:11:13.070    8 Sep 2021 05:30:18.039          1144.969
                       3    8 Sep 2021 06:03:44.658    8 Sep 2021 06:22:49.627          1144.969
                       4    8 Sep 2021 06:56:16.247    8 Sep 2021 07:15:21.215          1144.968
                       5    8 Sep 2021 07:48:47.835    8 Sep 2021 08:07:52.804          1144.968
                       6    8 Sep 2021 08:41:19.424    8 Sep 2021 09:00:24.392          1144.968
                       7    8 Sep 2021 09:33:51.012    8 Sep 2021 09:52:55.981          1144.968
                       8    8 Sep 2021 10:26:22.601    8 Sep 2021 10:45:27.569          1144.968
                       9    8 Sep 2021 11:18:54.189    8 Sep 2021 11:37:59.157          1144.968
                      10    8 Sep 2021 12:11:25.778    8 Sep 2021 12:30:30.746          1144.968
                      11    8 Sep 2021 13:03:57.366    8 Sep 2021 13:23:02.334          1144.968
                      12    8 Sep 2021 13:56:28.954    8 Sep 2021 14:15:33.923          1144.968
                      13    8 Sep 2021 14:49:00.543    8 Sep 2021 15:08:05.511          1144.968
                      14    8 Sep 2021 15:41:32.131    8 Sep 2021 16:00:37.099          1144.968
                      15    8 Sep 2021 16:34:03.720    8 Sep 2021 16:53:08.688          1144.968
                      16    8 Sep 2021 17:26:35.308    8 Sep 2021 17:45:40.276          1144.968
                      17    8 Sep 2021 18:19:06.896    8 Sep 2021 18:38:11.865          1144.968
                      18    8 Sep 2021 19:11:38.485    8 Sep 2021 19:30:43.453          1144.968
                      19    8 Sep 2021 20:04:10.073    8 Sep 2021 20:23:15.041          1144.968
                      20    8 Sep 2021 20:56:41.662    8 Sep 2021 21:15:46.630          1144.968
                      21    8 Sep 2021 21:49:13.250    8 Sep 2021 22:08:18.218          1144.968
                      22    8 Sep 2021 22:41:44.838    8 Sep 2021 23:00:49.807          1144.968
                      23    8 Sep 2021 23:34:16.427    8 Sep 2021 23:53:21.395          1144.968
                      24    9 Sep 2021 00:26:48.015    9 Sep 2021 00:45:52.983          1144.968
                      25    9 Sep 2021 01:19:19.603    9 Sep 2021 01:38:24.572          1144.968
                      26    9 Sep 2021 02:11:51.192    9 Sep 2021 02:30:56.160          1144.968
                      27    9 Sep 2021 03:04:22.780    9 Sep 2021 03:23:27.749          1144.968
                      28    9 Sep 2021 03:56:54.370    9 Sep 2021 04:00:00.000           185.630

Min Duration          28    9 Sep 2021 03:56:54.370    9 Sep 2021 04:00:00.000           185.630
Max Duration           1    8 Sep 2021 04:18:41.481    8 Sep 2021 04:37:46.450          1144.969
Mean Duration                                                                           1110.706
Total Duration                                                                         31099.775


Satellite508-To-Satellite204
----------------------------
                  Access       Start Time (UTCG)           Stop Time (UTCG)       Duration (sec)
                  ------    -----------------------    -----------------------    --------------
                       1    8 Sep 2021 04:20:01.550    8 Sep 2021 04:25:56.061           354.511
                       2    8 Sep 2021 05:12:33.143    8 Sep 2021 05:18:27.653           354.509
                       3    8 Sep 2021 06:05:04.732    8 Sep 2021 06:10:59.242           354.510
                       4    8 Sep 2021 06:57:36.316    8 Sep 2021 07:03:30.830           354.514
                       5    8 Sep 2021 07:50:07.905    8 Sep 2021 07:56:02.416           354.511
                       6    8 Sep 2021 08:42:39.496    8 Sep 2021 08:48:34.007           354.510
                       7    8 Sep 2021 09:35:11.081    8 Sep 2021 09:41:05.595           354.515
                       8    8 Sep 2021 10:27:42.669    8 Sep 2021 10:33:37.179           354.510
                       9    8 Sep 2021 11:20:14.261    8 Sep 2021 11:26:08.771           354.510
                      10    8 Sep 2021 12:12:45.850    8 Sep 2021 12:18:40.360           354.510
                      11    8 Sep 2021 13:05:17.434    8 Sep 2021 13:11:11.949           354.514
                      12    8 Sep 2021 13:57:49.023    8 Sep 2021 14:03:43.534           354.511
                      13    8 Sep 2021 14:50:20.615    8 Sep 2021 14:56:15.125           354.511
                      14    8 Sep 2021 15:42:52.199    8 Sep 2021 15:48:46.714           354.515
                      15    8 Sep 2021 16:35:23.788    8 Sep 2021 16:41:18.298           354.510
                      16    8 Sep 2021 17:27:55.379    8 Sep 2021 17:33:49.890           354.511
                      17    8 Sep 2021 18:20:26.969    8 Sep 2021 18:26:21.479           354.511
                      18    8 Sep 2021 19:12:58.553    8 Sep 2021 19:18:53.067           354.514
                      19    8 Sep 2021 20:05:30.142    8 Sep 2021 20:11:24.653           354.511
                      20    8 Sep 2021 20:58:01.733    8 Sep 2021 21:03:56.244           354.511
                      21    8 Sep 2021 21:50:33.318    8 Sep 2021 21:56:27.833           354.515
                      22    8 Sep 2021 22:43:04.907    8 Sep 2021 22:48:59.416           354.510
                      23    8 Sep 2021 23:35:36.498    8 Sep 2021 23:41:31.008           354.511
                      24    9 Sep 2021 00:28:08.087    9 Sep 2021 00:34:02.598           354.511
                      25    9 Sep 2021 01:20:39.673    9 Sep 2021 01:26:34.186           354.513
                      26    9 Sep 2021 02:13:11.260    9 Sep 2021 02:19:05.772           354.511
                      27    9 Sep 2021 03:05:42.852    9 Sep 2021 03:11:37.363           354.511
                      28    9 Sep 2021 03:58:14.440    9 Sep 2021 04:00:00.000           105.560

Min Duration          28    9 Sep 2021 03:58:14.440    9 Sep 2021 04:00:00.000           105.560
Max Duration          14    8 Sep 2021 15:42:52.199    8 Sep 2021 15:48:46.714           354.515
Mean Duration                                                                            345.620
Total Duration                                                                          9677.370


Satellite508-To-Satellite209
----------------------------
                  Access       Start Time (UTCG)           Stop Time (UTCG)       Duration (sec)
                  ------    -----------------------    -----------------------    --------------
                       1    8 Sep 2021 04:00:00.000    8 Sep 2021 04:00:13.781            13.781
                       2    8 Sep 2021 04:45:43.834    8 Sep 2021 04:52:45.370           421.536
                       3    8 Sep 2021 05:38:15.425    8 Sep 2021 05:45:16.958           421.534
                       4    8 Sep 2021 06:30:47.010    8 Sep 2021 06:37:48.547           421.537
                       5    8 Sep 2021 07:23:18.601    8 Sep 2021 07:30:20.135           421.534
                       6    8 Sep 2021 08:15:50.187    8 Sep 2021 08:22:51.724           421.537
                       7    8 Sep 2021 09:08:21.780    8 Sep 2021 09:15:23.312           421.532
                       8    8 Sep 2021 10:00:53.363    8 Sep 2021 10:07:54.898           421.535
                       9    8 Sep 2021 10:53:24.956    8 Sep 2021 11:00:26.488           421.533
                      10    8 Sep 2021 11:45:56.540    8 Sep 2021 11:52:58.077           421.537
                      11    8 Sep 2021 12:38:28.132    8 Sep 2021 12:45:29.665           421.533
                      12    8 Sep 2021 13:30:59.717    8 Sep 2021 13:38:01.254           421.537
                      13    8 Sep 2021 14:23:31.308    8 Sep 2021 14:30:32.842           421.534
                      14    8 Sep 2021 15:16:02.894    8 Sep 2021 15:23:04.431           421.537
                      15    8 Sep 2021 16:08:34.484    8 Sep 2021 16:15:36.019           421.535
                      16    8 Sep 2021 17:01:06.071    8 Sep 2021 17:08:07.608           421.536
                      17    8 Sep 2021 17:53:37.660    8 Sep 2021 18:00:39.196           421.536
                      18    8 Sep 2021 18:46:09.251    8 Sep 2021 18:53:10.784           421.534
                      19    8 Sep 2021 19:38:40.836    8 Sep 2021 19:45:42.373           421.537
                      20    8 Sep 2021 20:31:12.427    8 Sep 2021 20:38:13.961           421.534
                      21    8 Sep 2021 21:23:44.013    8 Sep 2021 21:30:45.550           421.537
                      22    8 Sep 2021 22:16:15.606    8 Sep 2021 22:23:17.138           421.532
                      23    8 Sep 2021 23:08:47.189    8 Sep 2021 23:15:48.724           421.535
                      24    9 Sep 2021 00:01:18.782    9 Sep 2021 00:08:20.314           421.533
                      25    9 Sep 2021 00:53:50.366    9 Sep 2021 01:00:51.903           421.537
                      26    9 Sep 2021 01:46:21.958    9 Sep 2021 01:53:23.491           421.533
                      27    9 Sep 2021 02:38:53.543    9 Sep 2021 02:45:55.080           421.537
                      28    9 Sep 2021 03:31:25.134    9 Sep 2021 03:38:26.668           421.534

Min Duration           1    8 Sep 2021 04:00:00.000    8 Sep 2021 04:00:13.781            13.781
Max Duration          21    8 Sep 2021 21:23:44.013    8 Sep 2021 21:30:45.550           421.537
Mean Duration                                                                            406.972
Total Duration                                                                         11395.225


Satellite508-To-Satellite210
----------------------------
                  Access       Start Time (UTCG)           Stop Time (UTCG)       Duration (sec)
                  ------    -----------------------    -----------------------    --------------
                       1    8 Sep 2021 04:00:00.000    8 Sep 2021 04:01:09.870            69.870
                       2    8 Sep 2021 04:34:17.428    8 Sep 2021 04:53:41.456          1164.028
                       3    8 Sep 2021 05:26:49.020    8 Sep 2021 05:46:13.044          1164.025
                       4    8 Sep 2021 06:19:20.604    8 Sep 2021 06:38:44.631          1164.027
                       5    8 Sep 2021 07:11:52.195    8 Sep 2021 07:31:16.220          1164.025
                       6    8 Sep 2021 08:04:23.783    8 Sep 2021 08:23:47.810          1164.027
                       7    8 Sep 2021 08:56:55.373    8 Sep 2021 09:16:19.398          1164.024
                       8    8 Sep 2021 09:49:26.960    8 Sep 2021 10:08:50.986          1164.026
                       9    8 Sep 2021 10:41:58.549    8 Sep 2021 11:01:22.574          1164.025
                      10    8 Sep 2021 11:34:30.138    8 Sep 2021 11:53:54.163          1164.025
                      11    8 Sep 2021 12:27:01.727    8 Sep 2021 12:46:25.752          1164.025
                      12    8 Sep 2021 13:19:33.314    8 Sep 2021 13:38:57.343          1164.029
                      13    8 Sep 2021 14:12:04.903    8 Sep 2021 14:31:28.929          1164.026
                      14    8 Sep 2021 15:04:36.492    8 Sep 2021 15:24:00.517          1164.024
                      15    8 Sep 2021 15:57:08.078    8 Sep 2021 16:16:32.104          1164.026
                      16    8 Sep 2021 16:49:39.667    8 Sep 2021 17:09:03.692          1164.025
                      17    8 Sep 2021 17:42:11.256    8 Sep 2021 18:01:35.283          1164.027
                      18    8 Sep 2021 18:34:42.846    8 Sep 2021 18:54:06.870          1164.024
                      19    8 Sep 2021 19:27:14.433    8 Sep 2021 19:46:38.458          1164.026
                      20    8 Sep 2021 20:19:46.021    8 Sep 2021 20:39:10.046          1164.025
                      21    8 Sep 2021 21:12:17.609    8 Sep 2021 21:31:41.635          1164.026
                      22    8 Sep 2021 22:04:49.199    8 Sep 2021 22:24:13.222          1164.023
                      23    8 Sep 2021 22:57:20.787    8 Sep 2021 23:16:44.811          1164.024
                      24    8 Sep 2021 23:49:52.375    9 Sep 2021 00:09:16.401          1164.026
                      25    9 Sep 2021 00:42:23.965    9 Sep 2021 01:01:47.989          1164.024
                      26    9 Sep 2021 01:34:55.550    9 Sep 2021 01:54:19.576          1164.026
                      27    9 Sep 2021 02:27:27.140    9 Sep 2021 02:46:51.165          1164.025
                      28    9 Sep 2021 03:19:58.728    9 Sep 2021 03:39:22.755          1164.027

Min Duration           1    8 Sep 2021 04:00:00.000    8 Sep 2021 04:01:09.870            69.870
Max Duration          12    8 Sep 2021 13:19:33.314    8 Sep 2021 13:38:57.343          1164.029
Mean Duration                                                                           1124.949
Total Duration                                                                         31498.559


Satellite508-To-Satellite301
----------------------------
                  Access       Start Time (UTCG)           Stop Time (UTCG)       Duration (sec)
                  ------    -----------------------    -----------------------    --------------
                       1    8 Sep 2021 04:00:00.000    8 Sep 2021 04:00:29.146            29.146
                       2    8 Sep 2021 04:23:09.044    8 Sep 2021 04:53:00.730          1791.686
                       3    8 Sep 2021 05:15:40.634    8 Sep 2021 05:45:32.322          1791.687
                       4    8 Sep 2021 06:08:12.223    8 Sep 2021 06:38:03.910          1791.687
                       5    8 Sep 2021 07:00:43.811    8 Sep 2021 07:30:35.498          1791.687
                       6    8 Sep 2021 07:53:15.399    8 Sep 2021 08:23:07.086          1791.687
                       7    8 Sep 2021 08:45:46.987    8 Sep 2021 09:15:38.674          1791.687
                       8    8 Sep 2021 09:38:18.575    8 Sep 2021 10:08:10.262          1791.687
                       9    8 Sep 2021 10:30:50.163    8 Sep 2021 11:00:41.851          1791.687
                      10    8 Sep 2021 11:23:21.752    8 Sep 2021 11:53:13.439          1791.687
                      11    8 Sep 2021 12:15:53.340    8 Sep 2021 12:45:45.027          1791.687
                      12    8 Sep 2021 13:08:24.928    8 Sep 2021 13:38:16.614          1791.686
                      13    8 Sep 2021 14:00:56.520    8 Sep 2021 14:30:48.202          1791.682
                      14    8 Sep 2021 14:53:28.108    8 Sep 2021 15:23:19.791          1791.682
                      15    8 Sep 2021 15:45:59.697    8 Sep 2021 16:15:51.384          1791.687
                      16    8 Sep 2021 16:38:31.285    8 Sep 2021 17:08:22.972          1791.687
                      17    8 Sep 2021 17:31:02.873    8 Sep 2021 18:00:54.560          1791.687
                      18    8 Sep 2021 18:23:34.461    8 Sep 2021 18:53:26.148          1791.687
                      19    8 Sep 2021 19:16:06.049    8 Sep 2021 19:45:57.736          1791.687
                      20    8 Sep 2021 20:08:37.637    8 Sep 2021 20:38:29.324          1791.687
                      21    8 Sep 2021 21:01:09.226    8 Sep 2021 21:31:00.913          1791.687
                      22    8 Sep 2021 21:53:40.814    8 Sep 2021 22:23:32.501          1791.687
                      23    8 Sep 2021 22:46:12.402    8 Sep 2021 23:16:04.089          1791.687
                      24    8 Sep 2021 23:38:43.990    9 Sep 2021 00:08:35.677          1791.687
                      25    9 Sep 2021 00:31:15.578    9 Sep 2021 01:01:07.265          1791.687
                      26    9 Sep 2021 01:23:47.166    9 Sep 2021 01:53:38.853          1791.687
                      27    9 Sep 2021 02:16:18.754    9 Sep 2021 02:46:10.442          1791.687
                      28    9 Sep 2021 03:08:50.343    9 Sep 2021 03:38:42.030          1791.687

Min Duration           1    8 Sep 2021 04:00:00.000    8 Sep 2021 04:00:29.146            29.146
Max Duration          11    8 Sep 2021 12:15:53.340    8 Sep 2021 12:45:45.027          1791.687
Mean Duration                                                                           1728.739
Total Duration                                                                         48404.686


Satellite508-To-Satellite302
----------------------------
                  Access       Start Time (UTCG)           Stop Time (UTCG)       Duration (sec)
                  ------    -----------------------    -----------------------    --------------
                       1    8 Sep 2021 04:28:56.893    8 Sep 2021 04:36:42.563           465.670
                       2    8 Sep 2021 05:21:28.481    8 Sep 2021 05:29:14.155           465.673
                       3    8 Sep 2021 06:14:00.070    8 Sep 2021 06:21:45.745           465.675
                       4    8 Sep 2021 07:06:31.659    8 Sep 2021 07:14:17.333           465.674
                       5    8 Sep 2021 07:59:03.251    8 Sep 2021 08:06:48.921           465.670
                       6    8 Sep 2021 08:51:34.837    8 Sep 2021 08:59:20.509           465.672
                       7    8 Sep 2021 09:44:06.424    8 Sep 2021 09:51:52.098           465.674
                       8    8 Sep 2021 10:36:38.012    8 Sep 2021 10:44:23.687           465.675
                       9    8 Sep 2021 11:29:09.600    8 Sep 2021 11:36:55.270           465.670
                      10    8 Sep 2021 12:21:41.188    8 Sep 2021 12:29:26.861           465.673
                      11    8 Sep 2021 13:14:12.777    8 Sep 2021 13:21:58.452           465.675
                      12    8 Sep 2021 14:06:44.368    8 Sep 2021 14:14:30.040           465.672
                      13    8 Sep 2021 14:59:15.958    8 Sep 2021 15:07:01.628           465.670
                      14    8 Sep 2021 15:51:47.544    8 Sep 2021 15:59:33.216           465.672
                      15    8 Sep 2021 16:44:19.131    8 Sep 2021 16:52:04.805           465.674
                      16    8 Sep 2021 17:36:50.719    8 Sep 2021 17:44:36.394           465.675
                      17    8 Sep 2021 18:29:22.311    8 Sep 2021 18:37:07.977           465.667
                      18    8 Sep 2021 19:21:53.896    8 Sep 2021 19:29:39.568           465.673
                      19    8 Sep 2021 20:14:25.484    8 Sep 2021 20:22:11.159           465.675
                      20    8 Sep 2021 21:06:57.075    8 Sep 2021 21:14:42.747           465.672
                      21    8 Sep 2021 21:59:28.665    8 Sep 2021 22:07:14.335           465.670
                      22    8 Sep 2021 22:52:00.251    8 Sep 2021 22:59:45.923           465.672
                      23    8 Sep 2021 23:44:31.838    8 Sep 2021 23:52:17.512           465.674
                      24    9 Sep 2021 00:37:03.426    9 Sep 2021 00:44:49.101           465.675
                      25    9 Sep 2021 01:29:35.015    9 Sep 2021 01:37:20.686           465.671
                      26    9 Sep 2021 02:22:06.603    9 Sep 2021 02:29:52.275           465.672
                      27    9 Sep 2021 03:14:38.191    9 Sep 2021 03:22:23.866           465.675

Min Duration          17    8 Sep 2021 18:29:22.311    8 Sep 2021 18:37:07.977           465.667
Max Duration          24    9 Sep 2021 00:37:03.426    9 Sep 2021 00:44:49.101           465.675
Mean Duration                                                                            465.673
Total Duration                                                                         12573.160


Satellite508-To-Satellite308
----------------------------
                  Access       Start Time (UTCG)           Stop Time (UTCG)       Duration (sec)
                  ------    -----------------------    -----------------------    --------------
                       1    8 Sep 2021 04:00:00.000    8 Sep 2021 04:05:15.983           315.983
                       2    8 Sep 2021 04:49:53.160    8 Sep 2021 04:57:47.571           474.411
                       3    8 Sep 2021 05:42:24.750    8 Sep 2021 05:50:19.158           474.407
                       4    8 Sep 2021 06:34:56.337    8 Sep 2021 06:42:50.746           474.409
                       5    8 Sep 2021 07:27:27.925    8 Sep 2021 07:35:22.336           474.411
                       6    8 Sep 2021 08:19:59.514    8 Sep 2021 08:27:53.925           474.411
                       7    8 Sep 2021 09:12:31.103    8 Sep 2021 09:20:25.512           474.408
                       8    8 Sep 2021 10:05:02.695    8 Sep 2021 10:12:57.101           474.406
                       9    8 Sep 2021 10:57:34.284    8 Sep 2021 11:05:28.690           474.406
                      10    8 Sep 2021 11:50:05.867    8 Sep 2021 11:58:00.276           474.408
                      11    8 Sep 2021 12:42:37.460    8 Sep 2021 12:50:31.862           474.402
                      12    8 Sep 2021 13:35:09.045    8 Sep 2021 13:43:03.455           474.410
                      13    8 Sep 2021 14:27:40.632    8 Sep 2021 14:35:35.043           474.411
                      14    8 Sep 2021 15:20:12.221    8 Sep 2021 15:28:06.632           474.411
                      15    8 Sep 2021 16:12:43.811    8 Sep 2021 16:20:38.219           474.408
                      16    8 Sep 2021 17:05:15.400    8 Sep 2021 17:13:09.808           474.408
                      17    8 Sep 2021 17:57:46.987    8 Sep 2021 18:05:41.397           474.410
                      18    8 Sep 2021 18:50:18.574    8 Sep 2021 18:58:12.984           474.410
                      19    8 Sep 2021 19:42:50.167    8 Sep 2021 19:50:44.569           474.402
                      20    8 Sep 2021 20:35:21.754    8 Sep 2021 20:43:16.162           474.409
                      21    8 Sep 2021 21:27:53.340    8 Sep 2021 21:35:47.751           474.411
                      22    8 Sep 2021 22:20:24.928    8 Sep 2021 22:28:19.339           474.410
                      23    8 Sep 2021 23:12:56.519    8 Sep 2021 23:20:50.926           474.408
                      24    9 Sep 2021 00:05:28.108    9 Sep 2021 00:13:22.516           474.407
                      25    9 Sep 2021 00:57:59.694    9 Sep 2021 01:05:54.104           474.410
                      26    9 Sep 2021 01:50:31.282    9 Sep 2021 01:58:25.692           474.411
                      27    9 Sep 2021 02:43:02.871    9 Sep 2021 02:50:57.277           474.406
                      28    9 Sep 2021 03:35:34.458    9 Sep 2021 03:43:28.869           474.411

Min Duration           1    8 Sep 2021 04:00:00.000    8 Sep 2021 04:05:15.983           315.983
Max Duration          28    9 Sep 2021 03:35:34.458    9 Sep 2021 03:43:28.869           474.411
Mean Duration                                                                            468.751
Total Duration                                                                         13125.016


Satellite508-To-Satellite309
----------------------------
                  Access       Start Time (UTCG)           Stop Time (UTCG)       Duration (sec)
                  ------    -----------------------    -----------------------    --------------
                       1    8 Sep 2021 04:00:00.000    8 Sep 2021 04:10:56.758           656.758
                       2    8 Sep 2021 04:33:42.069    8 Sep 2021 05:03:28.348          1786.279
                       3    8 Sep 2021 05:26:13.654    8 Sep 2021 05:55:59.935          1786.281
                       4    8 Sep 2021 06:18:45.246    8 Sep 2021 06:48:31.525          1786.279
                       5    8 Sep 2021 07:11:16.831    8 Sep 2021 07:41:03.112          1786.281
                       6    8 Sep 2021 08:03:48.423    8 Sep 2021 08:33:34.701          1786.279
                       7    8 Sep 2021 08:56:20.008    8 Sep 2021 09:26:06.289          1786.281
                       8    8 Sep 2021 09:48:51.600    8 Sep 2021 10:18:37.878          1786.279
                       9    8 Sep 2021 10:41:23.185    8 Sep 2021 11:11:09.466          1786.281
                      10    8 Sep 2021 11:33:54.776    8 Sep 2021 12:03:41.055          1786.279
                      11    8 Sep 2021 12:26:26.362    8 Sep 2021 12:56:12.643          1786.281
                      12    8 Sep 2021 13:18:57.953    8 Sep 2021 13:48:44.232          1786.279
                      13    8 Sep 2021 14:11:29.538    8 Sep 2021 14:41:15.819          1786.281
                      14    8 Sep 2021 15:04:01.130    8 Sep 2021 15:33:47.408          1786.279
                      15    8 Sep 2021 15:56:32.715    8 Sep 2021 16:26:18.996          1786.281
                      16    8 Sep 2021 16:49:04.307    8 Sep 2021 17:18:50.585          1786.278
                      17    8 Sep 2021 17:41:35.892    8 Sep 2021 18:11:22.173          1786.281
                      18    8 Sep 2021 18:34:07.484    8 Sep 2021 19:03:53.762          1786.278
                      19    8 Sep 2021 19:26:39.069    8 Sep 2021 19:56:25.350          1786.281
                      20    8 Sep 2021 20:19:10.660    8 Sep 2021 20:48:56.939          1786.278
                      21    8 Sep 2021 21:11:42.246    8 Sep 2021 21:41:28.527          1786.281
                      22    8 Sep 2021 22:04:13.837    8 Sep 2021 22:34:00.116          1786.278
                      23    8 Sep 2021 22:56:45.422    8 Sep 2021 23:26:31.703          1786.281
                      24    8 Sep 2021 23:49:17.014    9 Sep 2021 00:19:03.292          1786.278
                      25    9 Sep 2021 00:41:48.599    9 Sep 2021 01:11:34.880          1786.281
                      26    9 Sep 2021 01:34:20.191    9 Sep 2021 02:04:06.469          1786.278
                      27    9 Sep 2021 02:26:51.776    9 Sep 2021 02:56:38.057          1786.281
                      28    9 Sep 2021 03:19:23.368    9 Sep 2021 03:49:09.646          1786.278

Min Duration           1    8 Sep 2021 04:00:00.000    8 Sep 2021 04:10:56.758           656.758
Max Duration          27    9 Sep 2021 02:26:51.776    9 Sep 2021 02:56:38.057          1786.281
Mean Duration                                                                           1745.940
Total Duration                                                                         48886.310


Satellite508-To-Satellite310
----------------------------
                  Access       Start Time (UTCG)           Stop Time (UTCG)       Duration (sec)
                  ------    -----------------------    -----------------------    --------------
                       1    8 Sep 2021 04:00:00.000    8 Sep 2021 04:09:39.110           579.110
                       2    8 Sep 2021 04:24:29.397    8 Sep 2021 05:02:10.699          2261.302
                       3    8 Sep 2021 05:17:00.986    8 Sep 2021 05:54:42.288          2261.301
                       4    8 Sep 2021 06:09:32.575    8 Sep 2021 06:47:13.876          2261.301
                       5    8 Sep 2021 07:02:04.163    8 Sep 2021 07:39:45.464          2261.301
                       6    8 Sep 2021 07:54:35.752    8 Sep 2021 08:32:17.053          2261.301
                       7    8 Sep 2021 08:47:07.340    8 Sep 2021 09:24:48.641          2261.301
                       8    8 Sep 2021 09:39:38.928    8 Sep 2021 10:17:20.230          2261.301
                       9    8 Sep 2021 10:32:10.517    8 Sep 2021 11:09:51.818          2261.301
                      10    8 Sep 2021 11:24:42.105    8 Sep 2021 12:02:23.406          2261.301
                      11    8 Sep 2021 12:17:13.694    8 Sep 2021 12:54:54.995          2261.301
                      12    8 Sep 2021 13:09:45.282    8 Sep 2021 13:47:26.583          2261.301
                      13    8 Sep 2021 14:02:16.870    8 Sep 2021 14:39:58.172          2261.301
                      14    8 Sep 2021 14:54:48.459    8 Sep 2021 15:32:29.760          2261.301
                      15    8 Sep 2021 15:47:20.047    8 Sep 2021 16:25:01.348          2261.301
                      16    8 Sep 2021 16:39:51.636    8 Sep 2021 17:17:32.937          2261.301
                      17    8 Sep 2021 17:32:23.224    8 Sep 2021 18:10:04.525          2261.301
                      18    8 Sep 2021 18:24:54.812    8 Sep 2021 19:02:36.114          2261.301
                      19    8 Sep 2021 19:17:26.401    8 Sep 2021 19:55:07.702          2261.301
                      20    8 Sep 2021 20:09:57.989    8 Sep 2021 20:47:39.290          2261.301
                      21    8 Sep 2021 21:02:29.578    8 Sep 2021 21:40:10.879          2261.301
                      22    8 Sep 2021 21:55:01.166    8 Sep 2021 22:32:42.467          2261.301
                      23    8 Sep 2021 22:47:32.754    8 Sep 2021 23:25:14.056          2261.301
                      24    8 Sep 2021 23:40:04.343    9 Sep 2021 00:17:45.644          2261.301
                      25    9 Sep 2021 00:32:35.931    9 Sep 2021 01:10:17.232          2261.301
                      26    9 Sep 2021 01:25:07.520    9 Sep 2021 02:02:48.821          2261.301
                      27    9 Sep 2021 02:17:39.108    9 Sep 2021 02:55:20.409          2261.301
                      28    9 Sep 2021 03:10:10.696    9 Sep 2021 03:47:51.998          2261.301

Min Duration           1    8 Sep 2021 04:00:00.000    8 Sep 2021 04:09:39.110           579.110
Max Duration           2    8 Sep 2021 04:24:29.397    8 Sep 2021 05:02:10.699          2261.302
Mean Duration                                                                           2201.223
Total Duration                                                                         61634.244


Satellite508-To-Satellite408
----------------------------
                  Access       Start Time (UTCG)           Stop Time (UTCG)       Duration (sec)
                  ------    -----------------------    -----------------------    --------------
                       1    8 Sep 2021 04:00:00.000    9 Sep 2021 04:00:00.000         86400.000

Min Duration           1    8 Sep 2021 04:00:00.000    9 Sep 2021 04:00:00.000         86400.000
Max Duration           1    8 Sep 2021 04:00:00.000    9 Sep 2021 04:00:00.000         86400.000
Mean Duration                                                                          86400.000
Total Duration                                                                         86400.000


Satellite508-To-Satellite409
----------------------------
                  Access       Start Time (UTCG)           Stop Time (UTCG)       Duration (sec)
                  ------    -----------------------    -----------------------    --------------
                       1    8 Sep 2021 04:00:00.000    9 Sep 2021 04:00:00.000         86400.000

Min Duration           1    8 Sep 2021 04:00:00.000    9 Sep 2021 04:00:00.000         86400.000
Max Duration           1    8 Sep 2021 04:00:00.000    9 Sep 2021 04:00:00.000         86400.000
Mean Duration                                                                          86400.000
Total Duration                                                                         86400.000


Satellite508-To-Satellite410
----------------------------
                  Access       Start Time (UTCG)           Stop Time (UTCG)       Duration (sec)
                  ------    -----------------------    -----------------------    --------------
                       1    8 Sep 2021 04:00:00.000    9 Sep 2021 04:00:00.000         86400.000

Min Duration           1    8 Sep 2021 04:00:00.000    9 Sep 2021 04:00:00.000         86400.000
Max Duration           1    8 Sep 2021 04:00:00.000    9 Sep 2021 04:00:00.000         86400.000
Mean Duration                                                                          86400.000
Total Duration                                                                         86400.000


Satellite508-To-Satellite507
----------------------------
                  Access       Start Time (UTCG)           Stop Time (UTCG)       Duration (sec)
                  ------    -----------------------    -----------------------    --------------
                       1    8 Sep 2021 04:00:00.000    9 Sep 2021 04:00:00.000         86400.000

Min Duration           1    8 Sep 2021 04:00:00.000    9 Sep 2021 04:00:00.000         86400.000
Max Duration           1    8 Sep 2021 04:00:00.000    9 Sep 2021 04:00:00.000         86400.000
Mean Duration                                                                          86400.000
Total Duration                                                                         86400.000


Satellite508-To-Satellite509
----------------------------
                  Access       Start Time (UTCG)           Stop Time (UTCG)       Duration (sec)
                  ------    -----------------------    -----------------------    --------------
