routing/visibility/v509.txt

Satellite509-To-Satellite102
----------------------------
                  Access       Start Time (UTCG)           Stop Time (UTCG)       Duration (sec)
                  ------    -----------------------    -----------------------    --------------
                       1    8 Sep 2021 04:23:22.723    8 Sep 2021 04:34:23.999           661.276
                       2    8 Sep 2021 05:15:54.311    8 Sep 2021 05:26:55.592           661.281
                       3    8 Sep 2021 06:08:25.898    8 Sep 2021 06:19:27.180           661.282
                       4    8 Sep 2021 07:00:57.485    8 Sep 2021 07:11:58.768           661.283
                       5    8 Sep 2021 07:53:29.072    8 Sep 2021 08:04:30.356           661.284
                       6    8 Sep 2021 08:46:00.661    8 Sep 2021 08:57:01.944           661.283
                       7    8 Sep 2021 09:38:32.254    8 Sep 2021 09:49:33.532           661.278
                       8    8 Sep 2021 10:31:03.842    8 Sep 2021 10:42:05.120           661.278
                       9    8 Sep 2021 11:23:35.430    8 Sep 2021 11:34:36.706           661.276
                      10    8 Sep 2021 12:16:07.018    8 Sep 2021 12:27:08.295           661.277
                      11    8 Sep 2021 13:08:38.605    8 Sep 2021 13:19:39.888           661.282
                      12    8 Sep 2021 14:01:10.192    8 Sep 2021 14:12:11.476           661.283
                      13    8 Sep 2021 14:53:41.780    8 Sep 2021 15:04:43.063           661.284
                      14    8 Sep 2021 15:46:13.368    8 Sep 2021 15:57:14.651           661.283
                      15    8 Sep 2021 16:38:44.960    8 Sep 2021 16:49:46.239           661.279
                      16    8 Sep 2021 17:31:16.549    8 Sep 2021 17:42:17.827           661.278
                      17    8 Sep 2021 18:23:48.137    8 Sep 2021 18:34:49.413           661.276
                      18    8 Sep 2021 19:16:19.725    8 Sep 2021 19:27:21.003           661.278
                      19    8 Sep 2021 20:08:51.313    8 Sep 2021 20:19:52.595           661.282
                      20    8 Sep 2021 21:01:22.900    8 Sep 2021 21:12:24.183           661.283
                      21    8 Sep 2021 21:53:54.487    8 Sep 2021 22:04:55.771           661.284
                      22    8 Sep 2021 22:46:26.075    8 Sep 2021 22:57:27.358           661.283
                      23    8 Sep 2021 23:38:57.665    8 Sep 2021 23:49:58.946           661.281
                      24    9 Sep 2021 00:31:29.256    9 Sep 2021 00:42:30.534           661.278
                      25    9 Sep 2021 01:24:00.844    9 Sep 2021 01:35:02.122           661.278
                      26    9 Sep 2021 02:16:32.433    9 Sep 2021 02:27:33.709           661.276
                      27    9 Sep 2021 03:09:04.020    9 Sep 2021 03:20:05.300           661.280

Min Duration          17    8 Sep 2021 18:23:48.137    8 Sep 2021 18:34:49.413           661.276
Max Duration          13    8 Sep 2021 14:53:41.780    8 Sep 2021 15:04:43.063           661.284
Mean Duration                                                                            661.280
Total Duration                                                                         17854.568


Satellite509-To-Satellite103
----------------------------
                  Access       Start Time (UTCG)           Stop Time (UTCG)       Duration (sec)
                  ------    -----------------------    -----------------------    --------------
                       1    8 Sep 2021 04:14:16.456    8 Sep 2021 04:32:59.948          1123.493
                       2    8 Sep 2021 05:06:48.045    8 Sep 2021 05:25:31.536          1123.491
                       3    8 Sep 2021 05:59:19.633    8 Sep 2021 06:18:03.128          1123.495
                       4    8 Sep 2021 06:51:51.219    8 Sep 2021 07:10:34.716          1123.497
                       5    8 Sep 2021 07:44:22.811    8 Sep 2021 08:03:06.302          1123.491
                       6    8 Sep 2021 08:36:54.399    8 Sep 2021 08:55:37.889          1123.490
                       7    8 Sep 2021 09:29:25.986    8 Sep 2021 09:48:09.479          1123.493
                       8    8 Sep 2021 10:21:57.573    8 Sep 2021 10:40:41.071          1123.498
                       9    8 Sep 2021 11:14:29.160    8 Sep 2021 11:33:12.657          1123.497
                      10    8 Sep 2021 12:07:00.753    8 Sep 2021 12:25:44.244          1123.491
                      11    8 Sep 2021 12:59:32.341    8 Sep 2021 13:18:15.831          1123.490
                      12    8 Sep 2021 13:52:03.928    8 Sep 2021 14:10:47.421          1123.494
                      13    8 Sep 2021 14:44:35.514    8 Sep 2021 15:03:19.013          1123.499
                      14    8 Sep 2021 15:37:07.102    8 Sep 2021 15:55:50.599          1123.497
                      15    8 Sep 2021 16:29:38.695    8 Sep 2021 16:48:22.186          1123.491
                      16    8 Sep 2021 17:22:10.283    8 Sep 2021 17:40:53.773          1123.490
                      17    8 Sep 2021 18:14:41.870    8 Sep 2021 18:33:25.363          1123.494
                      18    8 Sep 2021 19:07:13.456    8 Sep 2021 19:25:56.955          1123.499
                      19    8 Sep 2021 19:59:45.044    8 Sep 2021 20:18:28.541          1123.497
                      20    8 Sep 2021 20:52:16.637    8 Sep 2021 21:11:00.128          1123.491
                      21    8 Sep 2021 21:44:48.225    8 Sep 2021 22:03:31.715          1123.490
                      22    8 Sep 2021 22:37:19.812    8 Sep 2021 22:56:03.305          1123.494
                      23    8 Sep 2021 23:29:51.398    8 Sep 2021 23:48:34.897          1123.499
                      24    9 Sep 2021 00:22:22.986    9 Sep 2021 00:41:06.483          1123.497
                      25    9 Sep 2021 01:14:54.579    9 Sep 2021 01:33:38.070          1123.491
                      26    9 Sep 2021 02:07:26.167    9 Sep 2021 02:26:09.657          1123.490
                      27    9 Sep 2021 02:59:57.754    9 Sep 2021 03:18:41.247          1123.494
                      28    9 Sep 2021 03:52:29.339    9 Sep 2021 04:00:00.000           450.661

Min Duration          28    9 Sep 2021 03:52:29.339    9 Sep 2021 04:00:00.000           450.661
Max Duration          23    8 Sep 2021 23:29:51.398    8 Sep 2021 23:48:34.897          1123.499
Mean Duration                                                                           1099.464
Total Duration                                                                         30784.991


Satellite509-To-Satellite104
----------------------------
                  Access       Start Time (UTCG)           Stop Time (UTCG)       Duration (sec)
                  ------    -----------------------    -----------------------    --------------
                       1    8 Sep 2021 04:07:04.241    8 Sep 2021 04:29:41.851          1357.610
                       2    8 Sep 2021 04:59:35.829    8 Sep 2021 05:22:13.439          1357.610
                       3    8 Sep 2021 05:52:07.417    8 Sep 2021 06:14:45.027          1357.610
                       4    8 Sep 2021 06:44:39.005    8 Sep 2021 07:07:16.615          1357.610
                       5    8 Sep 2021 07:37:10.594    8 Sep 2021 07:59:48.204          1357.610
                       6    8 Sep 2021 08:29:42.182    8 Sep 2021 08:52:19.792          1357.610
                       7    8 Sep 2021 09:22:13.771    8 Sep 2021 09:44:51.381          1357.610
                       8    8 Sep 2021 10:14:45.359    8 Sep 2021 10:37:22.969          1357.610
                       9    8 Sep 2021 11:07:16.947    8 Sep 2021 11:29:54.557          1357.610
                      10    8 Sep 2021 11:59:48.536    8 Sep 2021 12:22:26.146          1357.610
                      11    8 Sep 2021 12:52:20.124    8 Sep 2021 13:14:57.734          1357.610
                      12    8 Sep 2021 13:44:51.712    8 Sep 2021 14:07:29.323          1357.610
                      13    8 Sep 2021 14:37:23.301    8 Sep 2021 15:00:00.911          1357.610
                      14    8 Sep 2021 15:29:54.889    8 Sep 2021 15:52:32.499          1357.610
                      15    8 Sep 2021 16:22:26.478    8 Sep 2021 16:45:04.088          1357.610
                      16    8 Sep 2021 17:14:58.066    8 Sep 2021 17:37:35.676          1357.610
                      17    8 Sep 2021 18:07:29.654    8 Sep 2021 18:30:07.265          1357.610
                      18    8 Sep 2021 19:00:01.243    8 Sep 2021 19:22:38.853          1357.610
                      19    8 Sep 2021 19:52:32.831    8 Sep 2021 20:15:10.441          1357.610
                      20    8 Sep 2021 20:45:04.420    8 Sep 2021 21:07:42.030          1357.610
                      21    8 Sep 2021 21:37:36.008    8 Sep 2021 22:00:13.618          1357.610
                      22    8 Sep 2021 22:30:07.596    8 Sep 2021 22:52:45.207          1357.610
                      23    8 Sep 2021 23:22:39.185    8 Sep 2021 23:45:16.795          1357.610
                      24    9 Sep 2021 00:15:10.773    9 Sep 2021 00:37:48.383          1357.610
                      25    9 Sep 2021 01:07:42.362    9 Sep 2021 01:30:19.972          1357.610
                      26    9 Sep 2021 02:00:13.950    9 Sep 2021 02:22:51.560          1357.610
                      27    9 Sep 2021 02:52:45.538    9 Sep 2021 03:15:23.149          1357.610
                      28    9 Sep 2021 03:45:17.127    9 Sep 2021 04:00:00.000           882.873

Min Duration          28    9 Sep 2021 03:45:17.127    9 Sep 2021 04:00:00.000           882.873
Max Duration          27    9 Sep 2021 02:52:45.538    9 Sep 2021 03:15:23.149          1357.610
Mean Duration                                                                           1340.655
Total Duration                                                                         37538.346


Satellite509-To-Satellite105
----------------------------
                  Access       Start Time (UTCG)           Stop Time (UTCG)       Duration (sec)
                  ------    -----------------------    -----------------------    --------------
                       1    8 Sep 2021 04:01:49.077    8 Sep 2021 04:24:26.696          1357.619
                       2    8 Sep 2021 04:54:20.665    8 Sep 2021 05:16:58.285          1357.620
                       3    8 Sep 2021 05:46:52.253    8 Sep 2021 06:09:29.873          1357.620
                       4    8 Sep 2021 06:39:23.842    8 Sep 2021 07:02:01.461          1357.620
                       5    8 Sep 2021 07:31:55.430    8 Sep 2021 07:54:33.050          1357.620
                       6    8 Sep 2021 08:24:27.019    8 Sep 2021 08:47:04.638          1357.620
                       7    8 Sep 2021 09:16:58.607    8 Sep 2021 09:39:36.227          1357.620
                       8    8 Sep 2021 10:09:30.195    8 Sep 2021 10:32:07.815          1357.620
                       9    8 Sep 2021 11:02:01.784    8 Sep 2021 11:24:39.403          1357.620
                      10    8 Sep 2021 11:54:33.372    8 Sep 2021 12:17:10.992          1357.620
                      11    8 Sep 2021 12:47:04.961    8 Sep 2021 13:09:42.580          1357.620
                      12    8 Sep 2021 13:39:36.549    8 Sep 2021 14:02:14.169          1357.620
                      13    8 Sep 2021 14:32:08.137    8 Sep 2021 14:54:45.757          1357.620
                      14    8 Sep 2021 15:24:39.726    8 Sep 2021 15:47:17.345          1357.620
                      15    8 Sep 2021 16:17:11.314    8 Sep 2021 16:39:48.934          1357.620
                      16    8 Sep 2021 17:09:42.902    8 Sep 2021 17:32:20.522          1357.620
                      17    8 Sep 2021 18:02:14.491    8 Sep 2021 18:24:52.111          1357.620
                      18    8 Sep 2021 18:54:46.079    8 Sep 2021 19:17:23.699          1357.620
                      19    8 Sep 2021 19:47:17.668    8 Sep 2021 20:09:55.287          1357.620
                      20    8 Sep 2021 20:39:49.256    8 Sep 2021 21:02:26.876          1357.620
                      21    8 Sep 2021 21:32:20.844    8 Sep 2021 21:54:58.464          1357.620
                      22    8 Sep 2021 22:24:52.433    8 Sep 2021 22:47:30.052          1357.620
                      23    8 Sep 2021 23:17:24.021    8 Sep 2021 23:40:01.641          1357.620
                      24    9 Sep 2021 00:09:55.610    9 Sep 2021 00:32:33.229          1357.620
                      25    9 Sep 2021 01:02:27.198    9 Sep 2021 01:25:04.818          1357.620
                      26    9 Sep 2021 01:54:58.786    9 Sep 2021 02:17:36.406          1357.620
                      27    9 Sep 2021 02:47:30.375    9 Sep 2021 03:10:07.994          1357.620
                      28    9 Sep 2021 03:40:01.963    9 Sep 2021 04:00:00.000          1198.037

Min Duration          28    9 Sep 2021 03:40:01.963    9 Sep 2021 04:00:00.000          1198.037
Max Duration          11    8 Sep 2021 12:47:04.961    8 Sep 2021 13:09:42.580          1357.620
Mean Duration                                                                           1351.920
Total Duration                                                                         37853.766


Satellite509-To-Satellite106
----------------------------
                  Access       Start Time (UTCG)           Stop Time (UTCG)       Duration (sec)
                  ------    -----------------------    -----------------------    --------------
                       1    8 Sep 2021 04:00:00.000    8 Sep 2021 04:17:14.487          1034.487
                       2    8 Sep 2021 04:51:02.556    8 Sep 2021 05:09:46.074          1123.518
                       3    8 Sep 2021 05:43:34.144    8 Sep 2021 06:02:17.661          1123.517
                       4    8 Sep 2021 06:36:05.731    8 Sep 2021 06:54:49.251          1123.520
                       5    8 Sep 2021 07:28:37.317    8 Sep 2021 07:47:20.843          1123.526
                       6    8 Sep 2021 08:21:08.905    8 Sep 2021 08:39:52.429          1123.524
                       7    8 Sep 2021 09:13:40.498    8 Sep 2021 09:32:24.016          1123.518
                       8    8 Sep 2021 10:06:12.086    8 Sep 2021 10:24:55.603          1123.517
                       9    8 Sep 2021 10:58:43.673    8 Sep 2021 11:17:27.193          1123.521
                      10    8 Sep 2021 11:51:15.259    8 Sep 2021 12:09:58.785          1123.526
                      11    8 Sep 2021 12:43:46.847    8 Sep 2021 13:02:30.371          1123.524
                      12    8 Sep 2021 13:36:18.440    8 Sep 2021 13:55:01.958          1123.518
                      13    8 Sep 2021 14:28:50.028    8 Sep 2021 14:47:33.545          1123.517
                      14    8 Sep 2021 15:21:21.614    8 Sep 2021 15:40:05.135          1123.521
                      15    8 Sep 2021 16:13:53.200    8 Sep 2021 16:32:36.726          1123.526
                      16    8 Sep 2021 17:06:24.789    8 Sep 2021 17:25:08.313          1123.524
                      17    8 Sep 2021 17:58:56.382    8 Sep 2021 18:17:39.900          1123.518
                      18    8 Sep 2021 18:51:27.970    8 Sep 2021 19:10:11.487          1123.517
                      19    8 Sep 2021 19:43:59.556    8 Sep 2021 20:02:43.077          1123.521
                      20    8 Sep 2021 20:36:31.142    8 Sep 2021 20:55:14.668          1123.526
                      21    8 Sep 2021 21:29:02.731    8 Sep 2021 21:47:46.254          1123.524
                      22    8 Sep 2021 22:21:34.324    8 Sep 2021 22:40:17.842          1123.518
                      23    8 Sep 2021 23:14:05.912    8 Sep 2021 23:32:49.429          1123.517
                      24    9 Sep 2021 00:06:37.498    9 Sep 2021 00:25:21.019          1123.521
                      25    9 Sep 2021 00:59:09.084    9 Sep 2021 01:17:52.610          1123.526
                      26    9 Sep 2021 01:51:40.673    9 Sep 2021 02:10:24.196          1123.524
                      27    9 Sep 2021 02:44:12.266    9 Sep 2021 03:02:55.784          1123.518
                      28    9 Sep 2021 03:36:43.854    9 Sep 2021 03:55:27.371          1123.517

Min Duration           1    8 Sep 2021 04:00:00.000    8 Sep 2021 04:17:14.487          1034.487
Max Duration          25    9 Sep 2021 00:59:09.084    9 Sep 2021 01:17:52.610          1123.526
Mean Duration                                                                           1120.341
Total Duration                                                                         31369.547


Satellite509-To-Satellite107
----------------------------
                  Access       Start Time (UTCG)           Stop Time (UTCG)       Duration (sec)
                  ------    -----------------------    -----------------------    --------------
                       1    8 Sep 2021 04:00:00.000    8 Sep 2021 04:08:08.230           488.230
                       2    8 Sep 2021 04:49:38.493    8 Sep 2021 05:00:39.820           661.327
                       3    8 Sep 2021 05:42:10.081    8 Sep 2021 05:53:11.408           661.327
                       4    8 Sep 2021 06:34:41.669    8 Sep 2021 06:45:42.994           661.325
                       5    8 Sep 2021 07:27:13.257    8 Sep 2021 07:38:14.586           661.329
                       6    8 Sep 2021 08:19:44.844    8 Sep 2021 08:30:46.176           661.332
                       7    8 Sep 2021 09:12:16.431    8 Sep 2021 09:23:17.764           661.332
                       8    8 Sep 2021 10:04:48.019    8 Sep 2021 10:15:49.351           661.332
                       9    8 Sep 2021 10:57:19.612    8 Sep 2021 11:08:20.939           661.327
                      10    8 Sep 2021 11:49:51.200    8 Sep 2021 12:00:52.527           661.327
                      11    8 Sep 2021 12:42:22.788    8 Sep 2021 12:53:24.115           661.327
                      12    8 Sep 2021 13:34:54.377    8 Sep 2021 13:45:55.702           661.325
                      13    8 Sep 2021 14:27:25.964    8 Sep 2021 14:38:27.291           661.327
                      14    8 Sep 2021 15:19:57.552    8 Sep 2021 15:30:58.883           661.331
                      15    8 Sep 2021 16:12:29.139    8 Sep 2021 16:23:30.471           661.332
                      16    8 Sep 2021 17:05:00.726    8 Sep 2021 17:16:02.059           661.332
                      17    8 Sep 2021 17:57:32.317    8 Sep 2021 18:08:33.646           661.329
                      18    8 Sep 2021 18:50:03.908    8 Sep 2021 19:01:05.234           661.327
                      19    8 Sep 2021 19:42:35.496    8 Sep 2021 19:53:36.822           661.327
                      20    8 Sep 2021 20:35:07.084    8 Sep 2021 20:46:08.409           661.325
                      21    8 Sep 2021 21:27:38.671    8 Sep 2021 21:38:39.998           661.326
                      22    8 Sep 2021 22:20:10.259    8 Sep 2021 22:31:11.590           661.331
                      23    8 Sep 2021 23:12:41.846    8 Sep 2021 23:23:43.178           661.332
                      24    9 Sep 2021 00:05:13.433    9 Sep 2021 00:16:14.766           661.332
                      25    9 Sep 2021 00:57:45.022    9 Sep 2021 01:08:46.354           661.332
                      26    9 Sep 2021 01:50:16.615    9 Sep 2021 02:01:17.942           661.327
                      27    9 Sep 2021 02:42:48.203    9 Sep 2021 02:53:49.530           661.327
                      28    9 Sep 2021 03:35:19.791    9 Sep 2021 03:46:21.116           661.325

Min Duration           1    8 Sep 2021 04:00:00.000    8 Sep 2021 04:08:08.230           488.230
Max Duration          24    9 Sep 2021 00:05:13.433    9 Sep 2021 00:16:14.766           661.332
Mean Duration                                                                            655.147
Total Duration                                                                         18344.102


Satellite509-To-Satellite201
----------------------------
                  Access       Start Time (UTCG)           Stop Time (UTCG)       Duration (sec)
                  ------    -----------------------    -----------------------    --------------
                       1    8 Sep 2021 04:23:47.113    8 Sep 2021 04:43:11.141          1164.027
                       2    8 Sep 2021 05:16:18.699    8 Sep 2021 05:35:42.727          1164.028
                       3    8 Sep 2021 06:08:50.291    8 Sep 2021 06:28:14.315          1164.025
                       4    8 Sep 2021 07:01:21.875    8 Sep 2021 07:20:45.902          1164.027
                       5    8 Sep 2021 07:53:53.466    8 Sep 2021 08:13:17.491          1164.025
                       6    8 Sep 2021 08:46:25.054    8 Sep 2021 09:05:49.081          1164.027
                       7    8 Sep 2021 09:38:56.644    8 Sep 2021 09:58:20.668          1164.024
                       8    8 Sep 2021 10:31:28.231    8 Sep 2021 10:50:52.256          1164.026
                       9    8 Sep 2021 11:23:59.819    8 Sep 2021 11:43:23.845          1164.025
                      10    8 Sep 2021 12:16:31.408    8 Sep 2021 12:35:55.434          1164.025
                      11    8 Sep 2021 13:09:02.998    8 Sep 2021 13:28:27.023          1164.025
                      12    8 Sep 2021 14:01:34.585    8 Sep 2021 14:20:58.614          1164.029
                      13    8 Sep 2021 14:54:06.173    8 Sep 2021 15:13:30.199          1164.026
                      14    8 Sep 2021 15:46:37.763    8 Sep 2021 16:06:01.787          1164.024
                      15    8 Sep 2021 16:39:09.349    8 Sep 2021 16:58:33.375          1164.026
                      16    8 Sep 2021 17:31:40.938    8 Sep 2021 17:51:04.963          1164.025
                      17    8 Sep 2021 18:24:12.527    8 Sep 2021 18:43:36.553          1164.027
                      18    8 Sep 2021 19:16:44.117    8 Sep 2021 19:36:08.141          1164.024
                      19    8 Sep 2021 20:09:15.703    8 Sep 2021 20:28:39.729          1164.026
                      20    8 Sep 2021 21:01:47.292    8 Sep 2021 21:21:11.317          1164.025
                      21    8 Sep 2021 21:54:18.880    8 Sep 2021 22:13:42.906          1164.026
                      22    8 Sep 2021 22:46:50.470    8 Sep 2021 23:06:14.493          1164.023
                      23    8 Sep 2021 23:39:22.057    8 Sep 2021 23:58:46.081          1164.024
                      24    9 Sep 2021 00:31:53.646    9 Sep 2021 00:51:17.672          1164.026
                      25    9 Sep 2021 01:24:25.235    9 Sep 2021 01:43:49.260          1164.024
                      26    9 Sep 2021 02:16:56.821    9 Sep 2021 02:36:20.847          1164.026
                      27    9 Sep 2021 03:09:28.411    9 Sep 2021 03:28:52.435          1164.025

Min Duration          22    8 Sep 2021 22:46:50.470    8 Sep 2021 23:06:14.493          1164.023
Max Duration          12    8 Sep 2021 14:01:34.585    8 Sep 2021 14:20:58.614          1164.029
Mean Duration                                                                           1164.026
Total Duration                                                                         31428.690


Satellite509-To-Satellite202
----------------------------
                  Access       Start Time (UTCG)           Stop Time (UTCG)       Duration (sec)
                  ------    -----------------------    -----------------------    --------------
                       1    8 Sep 2021 04:15:48.355    8 Sep 2021 04:40:39.576          1491.221
                       2    8 Sep 2021 05:08:19.947    8 Sep 2021 05:33:11.163          1491.216
                       3    8 Sep 2021 06:00:51.534    8 Sep 2021 06:25:42.755          1491.222
                       4    8 Sep 2021 06:53:23.119    8 Sep 2021 07:18:14.340          1491.221
                       5    8 Sep 2021 07:45:54.711    8 Sep 2021 08:10:45.932          1491.221
                       6    8 Sep 2021 08:38:26.296    8 Sep 2021 09:03:17.517          1491.221
                       7    8 Sep 2021 09:30:57.888    8 Sep 2021 09:55:49.109          1491.221
                       8    8 Sep 2021 10:23:29.473    8 Sep 2021 10:48:20.694          1491.221
                       9    8 Sep 2021 11:16:01.065    8 Sep 2021 11:40:52.286          1491.221
                      10    8 Sep 2021 12:08:32.650    8 Sep 2021 12:33:23.870          1491.221
                      11    8 Sep 2021 13:01:04.242    8 Sep 2021 13:25:55.463          1491.221
                      12    8 Sep 2021 13:53:35.826    8 Sep 2021 14:18:27.047          1491.221
                      13    8 Sep 2021 14:46:07.419    8 Sep 2021 15:10:58.640          1491.221
                      14    8 Sep 2021 15:38:39.003    8 Sep 2021 16:03:30.224          1491.221
                      15    8 Sep 2021 16:31:10.595    8 Sep 2021 16:56:01.816          1491.221
                      16    8 Sep 2021 17:23:42.180    8 Sep 2021 17:48:33.401          1491.221
                      17    8 Sep 2021 18:16:13.772    8 Sep 2021 18:41:04.993          1491.221
                      18    8 Sep 2021 19:08:45.357    8 Sep 2021 19:33:36.578          1491.221
                      19    8 Sep 2021 20:01:16.949    8 Sep 2021 20:26:08.170          1491.221
                      20    8 Sep 2021 20:53:48.534    8 Sep 2021 21:18:39.754          1491.221
                      21    8 Sep 2021 21:46:20.126    8 Sep 2021 22:11:11.347          1491.221
                      22    8 Sep 2021 22:38:51.710    8 Sep 2021 23:03:42.931          1491.221
                      23    8 Sep 2021 23:31:23.302    8 Sep 2021 23:56:14.523          1491.221
                      24    9 Sep 2021 00:23:54.887    9 Sep 2021 00:48:46.108          1491.221
                      25    9 Sep 2021 01:16:26.479    9 Sep 2021 01:41:17.700          1491.221
                      26    9 Sep 2021 02:08:58.064    9 Sep 2021 02:33:49.285          1491.221
                      27    9 Sep 2021 03:01:29.656    9 Sep 2021 03:26:20.877          1491.221
                      28    9 Sep 2021 03:54:01.241    9 Sep 2021 04:00:00.000           358.759

Min Duration          28    9 Sep 2021 03:54:01.241    9 Sep 2021 04:00:00.000           358.759
Max Duration           3    8 Sep 2021 06:00:51.534    8 Sep 2021 06:25:42.755          1491.222
Mean Duration                                                                           1450.776
Total Duration                                                                         40621.719


Satellite509-To-Satellite203
----------------------------
                  Access       Start Time (UTCG)           Stop Time (UTCG)       Duration (sec)
                  ------    -----------------------    -----------------------    --------------
                       1    8 Sep 2021 04:10:36.169    8 Sep 2021 04:35:21.442          1485.274
                       2    8 Sep 2021 05:03:07.761    8 Sep 2021 05:27:53.034          1485.273
                       3    8 Sep 2021 05:55:39.350    8 Sep 2021 06:20:24.619          1485.269
                       4    8 Sep 2021 06:48:10.937    8 Sep 2021 07:12:56.211          1485.274
                       5    8 Sep 2021 07:40:42.526    8 Sep 2021 08:05:27.795          1485.270
                       6    8 Sep 2021 08:33:14.114    8 Sep 2021 08:57:59.387          1485.274
                       7    8 Sep 2021 09:25:45.704    8 Sep 2021 09:50:30.972          1485.269
                       8    8 Sep 2021 10:18:17.290    8 Sep 2021 10:43:02.564          1485.274
                       9    8 Sep 2021 11:10:48.881    8 Sep 2021 11:35:34.149          1485.268
                      10    8 Sep 2021 12:03:20.467    8 Sep 2021 12:28:05.741          1485.274
                      11    8 Sep 2021 12:55:52.057    8 Sep 2021 13:20:37.326          1485.268
                      12    8 Sep 2021 13:48:23.644    8 Sep 2021 14:13:08.918          1485.274
                      13    8 Sep 2021 14:40:55.234    8 Sep 2021 15:05:40.503          1485.268
                      14    8 Sep 2021 15:33:26.821    8 Sep 2021 15:58:12.095          1485.274
                      15    8 Sep 2021 16:25:58.411    8 Sep 2021 16:50:43.679          1485.268
                      16    8 Sep 2021 17:18:29.997    8 Sep 2021 17:43:15.271          1485.274
                      17    8 Sep 2021 18:11:01.588    8 Sep 2021 18:35:46.856          1485.268
                      18    8 Sep 2021 19:03:33.174    8 Sep 2021 19:28:18.448          1485.274
                      19    8 Sep 2021 19:56:04.765    8 Sep 2021 20:20:50.033          1485.268
                      20    8 Sep 2021 20:48:36.351    8 Sep 2021 21:13:21.625          1485.274
                      21    8 Sep 2021 21:41:07.941    8 Sep 2021 22:05:53.210          1485.268
                      22    8 Sep 2021 22:33:39.528    8 Sep 2021 22:58:24.802          1485.274
                      23    8 Sep 2021 23:26:11.118    8 Sep 2021 23:50:56.387          1485.268
                      24    9 Sep 2021 00:18:42.705    9 Sep 2021 00:43:27.979          1485.274
                      25    9 Sep 2021 01:11:14.295    9 Sep 2021 01:35:59.563          1485.268
                      26    9 Sep 2021 02:03:45.881    9 Sep 2021 02:28:31.155          1485.274
                      27    9 Sep 2021 02:56:17.472    9 Sep 2021 03:21:02.740          1485.268
                      28    9 Sep 2021 03:48:49.058    9 Sep 2021 04:00:00.000           670.942

Min Duration          28    9 Sep 2021 03:48:49.058    9 Sep 2021 04:00:00.000           670.942
Max Duration          26    9 Sep 2021 02:03:45.881    9 Sep 2021 02:28:31.155          1485.274
Mean Duration                                                                           1456.188
Total Duration                                                                         40773.266


Satellite509-To-Satellite204
----------------------------
                  Access       Start Time (UTCG)           Stop Time (UTCG)       Duration (sec)
                  ------    -----------------------    -----------------------    --------------
                       1    8 Sep 2021 04:08:11.167    8 Sep 2021 04:27:16.132          1144.965
                       2    8 Sep 2021 05:00:42.755    8 Sep 2021 05:19:47.721          1144.966
                       3    8 Sep 2021 05:53:14.343    8 Sep 2021 06:12:19.308          1144.964
                       4    8 Sep 2021 06:45:45.932    8 Sep 2021 07:04:50.898          1144.966
                       5    8 Sep 2021 07:38:17.516    8 Sep 2021 07:57:22.486          1144.971
                       6    8 Sep 2021 08:30:49.105    8 Sep 2021 08:49:54.075          1144.970
                       7    8 Sep 2021 09:23:20.694    8 Sep 2021 09:42:25.663          1144.969
                       8    8 Sep 2021 10:15:52.282    8 Sep 2021 10:34:57.251          1144.969
                       9    8 Sep 2021 11:08:23.871    8 Sep 2021 11:27:28.840          1144.969
                      10    8 Sep 2021 12:00:55.460    8 Sep 2021 12:20:00.428          1144.969
                      11    8 Sep 2021 12:53:27.048    8 Sep 2021 13:12:32.017          1144.968
                      12    8 Sep 2021 13:45:58.637    8 Sep 2021 14:05:03.605          1144.968
                      13    8 Sep 2021 14:38:30.225    8 Sep 2021 14:57:35.193          1144.968
                      14    8 Sep 2021 15:31:01.813    8 Sep 2021 15:50:06.782          1144.968
                      15    8 Sep 2021 16:23:33.402    8 Sep 2021 16:42:38.370          1144.968
                      16    8 Sep 2021 17:16:04.990    8 Sep 2021 17:35:09.959          1144.968
                      17    8 Sep 2021 18:08:36.579    8 Sep 2021 18:27:41.547          1144.968
                      18    8 Sep 2021 19:01:08.167    8 Sep 2021 19:20:13.135          1144.968
                      19    8 Sep 2021 19:53:39.755    8 Sep 2021 20:12:44.724          1144.968
                      20    8 Sep 2021 20:46:11.344    8 Sep 2021 21:05:16.312          1144.968
                      21    8 Sep 2021 21:38:42.932    8 Sep 2021 21:57:47.900          1144.968
                      22    8 Sep 2021 22:31:14.521    8 Sep 2021 22:50:19.489          1144.968
                      23    8 Sep 2021 23:23:46.109    8 Sep 2021 23:42:51.077          1144.968
                      24    9 Sep 2021 00:16:17.697    9 Sep 2021 00:35:22.666          1144.968
                      25    9 Sep 2021 01:08:49.286    9 Sep 2021 01:27:54.254          1144.968
                      26    9 Sep 2021 02:01:20.874    9 Sep 2021 02:20:25.842          1144.968
                      27    9 Sep 2021 02:53:52.463    9 Sep 2021 03:12:57.431          1144.968
                      28    9 Sep 2021 03:46:24.051    9 Sep 2021 04:00:00.000           815.949

Min Duration          28    9 Sep 2021 03:46:24.051    9 Sep 2021 04:00:00.000           815.949
Max Duration           5    8 Sep 2021 07:38:17.516    8 Sep 2021 07:57:22.486          1144.971
Mean Duration                                                                           1133.217
Total Duration                                                                         31730.088


Satellite509-To-Satellite205
----------------------------
                  Access       Start Time (UTCG)           Stop Time (UTCG)       Duration (sec)
                  ------    -----------------------    -----------------------    --------------
                       1    8 Sep 2021 04:09:31.233    8 Sep 2021 04:15:25.743           354.511
                       2    8 Sep 2021 05:02:02.826    8 Sep 2021 05:07:57.335           354.509
                       3    8 Sep 2021 05:54:34.414    8 Sep 2021 06:00:28.924           354.510
                       4    8 Sep 2021 06:47:05.998    8 Sep 2021 06:53:00.512           354.514
                       5    8 Sep 2021 07:39:37.587    8 Sep 2021 07:45:32.098           354.511
                       6    8 Sep 2021 08:32:09.179    8 Sep 2021 08:38:03.689           354.510
                       7    8 Sep 2021 09:24:40.763    8 Sep 2021 09:30:35.278           354.515
                       8    8 Sep 2021 10:17:12.351    8 Sep 2021 10:23:06.861           354.510
                       9    8 Sep 2021 11:09:43.943    8 Sep 2021 11:15:38.453           354.510
                      10    8 Sep 2021 12:02:15.532    8 Sep 2021 12:08:10.043           354.510
                      11    8 Sep 2021 12:54:47.116    8 Sep 2021 13:00:41.631           354.514
                      12    8 Sep 2021 13:47:18.705    8 Sep 2021 13:53:13.217           354.511
                      13    8 Sep 2021 14:39:50.297    8 Sep 2021 14:45:44.808           354.511
                      14    8 Sep 2021 15:32:21.882    8 Sep 2021 15:38:16.396           354.515
                      15    8 Sep 2021 16:24:53.470    8 Sep 2021 16:30:47.980           354.510
                      16    8 Sep 2021 17:17:25.061    8 Sep 2021 17:23:19.572           354.511
                      17    8 Sep 2021 18:09:56.651    8 Sep 2021 18:15:51.161           354.511
                      18    8 Sep 2021 19:02:28.235    8 Sep 2021 19:08:22.750           354.514
                      19    8 Sep 2021 19:54:59.824    8 Sep 2021 20:00:54.335           354.511
                      20    8 Sep 2021 20:47:31.415    8 Sep 2021 20:53:25.926           354.511
                      21    8 Sep 2021 21:40:03.000    8 Sep 2021 21:45:57.515           354.515
                      22    8 Sep 2021 22:32:34.589    8 Sep 2021 22:38:29.099           354.510
                      23    8 Sep 2021 23:25:06.180    8 Sep 2021 23:31:00.691           354.511
                      24    9 Sep 2021 00:17:37.770    9 Sep 2021 00:23:32.280           354.511
                      25    9 Sep 2021 01:10:09.355    9 Sep 2021 01:16:03.868           354.514
                      26    9 Sep 2021 02:02:40.943    9 Sep 2021 02:08:35.454           354.511
                      27    9 Sep 2021 02:55:12.534    9 Sep 2021 03:01:07.045           354.511
                      28    9 Sep 2021 03:47:44.119    9 Sep 2021 03:53:38.634           354.515

Min Duration           2    8 Sep 2021 05:02:02.826    8 Sep 2021 05:07:57.335           354.509
Max Duration          14    8 Sep 2021 15:32:21.882    8 Sep 2021 15:38:16.396           354.515
Mean Duration                                                                            354.512
Total Duration                                                                          9926.324


Satellite509-To-Satellite210
----------------------------
                  Access       Start Time (UTCG)           Stop Time (UTCG)       Duration (sec)
                  ------    -----------------------    -----------------------    --------------
                       1    8 Sep 2021 04:35:13.516    8 Sep 2021 04:42:15.052           421.536
                       2    8 Sep 2021 05:27:45.105    8 Sep 2021 05:34:46.641           421.536
                       3    8 Sep 2021 06:20:16.695    8 Sep 2021 06:27:18.229           421.534
                       4    8 Sep 2021 07:12:48.281    8 Sep 2021 07:19:49.818           421.537
                       5    8 Sep 2021 08:05:19.872    8 Sep 2021 08:12:21.406           421.534
                       6    8 Sep 2021 08:57:51.457    8 Sep 2021 09:04:52.994           421.537
                       7    8 Sep 2021 09:50:23.051    8 Sep 2021 09:57:24.582           421.532
                       8    8 Sep 2021 10:42:54.634    8 Sep 2021 10:49:56.169           421.535
                       9    8 Sep 2021 11:35:26.227    8 Sep 2021 11:42:27.759           421.533
                      10    8 Sep 2021 12:27:57.811    8 Sep 2021 12:34:59.348           421.537
                      11    8 Sep 2021 13:20:29.402    8 Sep 2021 13:27:30.936           421.533
                      12    8 Sep 2021 14:13:00.988    8 Sep 2021 14:20:02.525           421.537
                      13    8 Sep 2021 15:05:32.578    8 Sep 2021 15:12:34.113           421.534
                      14    8 Sep 2021 15:58:04.165    8 Sep 2021 16:05:05.702           421.537
                      15    8 Sep 2021 16:50:35.754    8 Sep 2021 16:57:37.290           421.535
                      16    8 Sep 2021 17:43:07.342    8 Sep 2021 17:50:08.878           421.536
                      17    8 Sep 2021 18:35:38.930    8 Sep 2021 18:42:40.467           421.536
                      18    8 Sep 2021 19:28:10.521    8 Sep 2021 19:35:12.055           421.534
                      19    8 Sep 2021 20:20:42.107    8 Sep 2021 20:27:43.644           421.537
                      20    8 Sep 2021 21:13:13.698    8 Sep 2021 21:20:15.232           421.534
                      21    8 Sep 2021 22:05:45.283    8 Sep 2021 22:12:46.820           421.537
                      22    8 Sep 2021 22:58:16.877    8 Sep 2021 23:05:18.408           421.532
                      23    8 Sep 2021 23:50:48.460    8 Sep 2021 23:57:49.995           421.534
                      24    9 Sep 2021 00:43:20.052    9 Sep 2021 00:50:21.585           421.533
                      25    9 Sep 2021 01:35:51.637    9 Sep 2021 01:42:53.174           421.537
                      26    9 Sep 2021 02:28:23.228    9 Sep 2021 02:35:24.762           421.533
                      27    9 Sep 2021 03:20:54.814    9 Sep 2021 03:27:56.351           421.537

Min Duration           7    8 Sep 2021 09:50:23.051    8 Sep 2021 09:57:24.582           421.532
Max Duration          21    8 Sep 2021 22:05:45.283    8 Sep 2021 22:12:46.820           421.537
Mean Duration                                                                            421.535
Total Duration                                                                         11381.446


Satellite509-To-Satellite301
----------------------------
                  Access       Start Time (UTCG)           Stop Time (UTCG)       Duration (sec)
                  ------    -----------------------    -----------------------    --------------
                       1    8 Sep 2021 04:13:59.080    8 Sep 2021 04:51:40.382          2261.301
                       2    8 Sep 2021 05:06:30.669    8 Sep 2021 05:44:11.970          2261.301
                       3    8 Sep 2021 05:59:02.257    8 Sep 2021 06:36:43.558          2261.301
                       4    8 Sep 2021 06:51:33.846    8 Sep 2021 07:29:15.147          2261.301
                       5    8 Sep 2021 07:44:05.434    8 Sep 2021 08:21:46.735          2261.301
                       6    8 Sep 2021 08:36:37.022    8 Sep 2021 09:14:18.324          2261.301
                       7    8 Sep 2021 09:29:08.611    8 Sep 2021 10:06:49.912          2261.301
                       8    8 Sep 2021 10:21:40.199    8 Sep 2021 10:59:21.500          2261.301
                       9    8 Sep 2021 11:14:11.788    8 Sep 2021 11:51:53.089          2261.301
                      10    8 Sep 2021 12:06:43.376    8 Sep 2021 12:44:24.677          2261.301
                      11    8 Sep 2021 12:59:14.964    8 Sep 2021 13:36:56.266          2261.301
                      12    8 Sep 2021 13:51:46.553    8 Sep 2021 14:29:27.854          2261.301
                      13    8 Sep 2021 14:44:18.141    8 Sep 2021 15:21:59.442          2261.301
                      14    8 Sep 2021 15:36:49.729    8 Sep 2021 16:14:31.031          2261.301
                      15    8 Sep 2021 16:29:21.318    8 Sep 2021 17:07:02.619          2261.301
                      16    8 Sep 2021 17:21:52.906    8 Sep 2021 17:59:34.208          2261.301
                      17    8 Sep 2021 18:14:24.495    8 Sep 2021 18:52:05.796          2261.301
                      18    8 Sep 2021 19:06:56.083    8 Sep 2021 19:44:37.384          2261.301
                      19    8 Sep 2021 19:59:27.671    8 Sep 2021 20:37:08.973          2261.301
                      20    8 Sep 2021 20:51:59.260    8 Sep 2021 21:29:40.561          2261.301
                      21    8 Sep 2021 21:44:30.848    8 Sep 2021 22:22:12.150          2261.301
                      22    8 Sep 2021 22:37:02.437    8 Sep 2021 23:14:43.738          2261.301
                      23    8 Sep 2021 23:29:34.025    9 Sep 2021 00:07:15.326          2261.301
                      24    9 Sep 2021 00:22:05.613    9 Sep 2021 00:59:46.915          2261.301
                      25    9 Sep 2021 01:14:37.202    9 Sep 2021 01:52:18.503          2261.301
                      26    9 Sep 2021 02:07:08.790    9 Sep 2021 02:44:50.091          2261.301
                      27    9 Sep 2021 02:59:40.379    9 Sep 2021 03:37:21.680          2261.301
                      28    9 Sep 2021 03:52:11.967    9 Sep 2021 04:00:00.000           468.033

Min Duration          28    9 Sep 2021 03:52:11.967    9 Sep 2021 04:00:00.000           468.033
Max Duration           1    8 Sep 2021 04:13:59.080    8 Sep 2021 04:51:40.382          2261.301
Mean Duration                                                                           2197.256
Total Duration                                                                         61523.167


Satellite509-To-Satellite302
----------------------------
                  Access       Start Time (UTCG)           Stop Time (UTCG)       Duration (sec)
                  ------    -----------------------    -----------------------    --------------
                       1    8 Sep 2021 04:12:38.731    8 Sep 2021 04:42:30.415          1791.684
                       2    8 Sep 2021 05:05:10.319    8 Sep 2021 05:35:02.003          1791.684
                       3    8 Sep 2021 05:57:41.907    8 Sep 2021 06:27:33.591          1791.684
                       4    8 Sep 2021 06:50:13.495    8 Sep 2021 07:20:05.180          1791.684
                       5    8 Sep 2021 07:42:45.084    8 Sep 2021 08:12:36.768          1791.684
                       6    8 Sep 2021 08:35:16.672    8 Sep 2021 09:05:08.356          1791.684
                       7    8 Sep 2021 09:27:48.260    8 Sep 2021 09:57:39.943          1791.682
                       8    8 Sep 2021 10:20:19.849    8 Sep 2021 10:50:11.531          1791.682
                       9    8 Sep 2021 11:12:51.437    8 Sep 2021 11:42:43.119          1791.682
                      10    8 Sep 2021 12:05:23.025    8 Sep 2021 12:35:14.712          1791.687
                      11    8 Sep 2021 12:57:54.614    8 Sep 2021 13:27:46.301          1791.687
                      12    8 Sep 2021 13:50:26.202    8 Sep 2021 14:20:17.889          1791.687
                      13    8 Sep 2021 14:42:57.790    8 Sep 2021 15:12:49.477          1791.687
                      14    8 Sep 2021 15:35:29.378    8 Sep 2021 16:05:21.065          1791.687
                      15    8 Sep 2021 16:28:00.966    8 Sep 2021 16:57:52.653          1791.687
                      16    8 Sep 2021 17:20:32.554    8 Sep 2021 17:50:24.241          1791.687
                      17    8 Sep 2021 18:13:04.142    8 Sep 2021 18:42:55.829          1791.687
                      18    8 Sep 2021 19:05:35.731    8 Sep 2021 19:35:27.418          1791.687
                      19    8 Sep 2021 19:58:07.319    8 Sep 2021 20:27:59.006          1791.687
                      20    8 Sep 2021 20:50:38.907    8 Sep 2021 21:20:30.594          1791.687
                      21    8 Sep 2021 21:43:10.495    8 Sep 2021 22:13:02.182          1791.687
                      22    8 Sep 2021 22:35:42.083    8 Sep 2021 23:05:33.770          1791.687
                      23    8 Sep 2021 23:28:13.671    8 Sep 2021 23:58:05.359          1791.687
                      24    9 Sep 2021 00:20:45.260    9 Sep 2021 00:50:36.947          1791.687
                      25    9 Sep 2021 01:13:16.848    9 Sep 2021 01:43:08.534          1791.686
                      26    9 Sep 2021 02:05:48.440    9 Sep 2021 02:35:40.122          1791.682
                      27    9 Sep 2021 02:58:20.028    9 Sep 2021 03:28:11.710          1791.682
                      28    9 Sep 2021 03:50:51.616    9 Sep 2021 04:00:00.000           548.384

Min Duration          28    9 Sep 2021 03:50:51.616    9 Sep 2021 04:00:00.000           548.384
Max Duration          24    9 Sep 2021 00:20:45.260    9 Sep 2021 00:50:36.947          1791.687
Mean Duration                                                                           1747.282
Total Duration                                                                         48923.891


Satellite509-To-Satellite303
----------------------------
                  Access       Start Time (UTCG)           Stop Time (UTCG)       Duration (sec)
                  ------    -----------------------    -----------------------    --------------
                       1    8 Sep 2021 04:18:26.575    8 Sep 2021 04:26:12.250           465.675
                       2    8 Sep 2021 05:10:58.165    8 Sep 2021 05:18:43.838           465.674
                       3    8 Sep 2021 06:03:29.757    8 Sep 2021 06:11:15.427           465.670
                       4    8 Sep 2021 06:56:01.342    8 Sep 2021 07:03:47.014           465.672
                       5    8 Sep 2021 07:48:32.929    8 Sep 2021 07:56:18.604           465.674
                       6    8 Sep 2021 08:41:04.517    8 Sep 2021 08:48:50.192           465.675
                       7    8 Sep 2021 09:33:36.106    8 Sep 2021 09:41:21.776           465.670
                       8    8 Sep 2021 10:26:07.694    8 Sep 2021 10:33:53.367           465.673
                       9    8 Sep 2021 11:18:39.283    8 Sep 2021 11:26:24.957           465.675
                      10    8 Sep 2021 12:11:10.872    8 Sep 2021 12:18:56.546           465.674
                      11    8 Sep 2021 13:03:42.464    8 Sep 2021 13:11:28.134           465.670
                      12    8 Sep 2021 13:56:14.049    8 Sep 2021 14:03:59.721           465.672
                      13    8 Sep 2021 14:48:45.636    8 Sep 2021 14:56:31.311           465.674
                      14    8 Sep 2021 15:41:17.224    8 Sep 2021 15:49:02.899           465.675
                      15    8 Sep 2021 16:33:48.815    8 Sep 2021 16:41:34.483           465.668
                      16    8 Sep 2021 17:26:20.401    8 Sep 2021 17:34:06.074           465.673
                      17    8 Sep 2021 18:18:51.990    8 Sep 2021 18:26:37.665           465.675
                      18    8 Sep 2021 19:11:23.581    8 Sep 2021 19:19:09.253           465.672
                      19    8 Sep 2021 20:03:55.171    8 Sep 2021 20:11:40.841           465.670
                      20    8 Sep 2021 20:56:26.757    8 Sep 2021 21:04:12.429           465.672
                      21    8 Sep 2021 21:48:58.343    8 Sep 2021 21:56:44.018           465.674
                      22    8 Sep 2021 22:41:29.931    8 Sep 2021 22:49:15.606           465.675
                      23    8 Sep 2021 23:34:01.524    8 Sep 2021 23:41:47.191           465.667
                      24    9 Sep 2021 00:26:33.108    9 Sep 2021 00:34:18.781           465.672
                      25    9 Sep 2021 01:19:04.697    9 Sep 2021 01:26:50.372           465.675
                      26    9 Sep 2021 02:11:36.288    9 Sep 2021 02:19:21.960           465.672
                      27    9 Sep 2021 03:04:07.878    9 Sep 2021 03:11:53.548           465.670
                      28    9 Sep 2021 03:56:39.464    9 Sep 2021 04:00:00.000           200.536

Min Duration          28    9 Sep 2021 03:56:39.464    9 Sep 2021 04:00:00.000           200.536
Max Duration           6    8 Sep 2021 08:41:04.517    8 Sep 2021 08:48:50.192           465.675
Mean Duration                                                                            456.203
Total Duration                                                                         12773.694


Satellite509-To-Satellite309
----------------------------
                  Access       Start Time (UTCG)           Stop Time (UTCG)       Duration (sec)
                  ------    -----------------------    -----------------------    --------------
                       1    8 Sep 2021 04:39:22.843    8 Sep 2021 04:47:17.253           474.411
                       2    8 Sep 2021 05:31:54.432    8 Sep 2021 05:39:48.840           474.408
                       3    8 Sep 2021 06:24:26.024    8 Sep 2021 06:32:20.430           474.406
                       4    8 Sep 2021 07:16:57.612    8 Sep 2021 07:24:52.019           474.406
                       5    8 Sep 2021 08:09:29.196    8 Sep 2021 08:17:23.605           474.409
                       6    8 Sep 2021 09:02:00.789    8 Sep 2021 09:09:55.191           474.402
                       7    8 Sep 2021 09:54:32.374    8 Sep 2021 10:02:26.784           474.410
                       8    8 Sep 2021 10:47:03.961    8 Sep 2021 10:54:58.372           474.411
                       9    8 Sep 2021 11:39:35.550    8 Sep 2021 11:47:29.960           474.411
                      10    8 Sep 2021 12:32:07.140    8 Sep 2021 12:40:01.548           474.408
                      11    8 Sep 2021 13:24:38.729    8 Sep 2021 13:32:33.137           474.408
                      12    8 Sep 2021 14:17:10.316    8 Sep 2021 14:25:04.726           474.410
                      13    8 Sep 2021 15:09:41.903    8 Sep 2021 15:17:36.313           474.410
                      14    8 Sep 2021 16:02:13.496    8 Sep 2021 16:10:07.898           474.402
                      15    8 Sep 2021 16:54:45.083    8 Sep 2021 17:02:39.491           474.408
                      16    8 Sep 2021 17:47:16.668    8 Sep 2021 17:55:11.079           474.411
                      17    8 Sep 2021 18:39:48.257    8 Sep 2021 18:47:42.667           474.410
                      18    8 Sep 2021 19:32:19.848    8 Sep 2021 19:40:14.255           474.408
                      19    8 Sep 2021 20:24:51.437    8 Sep 2021 20:32:45.844           474.407
                      20    8 Sep 2021 21:17:23.023    8 Sep 2021 21:25:17.433           474.410
                      21    8 Sep 2021 22:09:54.610    8 Sep 2021 22:17:49.021           474.411
                      22    8 Sep 2021 23:02:26.203    8 Sep 2021 23:10:20.606           474.403
                      23    8 Sep 2021 23:54:57.787    9 Sep 2021 00:02:52.198           474.411
                      24    9 Sep 2021 00:47:29.375    9 Sep 2021 00:55:23.786           474.411
                      25    9 Sep 2021 01:40:00.965    9 Sep 2021 01:47:55.373           474.409
                      26    9 Sep 2021 02:32:32.556    9 Sep 2021 02:40:26.963           474.407
                      27    9 Sep 2021 03:25:04.145    9 Sep 2021 03:32:58.552           474.407

Min Duration          14    8 Sep 2021 16:02:13.496    8 Sep 2021 16:10:07.898           474.402
Max Duration          23    8 Sep 2021 23:54:57.787    9 Sep 2021 00:02:52.198           474.411
Mean Duration                                                                            474.408
Total Duration                                                                         12809.024


Satellite509-To-Satellite310
----------------------------
                  Access       Start Time (UTCG)           Stop Time (UTCG)       Duration (sec)
                  ------    -----------------------    -----------------------    --------------
                       1    8 Sep 2021 04:00:00.000    8 Sep 2021 04:00:26.442            26.442
                       2    8 Sep 2021 04:23:11.748    8 Sep 2021 04:52:58.029          1786.281
                       3    8 Sep 2021 05:15:43.340    8 Sep 2021 05:45:29.618          1786.279
                       4    8 Sep 2021 06:08:14.925    8 Sep 2021 06:38:01.206          1786.281
                       5    8 Sep 2021 07:00:46.517    8 Sep 2021 07:30:32.795          1786.279
                       6    8 Sep 2021 07:53:18.102    8 Sep 2021 08:23:04.383          1786.281
                       7    8 Sep 2021 08:45:49.693    8 Sep 2021 09:15:35.972          1786.279
                       8    8 Sep 2021 09:38:21.279    8 Sep 2021 10:08:07.560          1786.281
                       9    8 Sep 2021 10:30:52.870    8 Sep 2021 11:00:39.149          1786.279
                      10    8 Sep 2021 11:23:24.456    8 Sep 2021 11:53:10.737          1786.281
                      11    8 Sep 2021 12:15:56.047    8 Sep 2021 12:45:42.326          1786.279
                      12    8 Sep 2021 13:08:27.632    8 Sep 2021 13:38:13.913          1786.281
                      13    8 Sep 2021 14:00:59.224    8 Sep 2021 14:30:45.502          1786.279
                      14    8 Sep 2021 14:53:30.809    8 Sep 2021 15:23:17.090          1786.281
                      15    8 Sep 2021 15:46:02.401    8 Sep 2021 16:15:48.679          1786.278
                      16    8 Sep 2021 16:38:33.986    8 Sep 2021 17:08:20.267          1786.281
                      17    8 Sep 2021 17:31:05.578    8 Sep 2021 18:00:51.856          1786.278
                      18    8 Sep 2021 18:23:37.163    8 Sep 2021 18:53:23.444          1786.281
                      19    8 Sep 2021 19:16:08.754    8 Sep 2021 19:45:55.033          1786.278
                      20    8 Sep 2021 20:08:40.340    8 Sep 2021 20:38:26.621          1786.281
                      21    8 Sep 2021 21:01:11.931    8 Sep 2021 21:30:58.210          1786.278
                      22    8 Sep 2021 21:53:43.516    8 Sep 2021 22:23:29.797          1786.281
                      23    8 Sep 2021 22:46:15.108    8 Sep 2021 23:16:01.386          1786.278
                      24    8 Sep 2021 23:38:46.693    9 Sep 2021 00:08:32.974          1786.281
                      25    9 Sep 2021 00:31:18.285    9 Sep 2021 01:01:04.563          1786.278
                      26    9 Sep 2021 01:23:49.870    9 Sep 2021 01:53:36.151          1786.281
                      27    9 Sep 2021 02:16:21.461    9 Sep 2021 02:46:07.740          1786.278
                      28    9 Sep 2021 03:08:53.047    9 Sep 2021 03:38:39.328          1786.281

Min Duration           1    8 Sep 2021 04:00:00.000    8 Sep 2021 04:00:26.442            26.442
Max Duration          28    9 Sep 2021 03:08:53.047    9 Sep 2021 03:38:39.328          1786.281
Mean Duration                                                                           1723.428
Total Duration                                                                         48255.995


Satellite509-To-Satellite401
----------------------------
                  Access       Start Time (UTCG)           Stop Time (UTCG)       Duration (sec)
                  ------    -----------------------    -----------------------    --------------
                       1    8 Sep 2021 04:00:00.000    9 Sep 2021 04:00:00.000         86400.000

Min Duration           1    8 Sep 2021 04:00:00.000    9 Sep 2021 04:00:00.000         86400.000
Max Duration           1    8 Sep 2021 04:00:00.000    9 Sep 2021 04:00:00.000         86400.000
Mean Duration                                                                          86400.000
Total Duration                                                                         86400.000


Satellite509-To-Satellite409
----------------------------
                  Access       Start Time (UTCG)           Stop Time (UTCG)       Duration (sec)
                  ------    -----------------------    -----------------------    --------------
                       1    8 Sep 2021 04:00:00.000    9 Sep 2021 04:00:00.000         86400.000

Min Duration           1    8 Sep 2021 04:00:00.000    9 Sep 2021 04:00:00.000         86400.000
Max Duration           1    8 Sep 2021 04:00:00.000    9 Sep 2021 04:00:00.000         86400.000
Mean Duration                                                                          86400.000
Total Duration                                                                         86400.000


Satellite509-To-Satellite410
----------------------------
                  Access       Start Time (UTCG)           Stop Time (UTCG)       Duration (sec)
                  ------    -----------------------    -----------------------    --------------
                       1    8 Sep 2021 04:00:00.000    9 Sep 2021 04:00:00.000         86400.000

Min Duration           1    8 Sep 2021 04:00:00.000    9 Sep 2021 04:00:00.000         86400.000
Max Duration           1    8 Sep 2021 04:00:00.000    9 Sep 2021 04:00:00.000         86400.000
Mean Duration                                                                          86400.000
Total Duration                                                                         86400.000


Satellite509-To-Satellite508
----------------------------
                  Access       Start Time (UTCG)           Stop Time (UTCG)       Duration (sec)
                  ------    -----------------------    -----------------------    --------------
                       1    8 Sep 2021 04:00:00.000    9 Sep 2021 04:00:00.000         86400.000

Min Duration           1    8 Sep 2021 04:00:00.000    9 Sep 2021 04:00:00.000         86400.000
Max Duration           1    8 Sep 2021 04:00:00.000    9 Sep 2021 04:00:00.000         86400.000
Mean Duration                                                                          86400.000
Total Duration                                                                         86400.000


Satellite509-To-Satellite510
----------------------------
                  Access       Start Time (UTCG)           Stop Time (UTCG)       Duration (sec)
                  ------    -----------------------    -----------------------    --------------
