routing/visibility/v510.txt

Satellite510-To-Satellite103
----------------------------
                  Access       Start Time (UTCG)           Stop Time (UTCG)       Duration (sec)
                  ------    -----------------------    -----------------------    --------------
                       1    8 Sep 2021 04:12:52.405    8 Sep 2021 04:23:53.681           661.276
                       2    8 Sep 2021 05:05:23.993    8 Sep 2021 05:16:25.274           661.281
                       3    8 Sep 2021 05:57:55.580    8 Sep 2021 06:08:56.863           661.282
                       4    8 Sep 2021 06:50:27.167    8 Sep 2021 07:01:28.451           661.283
                       5    8 Sep 2021 07:42:58.755    8 Sep 2021 07:54:00.039           661.284
                       6    8 Sep 2021 08:35:30.343    8 Sep 2021 08:46:31.626           661.283
                       7    8 Sep 2021 09:28:01.936    8 Sep 2021 09:39:03.214           661.278
                       8    8 Sep 2021 10:20:33.524    8 Sep 2021 10:31:34.802           661.278
                       9    8 Sep 2021 11:13:05.113    8 Sep 2021 11:24:06.388           661.276
                      10    8 Sep 2021 12:05:36.700    8 Sep 2021 12:16:37.979           661.279
                      11    8 Sep 2021 12:58:08.288    8 Sep 2021 13:09:09.570           661.282
                      12    8 Sep 2021 13:50:39.875    8 Sep 2021 14:01:41.158           661.283
                      13    8 Sep 2021 14:43:11.462    8 Sep 2021 14:54:12.746           661.284
                      14    8 Sep 2021 15:35:43.050    8 Sep 2021 15:46:44.334           661.283
                      15    8 Sep 2021 16:28:14.642    8 Sep 2021 16:39:15.921           661.280
                      16    8 Sep 2021 17:20:46.232    8 Sep 2021 17:31:47.509           661.278
                      17    8 Sep 2021 18:13:17.820    8 Sep 2021 18:24:19.096           661.276
                      18    8 Sep 2021 19:05:49.408    8 Sep 2021 19:16:50.685           661.278
                      19    8 Sep 2021 19:58:20.995    8 Sep 2021 20:09:22.277           661.282
                      20    8 Sep 2021 20:50:52.582    8 Sep 2021 21:01:53.865           661.283
                      21    8 Sep 2021 21:43:24.169    8 Sep 2021 21:54:25.453           661.284
                      22    8 Sep 2021 22:35:55.757    8 Sep 2021 22:46:57.041           661.283
                      23    8 Sep 2021 23:28:27.347    8 Sep 2021 23:39:28.629           661.281
                      24    9 Sep 2021 00:20:58.939    9 Sep 2021 00:32:00.217           661.278
                      25    9 Sep 2021 01:13:30.527    9 Sep 2021 01:24:31.805           661.278
                      26    9 Sep 2021 02:06:02.115    9 Sep 2021 02:17:03.391           661.276
                      27    9 Sep 2021 02:58:33.702    9 Sep 2021 03:09:34.983           661.280
                      28    9 Sep 2021 03:51:05.290    9 Sep 2021 04:00:00.000           534.710

Min Duration          28    9 Sep 2021 03:51:05.290    9 Sep 2021 04:00:00.000           534.710
Max Duration          13    8 Sep 2021 14:43:11.462    8 Sep 2021 14:54:12.746           661.284
Mean Duration                                                                            656.760
Total Duration                                                                         18389.281


Satellite510-To-Satellite104
----------------------------
                  Access       Start Time (UTCG)           Stop Time (UTCG)       Duration (sec)
                  ------    -----------------------    -----------------------    --------------
                       1    8 Sep 2021 04:03:46.139    8 Sep 2021 04:22:29.632          1123.494
                       2    8 Sep 2021 04:56:17.727    8 Sep 2021 05:15:01.222          1123.495
                       3    8 Sep 2021 05:48:49.317    8 Sep 2021 06:07:32.807          1123.490
                       4    8 Sep 2021 06:41:20.905    8 Sep 2021 07:00:04.395          1123.491
                       5    8 Sep 2021 07:33:52.492    8 Sep 2021 07:52:35.984          1123.492
                       6    8 Sep 2021 08:26:24.079    8 Sep 2021 08:45:07.576          1123.497
                       7    8 Sep 2021 09:18:55.665    8 Sep 2021 09:37:39.163          1123.497
                       8    8 Sep 2021 10:11:27.259    8 Sep 2021 10:30:10.749          1123.491
                       9    8 Sep 2021 11:03:58.847    8 Sep 2021 11:22:42.337          1123.490
                      10    8 Sep 2021 11:56:30.433    8 Sep 2021 12:15:13.927          1123.493
                      11    8 Sep 2021 12:49:02.020    8 Sep 2021 13:07:45.518          1123.499
                      12    8 Sep 2021 13:41:33.607    8 Sep 2021 14:00:17.104          1123.497
                      13    8 Sep 2021 14:34:05.201    8 Sep 2021 14:52:48.691          1123.491
                      14    8 Sep 2021 15:26:36.789    8 Sep 2021 15:45:20.279          1123.490
                      15    8 Sep 2021 16:19:08.375    8 Sep 2021 16:37:51.869          1123.494
                      16    8 Sep 2021 17:11:39.961    8 Sep 2021 17:30:23.460          1123.499
                      17    8 Sep 2021 18:04:11.549    8 Sep 2021 18:22:55.046          1123.497
                      18    8 Sep 2021 18:56:43.143    8 Sep 2021 19:15:26.633          1123.491
                      19    8 Sep 2021 19:49:14.731    8 Sep 2021 20:07:58.221          1123.490
                      20    8 Sep 2021 20:41:46.317    8 Sep 2021 21:00:29.811          1123.494
                      21    8 Sep 2021 21:34:17.903    8 Sep 2021 21:53:01.402          1123.499
                      22    8 Sep 2021 22:26:49.491    8 Sep 2021 22:45:32.988          1123.497
                      23    8 Sep 2021 23:19:21.085    8 Sep 2021 23:38:04.575          1123.491
                      24    9 Sep 2021 00:11:52.673    9 Sep 2021 00:30:36.163          1123.490
                      25    9 Sep 2021 01:04:24.259    9 Sep 2021 01:23:07.753          1123.494
                      26    9 Sep 2021 01:56:55.845    9 Sep 2021 02:15:39.344          1123.499
                      27    9 Sep 2021 02:49:27.433    9 Sep 2021 03:08:10.930          1123.497
                      28    9 Sep 2021 03:41:59.026    9 Sep 2021 04:00:00.000          1080.974

Min Duration          28    9 Sep 2021 03:41:59.026    9 Sep 2021 04:00:00.000          1080.974
Max Duration          26    9 Sep 2021 01:56:55.845    9 Sep 2021 02:15:39.344          1123.499
Mean Duration                                                                           1121.975
Total Duration                                                                         31415.312


Satellite510-To-Satellite105
----------------------------
                  Access       Start Time (UTCG)           Stop Time (UTCG)       Duration (sec)
                  ------    -----------------------    -----------------------    --------------
                       1    8 Sep 2021 04:00:00.000    8 Sep 2021 04:19:11.533          1151.533
                       2    8 Sep 2021 04:49:05.511    8 Sep 2021 05:11:43.121          1357.610
                       3    8 Sep 2021 05:41:37.099    8 Sep 2021 06:04:14.709          1357.610
                       4    8 Sep 2021 06:34:08.688    8 Sep 2021 06:56:46.298          1357.610
                       5    8 Sep 2021 07:26:40.276    8 Sep 2021 07:49:17.886          1357.610
                       6    8 Sep 2021 08:19:11.864    8 Sep 2021 08:41:49.475          1357.610
                       7    8 Sep 2021 09:11:43.453    8 Sep 2021 09:34:21.063          1357.610
                       8    8 Sep 2021 10:04:15.041    8 Sep 2021 10:26:52.651          1357.610
                       9    8 Sep 2021 10:56:46.630    8 Sep 2021 11:19:24.240          1357.610
                      10    8 Sep 2021 11:49:18.218    8 Sep 2021 12:11:55.828          1357.610
                      11    8 Sep 2021 12:41:49.806    8 Sep 2021 13:04:27.417          1357.610
                      12    8 Sep 2021 13:34:21.395    8 Sep 2021 13:56:59.005          1357.610
                      13    8 Sep 2021 14:26:52.983    8 Sep 2021 14:49:30.593          1357.610
                      14    8 Sep 2021 15:19:24.572    8 Sep 2021 15:42:02.182          1357.610
                      15    8 Sep 2021 16:11:56.160    8 Sep 2021 16:34:33.770          1357.610
                      16    8 Sep 2021 17:04:27.748    8 Sep 2021 17:27:05.359          1357.610
                      17    8 Sep 2021 17:56:59.337    8 Sep 2021 18:19:36.947          1357.610
                      18    8 Sep 2021 18:49:30.925    8 Sep 2021 19:12:08.535          1357.610
                      19    8 Sep 2021 19:42:02.514    8 Sep 2021 20:04:40.124          1357.610
                      20    8 Sep 2021 20:34:34.102    8 Sep 2021 20:57:11.712          1357.610
                      21    8 Sep 2021 21:27:05.690    8 Sep 2021 21:49:43.301          1357.610
                      22    8 Sep 2021 22:19:37.279    8 Sep 2021 22:42:14.889          1357.610
                      23    8 Sep 2021 23:12:08.867    8 Sep 2021 23:34:46.477          1357.610
                      24    9 Sep 2021 00:04:40.456    9 Sep 2021 00:27:18.066          1357.610
                      25    9 Sep 2021 00:57:12.044    9 Sep 2021 01:19:49.654          1357.610
                      26    9 Sep 2021 01:49:43.632    9 Sep 2021 02:12:21.242          1357.610
                      27    9 Sep 2021 02:42:15.221    9 Sep 2021 03:04:52.831          1357.610
                      28    9 Sep 2021 03:34:46.809    9 Sep 2021 03:57:24.416          1357.606

Min Duration           1    8 Sep 2021 04:00:00.000    8 Sep 2021 04:19:11.533          1151.533
Max Duration           2    8 Sep 2021 04:49:05.511    8 Sep 2021 05:11:43.121          1357.610
Mean Duration                                                                           1350.250
Total Duration                                                                         37807.003


Satellite510-To-Satellite106
----------------------------
                  Access       Start Time (UTCG)           Stop Time (UTCG)       Duration (sec)
                  ------    -----------------------    -----------------------    --------------
                       1    8 Sep 2021 04:00:00.000    8 Sep 2021 04:13:56.379           836.379
                       2    8 Sep 2021 04:43:50.348    8 Sep 2021 05:06:27.967          1357.619
                       3    8 Sep 2021 05:36:21.936    8 Sep 2021 05:58:59.555          1357.620
                       4    8 Sep 2021 06:28:53.524    8 Sep 2021 06:51:31.144          1357.620
                       5    8 Sep 2021 07:21:25.112    8 Sep 2021 07:44:02.732          1357.620
                       6    8 Sep 2021 08:13:56.701    8 Sep 2021 08:36:34.321          1357.620
                       7    8 Sep 2021 09:06:28.289    8 Sep 2021 09:29:05.909          1357.620
                       8    8 Sep 2021 09:58:59.878    8 Sep 2021 10:21:37.497          1357.620
                       9    8 Sep 2021 10:51:31.466    8 Sep 2021 11:14:09.086          1357.620
                      10    8 Sep 2021 11:44:03.054    8 Sep 2021 12:06:40.674          1357.620
                      11    8 Sep 2021 12:36:34.643    8 Sep 2021 12:59:12.262          1357.620
                      12    8 Sep 2021 13:29:06.231    8 Sep 2021 13:51:43.851          1357.620
                      13    8 Sep 2021 14:21:37.820    8 Sep 2021 14:44:15.439          1357.620
                      14    8 Sep 2021 15:14:09.408    8 Sep 2021 15:36:47.028          1357.620
                      15    8 Sep 2021 16:06:40.996    8 Sep 2021 16:29:18.616          1357.620
                      16    8 Sep 2021 16:59:12.585    8 Sep 2021 17:21:50.204          1357.620
                      17    8 Sep 2021 17:51:44.173    8 Sep 2021 18:14:21.793          1357.620
                      18    8 Sep 2021 18:44:15.762    8 Sep 2021 19:06:53.381          1357.620
                      19    8 Sep 2021 19:36:47.350    8 Sep 2021 19:59:24.970          1357.620
                      20    8 Sep 2021 20:29:18.938    8 Sep 2021 20:51:56.558          1357.620
                      21    8 Sep 2021 21:21:50.527    8 Sep 2021 21:44:28.146          1357.620
                      22    8 Sep 2021 22:14:22.115    8 Sep 2021 22:36:59.735          1357.620
                      23    8 Sep 2021 23:06:53.704    8 Sep 2021 23:29:31.323          1357.620
                      24    8 Sep 2021 23:59:25.292    9 Sep 2021 00:22:02.912          1357.620
                      25    9 Sep 2021 00:51:56.880    9 Sep 2021 01:14:34.500          1357.620
                      26    9 Sep 2021 01:44:28.469    9 Sep 2021 02:07:06.088          1357.620
                      27    9 Sep 2021 02:37:00.057    9 Sep 2021 02:59:37.677          1357.620
                      28    9 Sep 2021 03:29:31.646    9 Sep 2021 03:52:09.265          1357.620

Min Duration           1    8 Sep 2021 04:00:00.000    8 Sep 2021 04:13:56.379           836.379
Max Duration          12    8 Sep 2021 13:29:06.231    8 Sep 2021 13:51:43.851          1357.620
Mean Duration                                                                           1339.004
Total Duration                                                                         37492.109


Satellite510-To-Satellite107
----------------------------
                  Access       Start Time (UTCG)           Stop Time (UTCG)       Duration (sec)
                  ------    -----------------------    -----------------------    --------------
                       1    8 Sep 2021 04:00:00.000    8 Sep 2021 04:06:44.171           404.171
                       2    8 Sep 2021 04:40:32.235    8 Sep 2021 04:59:15.756          1123.521
                       3    8 Sep 2021 05:33:03.827    8 Sep 2021 05:51:47.345          1123.518
                       4    8 Sep 2021 06:25:35.415    8 Sep 2021 06:44:18.932          1123.517
                       5    8 Sep 2021 07:18:07.002    8 Sep 2021 07:36:50.523          1123.522
                       6    8 Sep 2021 08:10:38.589    8 Sep 2021 08:29:22.112          1123.523
                       7    8 Sep 2021 09:03:10.180    8 Sep 2021 09:21:53.698          1123.517
                       8    8 Sep 2021 09:55:41.769    8 Sep 2021 10:14:25.286          1123.517
                       9    8 Sep 2021 10:48:13.355    8 Sep 2021 11:06:56.875          1123.520
                      10    8 Sep 2021 11:40:44.942    8 Sep 2021 11:59:28.467          1123.524
                      11    8 Sep 2021 12:33:16.529    8 Sep 2021 12:52:00.053          1123.524
                      12    8 Sep 2021 13:25:48.122    8 Sep 2021 13:44:31.640          1123.518
                      13    8 Sep 2021 14:18:19.711    8 Sep 2021 14:37:03.227          1123.517
                      14    8 Sep 2021 15:10:51.297    8 Sep 2021 15:29:34.817          1123.520
                      15    8 Sep 2021 16:03:22.883    8 Sep 2021 16:22:06.409          1123.526
                      16    8 Sep 2021 16:55:54.471    8 Sep 2021 17:14:37.995          1123.524
                      17    8 Sep 2021 17:48:26.064    8 Sep 2021 18:07:09.582          1123.518
                      18    8 Sep 2021 18:40:57.653    8 Sep 2021 18:59:41.169          1123.517
                      19    8 Sep 2021 19:33:29.239    8 Sep 2021 19:52:12.759          1123.521
                      20    8 Sep 2021 20:26:00.825    8 Sep 2021 20:44:44.351          1123.526
                      21    8 Sep 2021 21:18:32.413    8 Sep 2021 21:37:15.937          1123.524
                      22    8 Sep 2021 22:11:04.006    8 Sep 2021 22:29:47.524          1123.518
                      23    8 Sep 2021 23:03:35.595    8 Sep 2021 23:22:19.111          1123.517
                      24    8 Sep 2021 23:56:07.181    9 Sep 2021 00:14:50.701          1123.521
                      25    9 Sep 2021 00:48:38.767    9 Sep 2021 01:07:22.293          1123.526
                      26    9 Sep 2021 01:41:10.355    9 Sep 2021 01:59:53.879          1123.524
                      27    9 Sep 2021 02:33:41.948    9 Sep 2021 02:52:25.466          1123.518
                      28    9 Sep 2021 03:26:13.537    9 Sep 2021 03:44:57.053          1123.517

Min Duration           1    8 Sep 2021 04:00:00.000    8 Sep 2021 04:06:44.171           404.171
Max Duration          25    9 Sep 2021 00:48:38.767    9 Sep 2021 01:07:22.293          1123.526
Mean Duration                                                                           1097.829
Total Duration                                                                         30739.224


Satellite510-To-Satellite108
----------------------------
                  Access       Start Time (UTCG)           Stop Time (UTCG)       Duration (sec)
                  ------    -----------------------    -----------------------    --------------
                       1    8 Sep 2021 04:39:08.174    8 Sep 2021 04:50:09.503           661.329
                       2    8 Sep 2021 05:31:39.764    8 Sep 2021 05:42:41.091           661.327
                       3    8 Sep 2021 06:24:11.352    8 Sep 2021 06:35:12.679           661.327
                       4    8 Sep 2021 07:16:42.940    8 Sep 2021 07:27:44.265           661.325
                       5    8 Sep 2021 08:09:14.528    8 Sep 2021 08:20:15.854           661.326
                       6    8 Sep 2021 09:01:46.115    8 Sep 2021 09:12:47.447           661.331
                       7    8 Sep 2021 09:54:17.702    8 Sep 2021 10:05:19.035           661.332
                       8    8 Sep 2021 10:46:49.290    8 Sep 2021 10:57:50.622           661.332
                       9    8 Sep 2021 11:39:20.879    8 Sep 2021 11:50:22.210           661.331
                      10    8 Sep 2021 12:31:52.471    8 Sep 2021 12:42:53.798           661.327
                      11    8 Sep 2021 13:24:24.059    8 Sep 2021 13:35:25.386           661.327
                      12    8 Sep 2021 14:16:55.648    8 Sep 2021 14:27:56.972           661.325
                      13    8 Sep 2021 15:09:27.235    8 Sep 2021 15:20:28.564           661.329
                      14    8 Sep 2021 16:01:58.823    8 Sep 2021 16:13:00.154           661.331
                      15    8 Sep 2021 16:54:30.410    8 Sep 2021 17:05:31.742           661.332
                      16    8 Sep 2021 17:47:01.997    8 Sep 2021 17:58:03.329           661.332
                      17    8 Sep 2021 18:39:33.585    8 Sep 2021 18:50:34.917           661.332
                      18    8 Sep 2021 19:32:05.177    8 Sep 2021 19:43:06.505           661.328
                      19    8 Sep 2021 20:24:36.767    8 Sep 2021 20:35:38.093           661.327
                      20    8 Sep 2021 21:17:08.355    8 Sep 2021 21:28:09.679           661.325
                      21    8 Sep 2021 22:09:39.942    8 Sep 2021 22:20:41.269           661.327
                      22    8 Sep 2021 23:02:11.530    8 Sep 2021 23:13:12.861           661.331
                      23    8 Sep 2021 23:54:43.117    9 Sep 2021 00:05:44.449           661.332
                      24    9 Sep 2021 00:47:14.704    9 Sep 2021 00:58:16.037           661.332
                      25    9 Sep 2021 01:39:46.292    9 Sep 2021 01:50:47.624           661.332
                      26    9 Sep 2021 02:32:17.883    9 Sep 2021 02:43:19.212           661.329
                      27    9 Sep 2021 03:24:49.474    9 Sep 2021 03:35:50.800           661.327

Min Duration          20    8 Sep 2021 21:17:08.355    8 Sep 2021 21:28:09.679           661.325
Max Duration          24    9 Sep 2021 00:47:14.704    9 Sep 2021 00:58:16.037           661.332
Mean Duration                                                                            661.329
Total Duration                                                                         17855.884


Satellite510-To-Satellite201
----------------------------
                  Access       Start Time (UTCG)           Stop Time (UTCG)       Duration (sec)
                  ------    -----------------------    -----------------------    --------------
                       1    8 Sep 2021 04:24:43.201    8 Sep 2021 04:31:44.734           421.533
                       2    8 Sep 2021 05:17:14.786    8 Sep 2021 05:24:16.323           421.537
                       3    8 Sep 2021 06:09:46.377    8 Sep 2021 06:16:47.911           421.534
                       4    8 Sep 2021 07:02:17.963    8 Sep 2021 07:09:19.500           421.537
                       5    8 Sep 2021 07:54:49.553    8 Sep 2021 08:01:51.088           421.534
                       6    8 Sep 2021 08:47:21.140    8 Sep 2021 08:54:22.677           421.536
                       7    8 Sep 2021 09:39:52.729    8 Sep 2021 09:46:54.265           421.536
                       8    8 Sep 2021 10:32:24.318    8 Sep 2021 10:39:25.853           421.536
                       9    8 Sep 2021 11:24:55.905    8 Sep 2021 11:31:57.442           421.537
                      10    8 Sep 2021 12:17:27.496    8 Sep 2021 12:24:29.030           421.534
                      11    8 Sep 2021 13:09:59.082    8 Sep 2021 13:17:00.619           421.537
                      12    8 Sep 2021 14:02:30.673    8 Sep 2021 14:09:32.207           421.534
                      13    8 Sep 2021 14:55:02.259    8 Sep 2021 15:02:03.795           421.536
                      14    8 Sep 2021 15:47:33.851    8 Sep 2021 15:54:35.383           421.532
                      15    8 Sep 2021 16:40:05.435    8 Sep 2021 16:47:06.972           421.537
                      16    8 Sep 2021 17:32:37.027    8 Sep 2021 17:39:38.560           421.533
                      17    8 Sep 2021 18:25:08.612    8 Sep 2021 18:32:10.149           421.537
                      18    8 Sep 2021 19:17:40.203    8 Sep 2021 19:24:41.737           421.534
                      19    8 Sep 2021 20:10:11.789    8 Sep 2021 20:17:13.326           421.537
                      20    8 Sep 2021 21:02:43.379    8 Sep 2021 21:09:44.914           421.535
                      21    8 Sep 2021 21:55:14.966    8 Sep 2021 22:02:16.503           421.536
                      22    8 Sep 2021 22:47:46.555    8 Sep 2021 22:54:48.091           421.536
                      23    8 Sep 2021 23:40:18.143    8 Sep 2021 23:47:19.679           421.536
                      24    9 Sep 2021 00:32:49.731    9 Sep 2021 00:39:51.268           421.537
                      25    9 Sep 2021 01:25:21.322    9 Sep 2021 01:32:22.856           421.534
                      26    9 Sep 2021 02:17:52.908    9 Sep 2021 02:24:54.445           421.537
                      27    9 Sep 2021 03:10:24.499    9 Sep 2021 03:17:26.033           421.534

Min Duration          14    8 Sep 2021 15:47:33.851    8 Sep 2021 15:54:35.383           421.532
Max Duration          15    8 Sep 2021 16:40:05.435    8 Sep 2021 16:47:06.972           421.537
Mean Duration                                                                            421.535
Total Duration                                                                         11381.455


Satellite510-To-Satellite202
----------------------------
                  Access       Start Time (UTCG)           Stop Time (UTCG)       Duration (sec)
                  ------    -----------------------    -----------------------    --------------
                       1    8 Sep 2021 04:13:16.796    8 Sep 2021 04:32:40.821          1164.024
                       2    8 Sep 2021 05:05:48.384    8 Sep 2021 05:25:12.411          1164.027
                       3    8 Sep 2021 05:58:19.969    8 Sep 2021 06:17:43.997          1164.028
                       4    8 Sep 2021 06:50:51.561    8 Sep 2021 07:10:15.586          1164.025
                       5    8 Sep 2021 07:43:23.145    8 Sep 2021 08:02:47.173          1164.027
                       6    8 Sep 2021 08:35:54.737    8 Sep 2021 08:55:18.761          1164.024
                       7    8 Sep 2021 09:28:26.327    8 Sep 2021 09:47:50.352          1164.025
                       8    8 Sep 2021 10:20:57.915    8 Sep 2021 10:40:21.939          1164.024
                       9    8 Sep 2021 11:13:29.501    8 Sep 2021 11:32:53.527          1164.026
                      10    8 Sep 2021 12:06:01.090    8 Sep 2021 12:25:25.115          1164.025
                      11    8 Sep 2021 12:58:32.679    8 Sep 2021 13:17:56.704          1164.025
                      12    8 Sep 2021 13:51:04.268    8 Sep 2021 14:10:28.293          1164.025
                      13    8 Sep 2021 14:43:35.856    8 Sep 2021 15:02:59.884          1164.029
                      14    8 Sep 2021 15:36:07.444    8 Sep 2021 15:55:31.470          1164.026
                      15    8 Sep 2021 16:28:39.034    8 Sep 2021 16:48:03.058          1164.024
                      16    8 Sep 2021 17:21:10.619    8 Sep 2021 17:40:34.646          1164.026
                      17    8 Sep 2021 18:13:42.209    8 Sep 2021 18:33:06.234          1164.025
                      18    8 Sep 2021 19:06:13.797    8 Sep 2021 19:25:37.824          1164.027
                      19    8 Sep 2021 19:58:45.387    8 Sep 2021 20:18:09.411          1164.024
                      20    8 Sep 2021 20:51:16.974    8 Sep 2021 21:10:41.000          1164.026
                      21    8 Sep 2021 21:43:48.562    8 Sep 2021 22:03:12.588          1164.025
                      22    8 Sep 2021 22:36:20.150    8 Sep 2021 22:55:44.176          1164.026
                      23    8 Sep 2021 23:28:51.741    8 Sep 2021 23:48:15.763          1164.023
                      24    9 Sep 2021 00:21:23.328    9 Sep 2021 00:40:47.357          1164.029
                      25    9 Sep 2021 01:13:54.917    9 Sep 2021 01:33:18.942          1164.026
                      26    9 Sep 2021 02:06:26.506    9 Sep 2021 02:25:50.530          1164.024
                      27    9 Sep 2021 02:58:58.092    9 Sep 2021 03:18:22.118          1164.026
                      28    9 Sep 2021 03:51:29.681    9 Sep 2021 04:00:00.000           510.319

Min Duration          28    9 Sep 2021 03:51:29.681    9 Sep 2021 04:00:00.000           510.319
Max Duration          24    9 Sep 2021 00:21:23.328    9 Sep 2021 00:40:47.357          1164.029
Mean Duration                                                                           1140.679
Total Duration                                                                         31939.010


Satellite510-To-Satellite203
----------------------------
                  Access       Start Time (UTCG)           Stop Time (UTCG)       Duration (sec)
                  ------    -----------------------    -----------------------    --------------
                       1    8 Sep 2021 04:05:18.036    8 Sep 2021 04:30:09.257          1491.221
                       2    8 Sep 2021 04:57:49.628    8 Sep 2021 05:22:40.849          1491.221
                       3    8 Sep 2021 05:50:21.213    8 Sep 2021 06:15:12.434          1491.221
                       4    8 Sep 2021 06:42:52.805    8 Sep 2021 07:07:44.026          1491.221
                       5    8 Sep 2021 07:35:24.390    8 Sep 2021 08:00:15.611          1491.221
                       6    8 Sep 2021 08:27:55.982    8 Sep 2021 08:52:47.203          1491.221
                       7    8 Sep 2021 09:20:27.567    8 Sep 2021 09:45:18.788          1491.221
                       8    8 Sep 2021 10:12:59.159    8 Sep 2021 10:37:50.380          1491.221
                       9    8 Sep 2021 11:05:30.743    8 Sep 2021 11:30:21.964          1491.221
                      10    8 Sep 2021 11:58:02.336    8 Sep 2021 12:22:53.557          1491.221
                      11    8 Sep 2021 12:50:33.920    8 Sep 2021 13:15:25.141          1491.221
                      12    8 Sep 2021 13:43:05.512    8 Sep 2021 14:07:56.733          1491.221
                      13    8 Sep 2021 14:35:37.097    8 Sep 2021 15:00:28.318          1491.221
                      14    8 Sep 2021 15:28:08.689    8 Sep 2021 15:52:59.910          1491.221
                      15    8 Sep 2021 16:20:40.274    8 Sep 2021 16:45:31.495          1491.221
                      16    8 Sep 2021 17:13:11.866    8 Sep 2021 17:38:03.087          1491.221
                      17    8 Sep 2021 18:05:43.451    8 Sep 2021 18:30:34.671          1491.221
                      18    8 Sep 2021 18:58:15.043    8 Sep 2021 19:23:06.264          1491.221
                      19    8 Sep 2021 19:50:46.627    8 Sep 2021 20:15:37.848          1491.221
                      20    8 Sep 2021 20:43:18.220    8 Sep 2021 21:08:09.441          1491.221
                      21    8 Sep 2021 21:35:49.804    8 Sep 2021 22:00:41.025          1491.221
                      22    8 Sep 2021 22:28:21.396    8 Sep 2021 22:53:12.617          1491.221
                      23    8 Sep 2021 23:20:52.981    8 Sep 2021 23:45:44.202          1491.221
                      24    9 Sep 2021 00:13:24.573    9 Sep 2021 00:38:15.794          1491.221
                      25    9 Sep 2021 01:05:56.158    9 Sep 2021 01:30:47.379          1491.221
                      26    9 Sep 2021 01:58:27.750    9 Sep 2021 02:23:18.971          1491.221
                      27    9 Sep 2021 02:50:59.335    9 Sep 2021 03:15:50.555          1491.221
                      28    9 Sep 2021 03:43:30.927    9 Sep 2021 04:00:00.000           989.073

Min Duration          28    9 Sep 2021 03:43:30.927    9 Sep 2021 04:00:00.000           989.073
Max Duration           2    8 Sep 2021 04:57:49.628    8 Sep 2021 05:22:40.849          1491.221
Mean Duration                                                                           1473.287
Total Duration                                                                         41252.037


Satellite510-To-Satellite204
----------------------------
                  Access       Start Time (UTCG)           Stop Time (UTCG)       Duration (sec)
                  ------    -----------------------    -----------------------    --------------
                       1    8 Sep 2021 04:00:05.851    8 Sep 2021 04:24:51.124          1485.273
                       2    8 Sep 2021 04:52:37.442    8 Sep 2021 05:17:22.716          1485.274
                       3    8 Sep 2021 05:45:09.032    8 Sep 2021 06:09:54.301          1485.269
                       4    8 Sep 2021 06:37:40.619    8 Sep 2021 07:02:25.893          1485.274
                       5    8 Sep 2021 07:30:12.209    8 Sep 2021 07:54:57.478          1485.268
                       6    8 Sep 2021 08:22:43.796    8 Sep 2021 08:47:29.070          1485.274
                       7    8 Sep 2021 09:15:15.386    8 Sep 2021 09:40:00.655          1485.268
                       8    8 Sep 2021 10:07:46.973    8 Sep 2021 10:32:32.247          1485.274
                       9    8 Sep 2021 11:00:18.563    8 Sep 2021 11:25:03.831          1485.268
                      10    8 Sep 2021 11:52:50.149    8 Sep 2021 12:17:35.423          1485.274
                      11    8 Sep 2021 12:45:21.740    8 Sep 2021 13:10:07.008          1485.268
                      12    8 Sep 2021 13:37:53.326    8 Sep 2021 14:02:38.600          1485.274
                      13    8 Sep 2021 14:30:24.917    8 Sep 2021 14:55:10.185          1485.268
                      14    8 Sep 2021 15:22:56.503    8 Sep 2021 15:47:41.777          1485.274
                      15    8 Sep 2021 16:15:28.093    8 Sep 2021 16:40:13.362          1485.268
                      16    8 Sep 2021 17:07:59.680    8 Sep 2021 17:32:44.954          1485.274
                      17    8 Sep 2021 18:00:31.270    8 Sep 2021 18:25:16.538          1485.268
                      18    8 Sep 2021 18:53:02.857    8 Sep 2021 19:17:48.131          1485.274
                      19    8 Sep 2021 19:45:34.447    8 Sep 2021 20:10:19.715          1485.268
                      20    8 Sep 2021 20:38:06.033    8 Sep 2021 21:02:51.307          1485.274
                      21    8 Sep 2021 21:30:37.624    8 Sep 2021 21:55:22.892          1485.268
                      22    8 Sep 2021 22:23:09.210    8 Sep 2021 22:47:54.484          1485.274
                      23    8 Sep 2021 23:15:40.801    8 Sep 2021 23:40:26.069          1485.268
                      24    9 Sep 2021 00:08:12.387    9 Sep 2021 00:32:57.661          1485.274
                      25    9 Sep 2021 01:00:43.977    9 Sep 2021 01:25:29.246          1485.268
                      26    9 Sep 2021 01:53:15.564    9 Sep 2021 02:18:00.838          1485.274
                      27    9 Sep 2021 02:45:47.154    9 Sep 2021 03:10:32.422          1485.268
                      28    9 Sep 2021 03:38:18.741    9 Sep 2021 04:00:00.000          1301.259

Min Duration          28    9 Sep 2021 03:38:18.741    9 Sep 2021 04:00:00.000          1301.259
Max Duration          26    9 Sep 2021 01:53:15.564    9 Sep 2021 02:18:00.838          1485.274
Mean Duration                                                                           1478.699
Total Duration                                                                         41403.583


Satellite510-To-Satellite205
----------------------------
                  Access       Start Time (UTCG)           Stop Time (UTCG)       Duration (sec)
                  ------    -----------------------    -----------------------    --------------
                       1    8 Sep 2021 04:00:00.000    8 Sep 2021 04:16:45.816          1005.816
                       2    8 Sep 2021 04:50:12.437    8 Sep 2021 05:09:17.404          1144.967
                       3    8 Sep 2021 05:42:44.026    8 Sep 2021 06:01:48.992          1144.966
                       4    8 Sep 2021 06:35:15.614    8 Sep 2021 06:54:20.579          1144.965
                       5    8 Sep 2021 07:27:47.203    8 Sep 2021 07:46:52.169          1144.966
                       6    8 Sep 2021 08:20:18.791    8 Sep 2021 08:39:23.757          1144.966
                       7    8 Sep 2021 09:12:50.375    8 Sep 2021 09:31:55.345          1144.970
                       8    8 Sep 2021 10:05:21.964    8 Sep 2021 10:24:26.934          1144.969
                       9    8 Sep 2021 10:57:53.553    8 Sep 2021 11:16:58.522          1144.969
                      10    8 Sep 2021 11:50:25.142    8 Sep 2021 12:09:30.110          1144.969
                      11    8 Sep 2021 12:42:56.730    8 Sep 2021 13:02:01.699          1144.969
                      12    8 Sep 2021 13:35:28.319    8 Sep 2021 13:54:33.287          1144.968
                      13    8 Sep 2021 14:27:59.907    8 Sep 2021 14:47:04.876          1144.968
                      14    8 Sep 2021 15:20:31.496    8 Sep 2021 15:39:36.464          1144.968
                      15    8 Sep 2021 16:13:03.084    8 Sep 2021 16:32:08.052          1144.968
                      16    8 Sep 2021 17:05:34.673    8 Sep 2021 17:24:39.641          1144.968
                      17    8 Sep 2021 17:58:06.261    8 Sep 2021 18:17:11.229          1144.968
                      18    8 Sep 2021 18:50:37.849    8 Sep 2021 19:09:42.818          1144.968
                      19    8 Sep 2021 19:43:09.438    8 Sep 2021 20:02:14.406          1144.968
                      20    8 Sep 2021 20:35:41.026    8 Sep 2021 20:54:45.994          1144.968
                      21    8 Sep 2021 21:28:12.615    8 Sep 2021 21:47:17.583          1144.968
                      22    8 Sep 2021 22:20:44.203    8 Sep 2021 22:39:49.171          1144.968
                      23    8 Sep 2021 23:13:15.791    8 Sep 2021 23:32:20.760          1144.968
                      24    9 Sep 2021 00:05:47.380    9 Sep 2021 00:24:52.348          1144.968
                      25    9 Sep 2021 00:58:18.968    9 Sep 2021 01:17:23.936          1144.968
                      26    9 Sep 2021 01:50:50.557    9 Sep 2021 02:09:55.525          1144.968
                      27    9 Sep 2021 02:43:22.145    9 Sep 2021 03:02:27.113          1144.968
                      28    9 Sep 2021 03:35:53.733    9 Sep 2021 03:54:58.702          1144.968

Min Duration           1    8 Sep 2021 04:00:00.000    8 Sep 2021 04:16:45.816          1005.816
Max Duration           7    8 Sep 2021 09:12:50.375    8 Sep 2021 09:31:55.345          1144.970
Mean Duration                                                                           1139.998
Total Duration                                                                         31919.953


Satellite510-To-Satellite206
----------------------------
                  Access       Start Time (UTCG)           Stop Time (UTCG)       Duration (sec)
                  ------    -----------------------    -----------------------    --------------
                       1    8 Sep 2021 04:00:00.000    8 Sep 2021 04:04:55.427           295.427
                       2    8 Sep 2021 04:51:32.507    8 Sep 2021 04:57:27.018           354.510
                       3    8 Sep 2021 05:44:04.092    8 Sep 2021 05:49:58.606           354.515
                       4    8 Sep 2021 06:36:35.680    8 Sep 2021 06:42:30.190           354.510
                       5    8 Sep 2021 07:29:07.272    8 Sep 2021 07:35:01.782           354.510
                       6    8 Sep 2021 08:21:38.861    8 Sep 2021 08:27:33.371           354.510
                       7    8 Sep 2021 09:14:10.445    8 Sep 2021 09:20:04.960           354.514
                       8    8 Sep 2021 10:06:42.034    8 Sep 2021 10:12:36.545           354.511
                       9    8 Sep 2021 10:59:13.626    8 Sep 2021 11:05:08.136           354.511
                      10    8 Sep 2021 11:51:45.210    8 Sep 2021 11:57:39.725           354.515
                      11    8 Sep 2021 12:44:16.799    8 Sep 2021 12:50:11.309           354.510
                      12    8 Sep 2021 13:36:48.390    8 Sep 2021 13:42:42.901           354.511
                      13    8 Sep 2021 14:29:19.980    8 Sep 2021 14:35:14.490           354.511
                      14    8 Sep 2021 15:21:51.564    8 Sep 2021 15:27:46.078           354.514
                      15    8 Sep 2021 16:14:23.153    8 Sep 2021 16:20:17.664           354.511
                      16    8 Sep 2021 17:06:54.744    8 Sep 2021 17:12:49.255           354.511
                      17    8 Sep 2021 17:59:26.329    8 Sep 2021 18:05:20.844           354.515
                      18    8 Sep 2021 18:51:57.918    8 Sep 2021 18:57:52.427           354.510
                      19    8 Sep 2021 19:44:29.509    8 Sep 2021 19:50:24.019           354.511
                      20    8 Sep 2021 20:37:01.098    8 Sep 2021 20:42:55.609           354.511
                      21    8 Sep 2021 21:29:32.684    8 Sep 2021 21:35:27.197           354.514
                      22    8 Sep 2021 22:22:04.272    8 Sep 2021 22:27:58.783           354.511
                      23    8 Sep 2021 23:14:35.863    8 Sep 2021 23:20:30.374           354.511
                      24    9 Sep 2021 00:07:07.448    9 Sep 2021 00:13:01.963           354.515
                      25    9 Sep 2021 00:59:39.036    9 Sep 2021 01:05:33.549           354.512
                      26    9 Sep 2021 01:52:10.627    9 Sep 2021 01:58:05.138           354.511
                      27    9 Sep 2021 02:44:42.217    9 Sep 2021 02:50:36.728           354.511
                      28    9 Sep 2021 03:37:13.803    9 Sep 2021 03:43:08.316           354.513

Min Duration           1    8 Sep 2021 04:00:00.000    8 Sep 2021 04:04:55.427           295.427
Max Duration          10    8 Sep 2021 11:51:45.210    8 Sep 2021 11:57:39.725           354.515
Mean Duration                                                                            352.402
Total Duration                                                                          9867.243


Satellite510-To-Satellite301
----------------------------
                  Access       Start Time (UTCG)           Stop Time (UTCG)       Duration (sec)
                  ------    -----------------------    -----------------------    --------------
                       1    8 Sep 2021 04:12:41.435    8 Sep 2021 04:42:27.709          1786.274
                       2    8 Sep 2021 05:05:13.020    8 Sep 2021 05:34:59.298          1786.279
                       3    8 Sep 2021 05:57:44.611    8 Sep 2021 06:27:30.889          1786.278
                       4    8 Sep 2021 06:50:16.196    8 Sep 2021 07:20:02.476          1786.280
                       5    8 Sep 2021 07:42:47.787    8 Sep 2021 08:12:34.066          1786.279
                       6    8 Sep 2021 08:35:19.373    8 Sep 2021 09:05:05.653          1786.281
                       7    8 Sep 2021 09:27:50.964    8 Sep 2021 09:57:37.243          1786.279
                       8    8 Sep 2021 10:20:22.549    8 Sep 2021 10:50:08.830          1786.281
                       9    8 Sep 2021 11:12:54.141    8 Sep 2021 11:42:40.420          1786.279
                      10    8 Sep 2021 12:05:25.726    8 Sep 2021 12:35:12.007          1786.281
                      11    8 Sep 2021 12:57:57.318    8 Sep 2021 13:27:43.596          1786.279
                      12    8 Sep 2021 13:50:28.903    8 Sep 2021 14:20:15.184          1786.281
                      13    8 Sep 2021 14:43:00.495    8 Sep 2021 15:12:46.773          1786.279
                      14    8 Sep 2021 15:35:32.080    8 Sep 2021 16:05:18.361          1786.281
                      15    8 Sep 2021 16:28:03.671    8 Sep 2021 16:57:49.950          1786.279
                      16    8 Sep 2021 17:20:35.257    8 Sep 2021 17:50:21.538          1786.281
                      17    8 Sep 2021 18:13:06.848    8 Sep 2021 18:42:53.127          1786.279
                      18    8 Sep 2021 19:05:38.433    8 Sep 2021 19:35:24.714          1786.281
                      19    8 Sep 2021 19:58:10.025    8 Sep 2021 20:27:56.304          1786.278
                      20    8 Sep 2021 20:50:41.610    8 Sep 2021 21:20:27.891          1786.281
                      21    8 Sep 2021 21:43:13.202    8 Sep 2021 22:12:59.480          1786.278
                      22    8 Sep 2021 22:35:44.787    8 Sep 2021 23:05:31.068          1786.281
                      23    8 Sep 2021 23:28:16.379    8 Sep 2021 23:58:02.657          1786.278
                      24    9 Sep 2021 00:20:47.964    9 Sep 2021 00:50:34.245          1786.281
                      25    9 Sep 2021 01:13:19.555    9 Sep 2021 01:43:05.834          1786.278
                      26    9 Sep 2021 02:05:51.141    9 Sep 2021 02:35:37.422          1786.281
                      27    9 Sep 2021 02:58:22.732    9 Sep 2021 03:28:09.011          1786.278
                      28    9 Sep 2021 03:50:54.317    9 Sep 2021 04:00:00.000           545.683

Min Duration          28    9 Sep 2021 03:50:54.317    9 Sep 2021 04:00:00.000           545.683
Max Duration          26    9 Sep 2021 02:05:51.141    9 Sep 2021 02:35:37.422          1786.281
Mean Duration                                                                           1741.972
Total Duration                                                                         48775.227


Satellite510-To-Satellite302
----------------------------
                  Access       Start Time (UTCG)           Stop Time (UTCG)       Duration (sec)
                  ------    -----------------------    -----------------------    --------------
                       1    8 Sep 2021 04:03:28.762    8 Sep 2021 04:41:10.064          2261.301
                       2    8 Sep 2021 04:56:00.351    8 Sep 2021 05:33:41.652          2261.301
                       3    8 Sep 2021 05:48:31.939    8 Sep 2021 06:26:13.241          2261.301
                       4    8 Sep 2021 06:41:03.528    8 Sep 2021 07:18:44.829          2261.301
                       5    8 Sep 2021 07:33:35.116    8 Sep 2021 08:11:16.418          2261.301
                       6    8 Sep 2021 08:26:06.705    8 Sep 2021 09:03:48.006          2261.301
                       7    8 Sep 2021 09:18:38.293    8 Sep 2021 09:56:19.594          2261.301
                       8    8 Sep 2021 10:11:09.881    8 Sep 2021 10:48:51.183          2261.301
                       9    8 Sep 2021 11:03:41.470    8 Sep 2021 11:41:22.771          2261.301
                      10    8 Sep 2021 11:56:13.058    8 Sep 2021 12:33:54.359          2261.301
                      11    8 Sep 2021 12:48:44.647    8 Sep 2021 13:26:25.948          2261.301
                      12    8 Sep 2021 13:41:16.235    8 Sep 2021 14:18:57.536          2261.301
                      13    8 Sep 2021 14:33:47.823    8 Sep 2021 15:11:29.125          2261.301
                      14    8 Sep 2021 15:26:19.412    8 Sep 2021 16:04:00.713          2261.301
                      15    8 Sep 2021 16:18:51.000    8 Sep 2021 16:56:32.301          2261.301
                      16    8 Sep 2021 17:11:22.589    8 Sep 2021 17:49:03.890          2261.301
                      17    8 Sep 2021 18:03:54.177    8 Sep 2021 18:41:35.478          2261.301
                      18    8 Sep 2021 18:56:25.765    8 Sep 2021 19:34:07.067          2261.301
                      19    8 Sep 2021 19:48:57.354    8 Sep 2021 20:26:38.655          2261.301
                      20    8 Sep 2021 20:41:28.942    8 Sep 2021 21:19:10.243          2261.301
                      21    8 Sep 2021 21:34:00.531    8 Sep 2021 22:11:41.832          2261.301
                      22    8 Sep 2021 22:26:32.119    8 Sep 2021 23:04:13.420          2261.301
                      23    8 Sep 2021 23:19:03.707    8 Sep 2021 23:56:45.009          2261.301
                      24    9 Sep 2021 00:11:35.296    9 Sep 2021 00:49:16.597          2261.301
                      25    9 Sep 2021 01:04:06.884    9 Sep 2021 01:41:48.185          2261.301
                      26    9 Sep 2021 01:56:38.473    9 Sep 2021 02:34:19.774          2261.301
                      27    9 Sep 2021 02:49:10.061    9 Sep 2021 03:26:51.362          2261.301
                      28    9 Sep 2021 03:41:41.649    9 Sep 2021 04:00:00.000          1098.351

Min Duration          28    9 Sep 2021 03:41:41.649    9 Sep 2021 04:00:00.000          1098.351
Max Duration           1    8 Sep 2021 04:03:28.762    8 Sep 2021 04:41:10.064          2261.301
Mean Duration                                                                           2219.767
Total Duration                                                                         62153.485


Satellite510-To-Satellite303
----------------------------
                  Access       Start Time (UTCG)           Stop Time (UTCG)       Duration (sec)
                  ------    -----------------------    -----------------------    --------------
                       1    8 Sep 2021 04:02:08.411    8 Sep 2021 04:32:00.098          1791.687
                       2    8 Sep 2021 04:54:39.999    8 Sep 2021 05:24:31.686          1791.687
                       3    8 Sep 2021 05:47:11.587    8 Sep 2021 06:17:03.274          1791.687
                       4    8 Sep 2021 06:39:43.175    8 Sep 2021 07:09:34.862          1791.687
                       5    8 Sep 2021 07:32:14.763    8 Sep 2021 08:02:06.450          1791.687
                       6    8 Sep 2021 08:24:46.351    8 Sep 2021 08:54:38.038          1791.687
                       7    8 Sep 2021 09:17:17.940    8 Sep 2021 09:47:09.627          1791.687
                       8    8 Sep 2021 10:09:49.528    8 Sep 2021 10:39:41.215          1791.687
                       9    8 Sep 2021 11:02:21.116    8 Sep 2021 11:32:12.803          1791.687
                      10    8 Sep 2021 11:54:52.704    8 Sep 2021 12:24:44.390          1791.686
                      11    8 Sep 2021 12:47:24.296    8 Sep 2021 13:17:15.978          1791.682
                      12    8 Sep 2021 13:39:55.884    8 Sep 2021 14:09:47.572          1791.687
                      13    8 Sep 2021 14:32:27.473    8 Sep 2021 15:02:19.160          1791.687
                      14    8 Sep 2021 15:24:59.061    8 Sep 2021 15:54:50.748          1791.687
                      15    8 Sep 2021 16:17:30.649    8 Sep 2021 16:47:22.336          1791.687
                      16    8 Sep 2021 17:10:02.237    8 Sep 2021 17:39:53.924          1791.687
                      17    8 Sep 2021 18:02:33.825    8 Sep 2021 18:32:25.512          1791.687
                      18    8 Sep 2021 18:55:05.414    8 Sep 2021 19:24:57.101          1791.687
                      19    8 Sep 2021 19:47:37.002    8 Sep 2021 20:17:28.689          1791.687
                      20    8 Sep 2021 20:40:08.590    8 Sep 2021 21:10:00.277          1791.687
                      21    8 Sep 2021 21:32:40.178    8 Sep 2021 22:02:31.865          1791.687
                      22    8 Sep 2021 22:25:11.766    8 Sep 2021 22:55:03.453          1791.687
                      23    8 Sep 2021 23:17:43.354    8 Sep 2021 23:47:35.041          1791.687
                      24    9 Sep 2021 00:10:14.942    9 Sep 2021 00:40:06.629          1791.687
                      25    9 Sep 2021 01:02:46.531    9 Sep 2021 01:32:38.218          1791.687
                      26    9 Sep 2021 01:55:18.119    9 Sep 2021 02:25:09.806          1791.687
                      27    9 Sep 2021 02:47:49.707    9 Sep 2021 03:17:41.393          1791.686
                      28    9 Sep 2021 03:40:21.299    9 Sep 2021 04:00:00.000          1178.701

Min Duration          28    9 Sep 2021 03:40:21.299    9 Sep 2021 04:00:00.000          1178.701
Max Duration           9    8 Sep 2021 11:02:21.116    8 Sep 2021 11:32:12.803          1791.687
Mean Duration                                                                           1769.794
Total Duration                                                                         49554.245


Satellite510-To-Satellite304
----------------------------
                  Access       Start Time (UTCG)           Stop Time (UTCG)       Duration (sec)
                  ------    -----------------------    -----------------------    --------------
                       1    8 Sep 2021 04:07:56.262    8 Sep 2021 04:15:41.932           465.670
                       2    8 Sep 2021 05:00:27.848    8 Sep 2021 05:08:13.520           465.672
                       3    8 Sep 2021 05:52:59.435    8 Sep 2021 06:00:45.109           465.674
                       4    8 Sep 2021 06:45:31.023    8 Sep 2021 06:53:16.698           465.675
                       5    8 Sep 2021 07:38:02.611    8 Sep 2021 07:45:48.281           465.670
                       6    8 Sep 2021 08:30:34.199    8 Sep 2021 08:38:19.873           465.673
                       7    8 Sep 2021 09:23:05.788    8 Sep 2021 09:30:51.463           465.675
                       8    8 Sep 2021 10:15:37.377    8 Sep 2021 10:23:23.051           465.674
                       9    8 Sep 2021 11:08:08.969    8 Sep 2021 11:15:54.639           465.670
                      10    8 Sep 2021 12:00:40.555    8 Sep 2021 12:08:26.227           465.672
                      11    8 Sep 2021 12:53:12.142    8 Sep 2021 13:00:57.816           465.674
                      12    8 Sep 2021 13:45:43.730    8 Sep 2021 13:53:29.405           465.675
                      13    8 Sep 2021 14:38:15.319    8 Sep 2021 14:46:00.989           465.669
                      14    8 Sep 2021 15:30:46.907    8 Sep 2021 15:38:32.580           465.673
                      15    8 Sep 2021 16:23:18.495    8 Sep 2021 16:31:04.170           465.675
                      16    8 Sep 2021 17:15:50.087    8 Sep 2021 17:23:35.758           465.672
                      17    8 Sep 2021 18:08:21.676    8 Sep 2021 18:16:07.346           465.670
                      18    8 Sep 2021 19:00:53.262    8 Sep 2021 19:08:38.934           465.672
                      19    8 Sep 2021 19:53:24.849    8 Sep 2021 20:01:10.523           465.674
                      20    8 Sep 2021 20:45:56.437    8 Sep 2021 20:53:42.112           465.675
                      21    8 Sep 2021 21:38:28.030    8 Sep 2021 21:46:13.696           465.666
                      22    8 Sep 2021 22:30:59.614    8 Sep 2021 22:38:45.286           465.673
                      23    8 Sep 2021 23:23:31.203    8 Sep 2021 23:31:16.877           465.675
                      24    9 Sep 2021 00:16:02.794    9 Sep 2021 00:23:48.465           465.672
                      25    9 Sep 2021 01:08:34.383    9 Sep 2021 01:16:20.053           465.670
                      26    9 Sep 2021 02:01:05.969    9 Sep 2021 02:08:51.641           465.672
                      27    9 Sep 2021 02:53:37.556    9 Sep 2021 03:01:23.231           465.674
                      28    9 Sep 2021 03:46:09.144    9 Sep 2021 03:53:54.819           465.675

Min Duration          21    8 Sep 2021 21:38:28.030    8 Sep 2021 21:46:13.696           465.666
Max Duration           4    8 Sep 2021 06:45:31.023    8 Sep 2021 06:53:16.698           465.675
Mean Duration                                                                            465.673
Total Duration                                                                         13038.832


Satellite510-To-Satellite310
----------------------------
                  Access       Start Time (UTCG)           Stop Time (UTCG)       Duration (sec)
                  ------    -----------------------    -----------------------    --------------
                       1    8 Sep 2021 04:28:52.529    8 Sep 2021 04:36:46.936           474.407
                       2    8 Sep 2021 05:21:24.113    8 Sep 2021 05:29:18.524           474.411
                       3    8 Sep 2021 06:13:55.702    8 Sep 2021 06:21:50.111           474.409
                       4    8 Sep 2021 07:06:27.293    8 Sep 2021 07:14:21.700           474.407
                       5    8 Sep 2021 07:58:58.882    8 Sep 2021 08:06:53.289           474.407
                       6    8 Sep 2021 08:51:30.467    8 Sep 2021 08:59:24.878           474.411
                       7    8 Sep 2021 09:44:02.055    8 Sep 2021 09:51:56.466           474.411
                       8    8 Sep 2021 10:36:33.643    8 Sep 2021 10:44:28.051           474.408
                       9    8 Sep 2021 11:29:05.232    8 Sep 2021 11:36:59.643           474.411
                      10    8 Sep 2021 12:21:36.820    8 Sep 2021 12:29:31.231           474.411
                      11    8 Sep 2021 13:14:08.410    8 Sep 2021 13:22:02.818           474.409
                      12    8 Sep 2021 14:06:40.001    8 Sep 2021 14:14:34.407           474.407
                      13    8 Sep 2021 14:59:11.590    8 Sep 2021 15:07:05.996           474.406
                      14    8 Sep 2021 15:51:43.174    8 Sep 2021 15:59:37.580           474.406
                      15    8 Sep 2021 16:44:14.765    8 Sep 2021 16:52:09.169           474.403
                      16    8 Sep 2021 17:36:46.351    8 Sep 2021 17:44:40.760           474.409
                      17    8 Sep 2021 18:29:17.939    8 Sep 2021 18:37:12.350           474.411
                      18    8 Sep 2021 19:21:49.528    8 Sep 2021 19:29:43.938           474.411
                      19    8 Sep 2021 20:14:21.117    8 Sep 2021 20:22:15.525           474.408
                      20    8 Sep 2021 21:06:52.707    8 Sep 2021 21:14:47.115           474.408
                      21    8 Sep 2021 21:59:24.294    8 Sep 2021 22:07:18.704           474.410
                      22    8 Sep 2021 22:51:55.881    8 Sep 2021 22:59:50.290           474.409
                      23    8 Sep 2021 23:44:27.474    8 Sep 2021 23:52:21.876           474.402
                      24    9 Sep 2021 00:36:59.059    9 Sep 2021 00:44:53.469           474.410
                      25    9 Sep 2021 01:29:30.646    9 Sep 2021 01:37:25.057           474.411
                      26    9 Sep 2021 02:22:02.235    9 Sep 2021 02:29:56.645           474.410
                      27    9 Sep 2021 03:14:33.825    9 Sep 2021 03:22:28.233           474.408

Min Duration          23    8 Sep 2021 23:44:27.474    8 Sep 2021 23:52:21.876           474.402
Max Duration           9    8 Sep 2021 11:29:05.232    8 Sep 2021 11:36:59.643           474.411
Mean Duration                                                                            474.409
Total Duration                                                                         12809.031


Satellite510-To-Satellite401
----------------------------
                  Access       Start Time (UTCG)           Stop Time (UTCG)       Duration (sec)
                  ------    -----------------------    -----------------------    --------------
                       1    8 Sep 2021 04:00:00.000    9 Sep 2021 04:00:00.000         86400.000

Min Duration           1    8 Sep 2021 04:00:00.000    9 Sep 2021 04:00:00.000         86400.000
Max Duration           1    8 Sep 2021 04:00:00.000    9 Sep 2021 04:00:00.000         86400.000
Mean Duration                                                                          86400.000
Total Duration                                                                         86400.000


Satellite510-To-Satellite402
----------------------------
                  Access       Start Time (UTCG)           Stop Time (UTCG)       Duration (sec)
                  ------    -----------------------    -----------------------    --------------
                       1    8 Sep 2021 04:00:00.000    9 Sep 2021 04:00:00.000         86400.000

Min Duration           1    8 Sep 2021 04:00:00.000    9 Sep 2021 04:00:00.000         86400.000
Max Duration           1    8 Sep 2021 04:00:00.000    9 Sep 2021 04:00:00.000         86400.000
Mean Duration                                                                          86400.000
Total Duration                                                                         86400.000


Satellite510-To-Satellite410
----------------------------
                  Access       Start Time (UTCG)           Stop Time (UTCG)       Duration (sec)
                  ------    -----------------------    -----------------------    --------------
                       1    8 Sep 2021 04:00:00.000    9 Sep 2021 04:00:00.000         86400.000

Min Duration           1    8 Sep 2021 04:00:00.000    9 Sep 2021 04:00:00.000         86400.000
Max Duration           1    8 Sep 2021 04:00:00.000    9 Sep 2021 04:00:00.000         86400.000
Mean Duration                                                                          86400.000
Total Duration                                                                         86400.000


Satellite510-To-Satellite501
----------------------------
                  Access       Start Time (UTCG)           Stop Time (UTCG)       Duration (sec)
                  ------    -----------------------    -----------------------    --------------
                       1    8 Sep 2021 04:00:00.000    9 Sep 2021 04:00:00.000         86400.000

Min Duration           1    8 Sep 2021 04:00:00.000    9 Sep 2021 04:00:00.000         86400.000
Max Duration           1    8 Sep 2021 04:00:00.000    9 Sep 2021 04:00:00.000         86400.000
Mean Duration                                                                          86400.000
Total Duration                                                                         86400.000


Satellite510-To-Satellite509
----------------------------
                  Access       Start Time (UTCG)           Stop Time (UTCG)       Duration (sec)
