routing/visibility/v602.txt

Satellite602-To-Satellite101
----------------------------
                  Access       Start Time (UTCG)           Stop Time (UTCG)       Duration (sec)
                  ------    -----------------------    -----------------------    --------------
                       1    8 Sep 2021 04:08:01.618    8 Sep 2021 04:27:25.680          1164.062
                       2    8 Sep 2021 05:00:33.206    8 Sep 2021 05:19:57.270          1164.063
                       3    8 Sep 2021 05:53:04.794    8 Sep 2021 06:12:28.857          1164.064
                       4    8 Sep 2021 06:45:36.383    8 Sep 2021 07:05:00.446          1164.063
                       5    8 Sep 2021 07:38:07.972    8 Sep 2021 07:57:32.033          1164.061
                       6    8 Sep 2021 08:30:39.559    8 Sep 2021 08:50:03.621          1164.062
                       7    8 Sep 2021 09:23:11.148    8 Sep 2021 09:42:35.212          1164.063
                       8    8 Sep 2021 10:15:42.737    8 Sep 2021 10:35:06.799          1164.062
                       9    8 Sep 2021 11:08:14.323    8 Sep 2021 11:27:38.387          1164.064
                      10    8 Sep 2021 12:00:45.912    8 Sep 2021 12:20:09.976          1164.063
                      11    8 Sep 2021 12:53:17.502    8 Sep 2021 13:12:41.565          1164.063
                      12    8 Sep 2021 13:45:49.091    8 Sep 2021 14:05:13.154          1164.063
                      13    8 Sep 2021 14:38:20.678    8 Sep 2021 14:57:44.745          1164.067
                      14    8 Sep 2021 15:30:52.266    8 Sep 2021 15:50:16.330          1164.064
                      15    8 Sep 2021 16:23:23.856    8 Sep 2021 16:42:47.918          1164.063
                      16    8 Sep 2021 17:15:55.441    8 Sep 2021 17:35:19.506          1164.065
                      17    8 Sep 2021 18:08:27.031    8 Sep 2021 18:27:51.094          1164.063
                      18    8 Sep 2021 19:00:58.619    8 Sep 2021 19:20:22.684          1164.065
                      19    8 Sep 2021 19:53:30.209    8 Sep 2021 20:12:54.272          1164.062
                      20    8 Sep 2021 20:46:01.796    8 Sep 2021 21:05:25.860          1164.064
                      21    8 Sep 2021 21:38:33.385    8 Sep 2021 21:57:57.448          1164.063
                      22    8 Sep 2021 22:31:04.973    8 Sep 2021 22:50:29.037          1164.064
                      23    8 Sep 2021 23:23:36.563    8 Sep 2021 23:43:00.624          1164.061
                      24    9 Sep 2021 00:16:08.150    9 Sep 2021 00:35:32.217          1164.067
                      25    9 Sep 2021 01:08:39.739    9 Sep 2021 01:28:03.803          1164.064
                      26    9 Sep 2021 02:01:11.328    9 Sep 2021 02:20:35.391          1164.063
                      27    9 Sep 2021 02:53:42.914    9 Sep 2021 03:13:06.978          1164.064
                      28    9 Sep 2021 03:46:14.503    9 Sep 2021 04:00:00.000           825.497

Min Duration          28    9 Sep 2021 03:46:14.503    9 Sep 2021 04:00:00.000           825.497
Max Duration          24    9 Sep 2021 00:16:08.150    9 Sep 2021 00:35:32.217          1164.067
Mean Duration                                                                           1151.972
Total Duration                                                                         32255.211


Satellite602-To-Satellite102
----------------------------
                  Access       Start Time (UTCG)           Stop Time (UTCG)       Duration (sec)
                  ------    -----------------------    -----------------------    --------------
                       1    8 Sep 2021 04:08:57.669    8 Sep 2021 04:15:59.312           421.643
                       2    8 Sep 2021 05:01:29.257    8 Sep 2021 05:08:30.900           421.643
                       3    8 Sep 2021 05:54:00.845    8 Sep 2021 06:01:02.489           421.644
                       4    8 Sep 2021 06:46:32.436    8 Sep 2021 06:53:34.077           421.641
                       5    8 Sep 2021 07:39:04.022    8 Sep 2021 07:46:05.665           421.644
                       6    8 Sep 2021 08:31:35.612    8 Sep 2021 08:38:37.253           421.641
                       7    8 Sep 2021 09:24:07.198    8 Sep 2021 09:31:08.842           421.644
                       8    8 Sep 2021 10:16:38.791    8 Sep 2021 10:23:40.430           421.639
                       9    8 Sep 2021 11:09:10.375    8 Sep 2021 11:16:12.019           421.644
                      10    8 Sep 2021 12:01:41.967    8 Sep 2021 12:08:43.607           421.640
                      11    8 Sep 2021 12:54:13.552    8 Sep 2021 13:01:15.196           421.644
                      12    8 Sep 2021 13:46:45.143    8 Sep 2021 13:53:46.784           421.641
                      13    8 Sep 2021 14:39:16.729    8 Sep 2021 14:46:18.373           421.644
                      14    8 Sep 2021 15:31:48.319    8 Sep 2021 15:38:49.960           421.641
                      15    8 Sep 2021 16:24:19.906    8 Sep 2021 16:31:21.549           421.644
                      16    8 Sep 2021 17:16:51.495    8 Sep 2021 17:23:53.138           421.643
                      17    8 Sep 2021 18:09:23.083    8 Sep 2021 18:16:24.726           421.643
                      18    8 Sep 2021 19:01:54.671    8 Sep 2021 19:08:56.315           421.644
                      19    8 Sep 2021 19:54:26.262    8 Sep 2021 20:01:27.903           421.641
                      20    8 Sep 2021 20:46:57.847    8 Sep 2021 20:53:59.491           421.644
                      21    8 Sep 2021 21:39:29.438    8 Sep 2021 21:46:31.079           421.641
                      22    8 Sep 2021 22:32:01.024    8 Sep 2021 22:39:02.667           421.643
                      23    8 Sep 2021 23:24:32.617    8 Sep 2021 23:31:34.256           421.639
                      24    9 Sep 2021 00:17:04.201    9 Sep 2021 00:24:05.845           421.644
                      25    9 Sep 2021 01:09:35.793    9 Sep 2021 01:16:37.433           421.640
                      26    9 Sep 2021 02:02:07.378    9 Sep 2021 02:09:09.022           421.644
                      27    9 Sep 2021 02:54:38.969    9 Sep 2021 03:01:40.609           421.641
                      28    9 Sep 2021 03:47:10.555    9 Sep 2021 03:54:12.199           421.644

Min Duration           8    8 Sep 2021 10:16:38.791    8 Sep 2021 10:23:40.430           421.639
Max Duration           9    8 Sep 2021 11:09:10.375    8 Sep 2021 11:16:12.019           421.644
Mean Duration                                                                            421.642
Total Duration                                                                         11805.986


Satellite602-To-Satellite107
----------------------------
                  Access       Start Time (UTCG)           Stop Time (UTCG)       Duration (sec)
                  ------    -----------------------    -----------------------    --------------
                       1    8 Sep 2021 04:35:47.094    8 Sep 2021 04:41:41.478           354.385
                       2    8 Sep 2021 05:28:18.678    8 Sep 2021 05:34:13.067           354.388
                       3    8 Sep 2021 06:20:50.267    8 Sep 2021 06:26:44.652           354.385
                       4    8 Sep 2021 07:13:21.858    8 Sep 2021 07:19:16.243           354.385
                       5    8 Sep 2021 08:05:53.443    8 Sep 2021 08:11:47.832           354.389
                       6    8 Sep 2021 08:58:25.032    8 Sep 2021 09:04:19.418           354.386
                       7    8 Sep 2021 09:50:56.623    8 Sep 2021 09:56:51.007           354.385
                       8    8 Sep 2021 10:43:28.212    8 Sep 2021 10:49:22.597           354.385
                       9    8 Sep 2021 11:35:59.802    8 Sep 2021 11:41:54.185           354.384
                      10    8 Sep 2021 12:28:31.386    8 Sep 2021 12:34:25.771           354.385
                      11    8 Sep 2021 13:21:02.977    8 Sep 2021 13:26:57.362           354.385
                      12    8 Sep 2021 14:13:34.562    8 Sep 2021 14:19:28.951           354.389
                      13    8 Sep 2021 15:06:06.151    8 Sep 2021 15:12:00.537           354.386
                      14    8 Sep 2021 15:58:37.742    8 Sep 2021 16:04:32.126           354.385
                      15    8 Sep 2021 16:51:09.331    8 Sep 2021 16:57:03.716           354.385
                      16    8 Sep 2021 17:43:40.920    8 Sep 2021 17:49:35.304           354.384
                      17    8 Sep 2021 18:36:12.504    8 Sep 2021 18:42:06.889           354.385
                      18    8 Sep 2021 19:28:44.096    8 Sep 2021 19:34:38.481           354.385
                      19    8 Sep 2021 20:21:15.681    8 Sep 2021 20:27:10.070           354.389
                      20    8 Sep 2021 21:13:47.269    8 Sep 2021 21:19:41.655           354.386
                      21    8 Sep 2021 22:06:18.860    8 Sep 2021 22:12:13.245           354.385
                      22    8 Sep 2021 22:58:50.450    8 Sep 2021 23:04:44.835           354.385
                      23    8 Sep 2021 23:51:22.039    8 Sep 2021 23:57:16.423           354.384
                      24    9 Sep 2021 00:43:53.623    9 Sep 2021 00:49:48.008           354.385
                      25    9 Sep 2021 01:36:25.214    9 Sep 2021 01:42:19.599           354.385
                      26    9 Sep 2021 02:28:56.800    9 Sep 2021 02:34:51.188           354.389
                      27    9 Sep 2021 03:21:28.388    9 Sep 2021 03:27:22.774           354.386

Min Duration           9    8 Sep 2021 11:35:59.802    8 Sep 2021 11:41:54.185           354.384
Max Duration          26    9 Sep 2021 02:28:56.800    9 Sep 2021 02:34:51.188           354.389
Mean Duration                                                                            354.386
Total Duration                                                                          9568.410


Satellite602-To-Satellite108
----------------------------
                  Access       Start Time (UTCG)           Stop Time (UTCG)       Duration (sec)
                  ------    -----------------------    -----------------------    --------------
                       1    8 Sep 2021 04:23:56.663    8 Sep 2021 04:43:01.589          1144.927
                       2    8 Sep 2021 05:16:28.251    8 Sep 2021 05:35:33.178          1144.927
                       3    8 Sep 2021 06:08:59.837    8 Sep 2021 06:28:04.766          1144.929
                       4    8 Sep 2021 07:01:31.426    8 Sep 2021 07:20:36.355          1144.929
                       5    8 Sep 2021 07:54:03.014    8 Sep 2021 08:13:07.943          1144.929
                       6    8 Sep 2021 08:46:34.602    8 Sep 2021 09:05:39.531          1144.929
                       7    8 Sep 2021 09:39:06.191    8 Sep 2021 09:58:11.120          1144.929
                       8    8 Sep 2021 10:31:37.779    8 Sep 2021 10:50:42.708          1144.929
                       9    8 Sep 2021 11:24:09.368    8 Sep 2021 11:43:14.297          1144.929
                      10    8 Sep 2021 12:16:40.956    8 Sep 2021 12:35:45.885          1144.929
                      11    8 Sep 2021 13:09:12.544    8 Sep 2021 13:28:17.473          1144.929
                      12    8 Sep 2021 14:01:44.133    8 Sep 2021 14:20:49.062          1144.929
                      13    8 Sep 2021 14:54:15.721    8 Sep 2021 15:13:20.650          1144.929
                      14    8 Sep 2021 15:46:47.310    8 Sep 2021 16:05:52.239          1144.929
                      15    8 Sep 2021 16:39:18.898    8 Sep 2021 16:58:23.827          1144.929
                      16    8 Sep 2021 17:31:50.486    8 Sep 2021 17:50:55.415          1144.929
                      17    8 Sep 2021 18:24:22.075    8 Sep 2021 18:43:27.004          1144.929
                      18    8 Sep 2021 19:16:53.663    8 Sep 2021 19:35:58.592          1144.929
                      19    8 Sep 2021 20:09:25.252    8 Sep 2021 20:28:30.181          1144.929
                      20    8 Sep 2021 21:01:56.840    8 Sep 2021 21:21:01.769          1144.929
                      21    8 Sep 2021 21:54:28.428    8 Sep 2021 22:13:33.357          1144.929
                      22    8 Sep 2021 22:47:00.017    8 Sep 2021 23:06:04.946          1144.929
                      23    8 Sep 2021 23:39:31.605    8 Sep 2021 23:58:36.534          1144.929
                      24    9 Sep 2021 00:32:03.194    9 Sep 2021 00:51:08.123          1144.929
                      25    9 Sep 2021 01:24:34.782    9 Sep 2021 01:43:39.711          1144.929
                      26    9 Sep 2021 02:17:06.370    9 Sep 2021 02:36:11.299          1144.929
                      27    9 Sep 2021 03:09:37.959    9 Sep 2021 03:28:42.888          1144.929

Min Duration           1    8 Sep 2021 04:23:56.663    8 Sep 2021 04:43:01.589          1144.927
Max Duration           3    8 Sep 2021 06:08:59.837    8 Sep 2021 06:28:04.766          1144.929
Mean Duration                                                                           1144.929
Total Duration                                                                         30913.079


Satellite602-To-Satellite109
----------------------------
                  Access       Start Time (UTCG)           Stop Time (UTCG)       Duration (sec)
                  ------    -----------------------    -----------------------    --------------
                       1    8 Sep 2021 04:15:51.335    8 Sep 2021 04:40:36.595          1485.260
                       2    8 Sep 2021 05:08:22.927    8 Sep 2021 05:33:08.186          1485.259
                       3    8 Sep 2021 06:00:54.511    8 Sep 2021 06:25:39.771          1485.259
                       4    8 Sep 2021 06:53:26.103    8 Sep 2021 07:18:11.363          1485.260
                       5    8 Sep 2021 07:45:57.692    8 Sep 2021 08:10:42.947          1485.256
                       6    8 Sep 2021 08:38:29.279    8 Sep 2021 09:03:14.539          1485.260
                       7    8 Sep 2021 09:31:00.869    8 Sep 2021 09:55:46.124          1485.255
                       8    8 Sep 2021 10:23:32.456    8 Sep 2021 10:48:17.716          1485.260
                       9    8 Sep 2021 11:16:04.046    8 Sep 2021 11:40:49.301          1485.254
                      10    8 Sep 2021 12:08:35.633    8 Sep 2021 12:33:20.893          1485.260
                      11    8 Sep 2021 13:01:07.223    8 Sep 2021 13:25:52.478          1485.254
                      12    8 Sep 2021 13:53:38.810    8 Sep 2021 14:18:24.070          1485.260
                      13    8 Sep 2021 14:46:10.400    8 Sep 2021 15:10:55.654          1485.254
                      14    8 Sep 2021 15:38:41.987    8 Sep 2021 16:03:27.246          1485.260
                      15    8 Sep 2021 16:31:13.577    8 Sep 2021 16:55:58.831          1485.254
                      16    8 Sep 2021 17:23:45.163    8 Sep 2021 17:48:30.423          1485.260
                      17    8 Sep 2021 18:16:16.754    8 Sep 2021 18:41:02.008          1485.254
                      18    8 Sep 2021 19:08:48.340    8 Sep 2021 19:33:33.600          1485.260
                      19    8 Sep 2021 20:01:19.931    8 Sep 2021 20:26:05.185          1485.254
                      20    8 Sep 2021 20:53:51.517    8 Sep 2021 21:18:36.777          1485.260
                      21    8 Sep 2021 21:46:23.107    8 Sep 2021 22:11:08.362          1485.254
                      22    8 Sep 2021 22:38:54.694    8 Sep 2021 23:03:39.954          1485.260
                      23    8 Sep 2021 23:31:26.284    8 Sep 2021 23:56:11.538          1485.254
                      24    9 Sep 2021 00:23:57.870    9 Sep 2021 00:48:43.130          1485.260
                      25    9 Sep 2021 01:16:29.461    9 Sep 2021 01:41:14.715          1485.254
                      26    9 Sep 2021 02:09:01.047    9 Sep 2021 02:33:46.307          1485.260
                      27    9 Sep 2021 03:01:32.638    9 Sep 2021 03:26:17.892          1485.254
                      28    9 Sep 2021 03:54:04.224    9 Sep 2021 04:00:00.000           355.776

Min Duration          28    9 Sep 2021 03:54:04.224    9 Sep 2021 04:00:00.000           355.776
Max Duration          16    8 Sep 2021 17:23:45.163    8 Sep 2021 17:48:30.423          1485.260
Mean Duration                                                                           1444.919
Total Duration                                                                         40457.725


Satellite602-To-Satellite110
----------------------------
                  Access       Start Time (UTCG)           Stop Time (UTCG)       Duration (sec)
                  ------    -----------------------    -----------------------    --------------
                       1    8 Sep 2021 04:10:33.189    8 Sep 2021 04:35:24.423          1491.234
                       2    8 Sep 2021 05:03:04.781    8 Sep 2021 05:27:56.015          1491.234
                       3    8 Sep 2021 05:55:36.365    8 Sep 2021 06:20:27.599          1491.234
                       4    8 Sep 2021 06:48:07.958    8 Sep 2021 07:12:59.192          1491.234
                       5    8 Sep 2021 07:40:39.542    8 Sep 2021 08:05:30.776          1491.234
                       6    8 Sep 2021 08:33:11.134    8 Sep 2021 08:58:02.368          1491.234
                       7    8 Sep 2021 09:25:42.719    8 Sep 2021 09:50:33.953          1491.234
                       8    8 Sep 2021 10:18:14.311    8 Sep 2021 10:43:05.545          1491.234
                       9    8 Sep 2021 11:10:45.896    8 Sep 2021 11:35:37.130          1491.234
                      10    8 Sep 2021 12:03:17.488    8 Sep 2021 12:28:08.722          1491.234
                      11    8 Sep 2021 12:55:49.073    8 Sep 2021 13:20:40.306          1491.234
                      12    8 Sep 2021 13:48:20.665    8 Sep 2021 14:13:11.899          1491.234
                      13    8 Sep 2021 14:40:52.249    8 Sep 2021 15:05:43.483          1491.234
                      14    8 Sep 2021 15:33:23.842    8 Sep 2021 15:58:15.076          1491.234
                      15    8 Sep 2021 16:25:55.426    8 Sep 2021 16:50:46.660          1491.234
                      16    8 Sep 2021 17:18:27.018    8 Sep 2021 17:43:18.252          1491.234
                      17    8 Sep 2021 18:10:58.603    8 Sep 2021 18:35:49.837          1491.234
                      18    8 Sep 2021 19:03:30.195    8 Sep 2021 19:28:21.429          1491.234
                      19    8 Sep 2021 19:56:01.780    8 Sep 2021 20:20:53.014          1491.234
                      20    8 Sep 2021 20:48:33.372    8 Sep 2021 21:13:24.606          1491.234
                      21    8 Sep 2021 21:41:04.957    8 Sep 2021 22:05:56.190          1491.234
                      22    8 Sep 2021 22:33:36.549    8 Sep 2021 22:58:27.783          1491.234
                      23    8 Sep 2021 23:26:08.133    8 Sep 2021 23:50:59.367          1491.234
                      24    9 Sep 2021 00:18:39.726    9 Sep 2021 00:43:30.960          1491.234
                      25    9 Sep 2021 01:11:11.310    9 Sep 2021 01:36:02.544          1491.234
                      26    9 Sep 2021 02:03:42.902    9 Sep 2021 02:28:34.136          1491.234
                      27    9 Sep 2021 02:56:14.487    9 Sep 2021 03:21:05.721          1491.234
                      28    9 Sep 2021 03:48:46.079    9 Sep 2021 04:00:00.000           673.921

Min Duration          28    9 Sep 2021 03:48:46.079    9 Sep 2021 04:00:00.000           673.921
Max Duration          18    8 Sep 2021 19:03:30.195    8 Sep 2021 19:28:21.429          1491.234
Mean Duration                                                                           1462.044
Total Duration                                                                         40937.238


Satellite602-To-Satellite205
----------------------------
                  Access       Start Time (UTCG)           Stop Time (UTCG)       Duration (sec)
                  ------    -----------------------    -----------------------    --------------
                       1    8 Sep 2021 04:00:00.000    8 Sep 2021 04:01:34.259            94.259
                       2    8 Sep 2021 04:43:04.569    8 Sep 2021 04:54:05.847           661.278
                       3    8 Sep 2021 05:35:36.157    8 Sep 2021 05:46:37.433           661.276
                       4    8 Sep 2021 06:28:07.744    8 Sep 2021 06:39:09.023           661.279
                       5    8 Sep 2021 07:20:39.332    8 Sep 2021 07:31:40.614           661.283
                       6    8 Sep 2021 08:13:10.919    8 Sep 2021 08:24:12.202           661.284
                       7    8 Sep 2021 09:05:42.506    8 Sep 2021 09:16:43.790           661.284
                       8    8 Sep 2021 09:58:14.099    8 Sep 2021 10:09:15.378           661.279
                       9    8 Sep 2021 10:50:45.688    8 Sep 2021 11:01:46.966           661.278
                      10    8 Sep 2021 11:43:17.276    8 Sep 2021 11:54:18.554           661.278
                      11    8 Sep 2021 12:35:48.864    8 Sep 2021 12:46:50.140           661.276
                      12    8 Sep 2021 13:28:20.452    8 Sep 2021 13:39:21.729           661.277
                      13    8 Sep 2021 14:20:52.039    8 Sep 2021 14:31:53.322           661.283
                      14    8 Sep 2021 15:13:23.626    8 Sep 2021 15:24:24.910           661.284
                      15    8 Sep 2021 16:05:55.214    8 Sep 2021 16:16:56.497           661.284
                      16    8 Sep 2021 16:58:26.804    8 Sep 2021 17:09:28.085           661.281
                      17    8 Sep 2021 17:50:58.395    8 Sep 2021 18:01:59.673           661.278
                      18    8 Sep 2021 18:43:29.983    8 Sep 2021 18:54:31.261           661.278
                      19    8 Sep 2021 19:36:01.571    8 Sep 2021 19:47:02.847           661.276
                      20    8 Sep 2021 20:28:33.159    8 Sep 2021 20:39:34.440           661.281
                      21    8 Sep 2021 21:21:04.746    8 Sep 2021 21:32:06.029           661.282
                      22    8 Sep 2021 22:13:36.333    8 Sep 2021 22:24:37.617           661.283
                      23    8 Sep 2021 23:06:07.921    8 Sep 2021 23:17:09.205           661.284
                      24    8 Sep 2021 23:58:39.509    9 Sep 2021 00:09:40.792           661.283
                      25    9 Sep 2021 00:51:11.102    9 Sep 2021 01:02:12.380           661.278
                      26    9 Sep 2021 01:43:42.690    9 Sep 2021 01:54:43.968           661.278
                      27    9 Sep 2021 02:36:14.279    9 Sep 2021 02:47:15.555           661.276
                      28    9 Sep 2021 03:28:45.866    9 Sep 2021 03:39:47.143           661.277

Min Duration           1    8 Sep 2021 04:00:00.000    8 Sep 2021 04:01:34.259            94.259
Max Duration          23    8 Sep 2021 23:06:07.921    8 Sep 2021 23:17:09.205           661.284
Mean Duration                                                                            641.029
Total Duration                                                                         17948.815


Satellite602-To-Satellite206
----------------------------
                  Access       Start Time (UTCG)           Stop Time (UTCG)       Duration (sec)
                  ------    -----------------------    -----------------------    --------------
                       1    8 Sep 2021 04:00:00.000    8 Sep 2021 04:00:10.205            10.205
                       2    8 Sep 2021 04:33:58.302    8 Sep 2021 04:52:41.797          1123.495
                       3    8 Sep 2021 05:26:29.887    8 Sep 2021 05:45:13.384          1123.497
                       4    8 Sep 2021 06:19:01.480    8 Sep 2021 06:37:44.971          1123.491
                       5    8 Sep 2021 07:11:33.068    8 Sep 2021 07:30:16.558          1123.490
                       6    8 Sep 2021 08:04:04.655    8 Sep 2021 08:22:48.148          1123.493
                       7    8 Sep 2021 08:56:36.241    8 Sep 2021 09:15:19.740          1123.498
                       8    8 Sep 2021 09:49:07.829    8 Sep 2021 10:07:51.326          1123.497
                       9    8 Sep 2021 10:41:39.422    8 Sep 2021 11:00:22.913          1123.491
                      10    8 Sep 2021 11:34:11.010    8 Sep 2021 11:52:54.500          1123.490
                      11    8 Sep 2021 12:26:42.597    8 Sep 2021 12:45:26.090          1123.494
                      12    8 Sep 2021 13:19:14.183    8 Sep 2021 13:37:57.682          1123.499
                      13    8 Sep 2021 14:11:45.771    8 Sep 2021 14:30:29.268          1123.497
                      14    8 Sep 2021 15:04:17.364    8 Sep 2021 15:23:00.855          1123.491
                      15    8 Sep 2021 15:56:48.952    8 Sep 2021 16:15:32.442          1123.490
                      16    8 Sep 2021 16:49:20.538    8 Sep 2021 17:08:04.032          1123.494
                      17    8 Sep 2021 17:41:52.124    8 Sep 2021 18:00:35.624          1123.499
                      18    8 Sep 2021 18:34:23.713    8 Sep 2021 18:53:07.210          1123.497
                      19    8 Sep 2021 19:26:55.306    8 Sep 2021 19:45:38.797          1123.491
                      20    8 Sep 2021 20:19:26.894    8 Sep 2021 20:38:10.384          1123.490
                      21    8 Sep 2021 21:11:58.480    8 Sep 2021 21:30:41.974          1123.494
                      22    8 Sep 2021 22:04:30.066    8 Sep 2021 22:23:13.566          1123.499
                      23    8 Sep 2021 22:57:01.655    8 Sep 2021 23:15:45.152          1123.497
                      24    8 Sep 2021 23:49:33.248    9 Sep 2021 00:08:16.739          1123.491
                      25    9 Sep 2021 00:42:04.836    9 Sep 2021 01:00:48.326          1123.490
                      26    9 Sep 2021 01:34:36.422    9 Sep 2021 01:53:19.916          1123.494
                      27    9 Sep 2021 02:27:08.008    9 Sep 2021 02:45:51.508          1123.499
                      28    9 Sep 2021 03:19:39.597    9 Sep 2021 03:38:23.094          1123.497

Min Duration           1    8 Sep 2021 04:00:00.000    8 Sep 2021 04:00:10.205            10.205
Max Duration          27    9 Sep 2021 02:27:08.008    9 Sep 2021 02:45:51.508          1123.499
Mean Duration                                                                           1083.734
Total Duration                                                                         30344.550


Satellite602-To-Satellite207
----------------------------
                  Access       Start Time (UTCG)           Stop Time (UTCG)       Duration (sec)
                  ------    -----------------------    -----------------------    --------------
                       1    8 Sep 2021 04:26:46.086    8 Sep 2021 04:49:23.696          1357.610
                       2    8 Sep 2021 05:19:17.674    8 Sep 2021 05:41:55.284          1357.610
                       3    8 Sep 2021 06:11:49.263    8 Sep 2021 06:34:26.873          1357.610
                       4    8 Sep 2021 07:04:20.851    8 Sep 2021 07:26:58.461          1357.610
                       5    8 Sep 2021 07:56:52.439    8 Sep 2021 08:19:30.050          1357.610
                       6    8 Sep 2021 08:49:24.028    8 Sep 2021 09:12:01.638          1357.610
                       7    8 Sep 2021 09:41:55.616    8 Sep 2021 10:04:33.226          1357.610
                       8    8 Sep 2021 10:34:27.205    8 Sep 2021 10:57:04.815          1357.610
                       9    8 Sep 2021 11:26:58.793    8 Sep 2021 11:49:36.403          1357.610
                      10    8 Sep 2021 12:19:30.381    8 Sep 2021 12:42:07.992          1357.610
                      11    8 Sep 2021 13:12:01.970    8 Sep 2021 13:34:39.580          1357.610
                      12    8 Sep 2021 14:04:33.558    8 Sep 2021 14:27:11.168          1357.610
                      13    8 Sep 2021 14:57:05.147    8 Sep 2021 15:19:42.757          1357.610
                      14    8 Sep 2021 15:49:36.735    8 Sep 2021 16:12:14.345          1357.610
                      15    8 Sep 2021 16:42:08.323    8 Sep 2021 17:04:45.933          1357.610
                      16    8 Sep 2021 17:34:39.912    8 Sep 2021 17:57:17.522          1357.610
                      17    8 Sep 2021 18:27:11.500    8 Sep 2021 18:49:49.110          1357.610
                      18    8 Sep 2021 19:19:43.089    8 Sep 2021 19:42:20.699          1357.610
                      19    8 Sep 2021 20:12:14.677    8 Sep 2021 20:34:52.287          1357.610
                      20    8 Sep 2021 21:04:46.265    8 Sep 2021 21:27:23.875          1357.610
                      21    8 Sep 2021 21:57:17.854    8 Sep 2021 22:19:55.464          1357.610
                      22    8 Sep 2021 22:49:49.442    8 Sep 2021 23:12:27.052          1357.610
                      23    8 Sep 2021 23:42:21.030    9 Sep 2021 00:04:58.641          1357.610
                      24    9 Sep 2021 00:34:52.619    9 Sep 2021 00:57:30.229          1357.610
                      25    9 Sep 2021 01:27:24.207    9 Sep 2021 01:50:01.817          1357.610
                      26    9 Sep 2021 02:19:55.796    9 Sep 2021 02:42:33.406          1357.610
                      27    9 Sep 2021 03:12:27.384    9 Sep 2021 03:35:04.994          1357.610

Min Duration          21    8 Sep 2021 21:57:17.854    8 Sep 2021 22:19:55.464          1357.610
Max Duration           1    8 Sep 2021 04:26:46.086    8 Sep 2021 04:49:23.696          1357.610
Mean Duration                                                                           1357.610
Total Duration                                                                         36655.474


Satellite602-To-Satellite208
----------------------------
                  Access       Start Time (UTCG)           Stop Time (UTCG)       Duration (sec)
                  ------    -----------------------    -----------------------    --------------
                       1    8 Sep 2021 04:21:30.919    8 Sep 2021 04:44:08.539          1357.620
                       2    8 Sep 2021 05:14:02.511    8 Sep 2021 05:36:40.130          1357.620
                       3    8 Sep 2021 06:06:34.099    8 Sep 2021 06:29:11.719          1357.620
                       4    8 Sep 2021 06:59:05.687    8 Sep 2021 07:21:43.307          1357.620
                       5    8 Sep 2021 07:51:37.276    8 Sep 2021 08:14:14.895          1357.620
                       6    8 Sep 2021 08:44:08.864    8 Sep 2021 09:06:46.484          1357.620
                       7    8 Sep 2021 09:36:40.453    8 Sep 2021 09:59:18.072          1357.620
                       8    8 Sep 2021 10:29:12.041    8 Sep 2021 10:51:49.661          1357.620
                       9    8 Sep 2021 11:21:43.629    8 Sep 2021 11:44:21.249          1357.620
                      10    8 Sep 2021 12:14:15.218    8 Sep 2021 12:36:52.837          1357.620
                      11    8 Sep 2021 13:06:46.806    8 Sep 2021 13:29:24.426          1357.620
                      12    8 Sep 2021 13:59:18.395    8 Sep 2021 14:21:56.014          1357.620
                      13    8 Sep 2021 14:51:49.983    8 Sep 2021 15:14:27.603          1357.620
                      14    8 Sep 2021 15:44:21.571    8 Sep 2021 16:06:59.191          1357.620
                      15    8 Sep 2021 16:36:53.160    8 Sep 2021 16:59:30.779          1357.620
                      16    8 Sep 2021 17:29:24.748    8 Sep 2021 17:52:02.368          1357.620
                      17    8 Sep 2021 18:21:56.337    8 Sep 2021 18:44:33.956          1357.620
                      18    8 Sep 2021 19:14:27.925    8 Sep 2021 19:37:05.545          1357.620
                      19    8 Sep 2021 20:06:59.513    8 Sep 2021 20:29:37.133          1357.620
                      20    8 Sep 2021 20:59:31.102    8 Sep 2021 21:22:08.721          1357.620
                      21    8 Sep 2021 21:52:02.690    8 Sep 2021 22:14:40.310          1357.620
                      22    8 Sep 2021 22:44:34.279    8 Sep 2021 23:07:11.898          1357.620
                      23    8 Sep 2021 23:37:05.867    8 Sep 2021 23:59:43.487          1357.620
                      24    9 Sep 2021 00:29:37.455    9 Sep 2021 00:52:15.075          1357.620
                      25    9 Sep 2021 01:22:09.044    9 Sep 2021 01:44:46.663          1357.620
                      26    9 Sep 2021 02:14:40.632    9 Sep 2021 02:37:18.252          1357.620
                      27    9 Sep 2021 03:07:12.220    9 Sep 2021 03:29:49.840          1357.620
                      28    9 Sep 2021 03:59:43.805    9 Sep 2021 04:00:00.000            16.195

Min Duration          28    9 Sep 2021 03:59:43.805    9 Sep 2021 04:00:00.000            16.195
Max Duration           1    8 Sep 2021 04:21:30.919    8 Sep 2021 04:44:08.539          1357.620
Mean Duration                                                                           1309.712
Total Duration                                                                         36671.926


Satellite602-To-Satellite209
----------------------------
                  Access       Start Time (UTCG)           Stop Time (UTCG)       Duration (sec)
                  ------    -----------------------    -----------------------    --------------
                       1    8 Sep 2021 04:18:12.813    8 Sep 2021 04:36:56.333          1123.520
                       2    8 Sep 2021 05:10:44.401    8 Sep 2021 05:29:27.919          1123.519
                       3    8 Sep 2021 06:03:15.989    8 Sep 2021 06:21:59.507          1123.518
                       4    8 Sep 2021 06:55:47.577    8 Sep 2021 07:14:31.099          1123.522
                       5    8 Sep 2021 07:48:19.163    8 Sep 2021 08:07:02.687          1123.524
                       6    8 Sep 2021 08:40:50.755    8 Sep 2021 08:59:34.273          1123.518
                       7    8 Sep 2021 09:33:22.344    8 Sep 2021 09:52:05.860          1123.517
                       8    8 Sep 2021 10:25:53.930    8 Sep 2021 10:44:37.450          1123.520
                       9    8 Sep 2021 11:18:25.517    8 Sep 2021 11:37:09.042          1123.525
                      10    8 Sep 2021 12:10:57.104    8 Sep 2021 12:29:40.628          1123.524
                      11    8 Sep 2021 13:03:28.697    8 Sep 2021 13:22:12.215          1123.518
                      12    8 Sep 2021 13:56:00.286    8 Sep 2021 14:14:43.802          1123.517
                      13    8 Sep 2021 14:48:31.872    8 Sep 2021 15:07:15.392          1123.521
                      14    8 Sep 2021 15:41:03.458    8 Sep 2021 15:59:46.984          1123.526
                      15    8 Sep 2021 16:33:35.046    8 Sep 2021 16:52:18.570          1123.524
                      16    8 Sep 2021 17:26:06.639    8 Sep 2021 17:44:50.157          1123.518
                      17    8 Sep 2021 18:18:38.228    8 Sep 2021 18:37:21.744          1123.517
                      18    8 Sep 2021 19:11:09.814    8 Sep 2021 19:29:53.334          1123.521
                      19    8 Sep 2021 20:03:41.400    8 Sep 2021 20:22:24.926          1123.526
                      20    8 Sep 2021 20:56:12.988    8 Sep 2021 21:14:56.512          1123.524
                      21    8 Sep 2021 21:48:44.581    8 Sep 2021 22:07:28.099          1123.518
                      22    8 Sep 2021 22:41:16.169    8 Sep 2021 22:59:59.686          1123.517
                      23    8 Sep 2021 23:33:47.756    8 Sep 2021 23:52:31.276          1123.521
                      24    9 Sep 2021 00:26:19.342    9 Sep 2021 00:45:02.868          1123.526
                      25    9 Sep 2021 01:18:50.930    9 Sep 2021 01:37:34.454          1123.524
                      26    9 Sep 2021 02:11:22.523    9 Sep 2021 02:30:06.041          1123.518
                      27    9 Sep 2021 03:03:54.111    9 Sep 2021 03:22:37.628          1123.517
                      28    9 Sep 2021 03:56:25.698    9 Sep 2021 04:00:00.000           214.302

Min Duration          28    9 Sep 2021 03:56:25.698    9 Sep 2021 04:00:00.000           214.302
Max Duration          24    9 Sep 2021 00:26:19.342    9 Sep 2021 00:45:02.868          1123.526
Mean Duration                                                                           1091.049
Total Duration                                                                         30549.359


Satellite602-To-Satellite210
----------------------------
                  Access       Start Time (UTCG)           Stop Time (UTCG)       Duration (sec)
                  ------    -----------------------    -----------------------    --------------
                       1    8 Sep 2021 04:16:48.750    8 Sep 2021 04:27:50.077           661.327
                       2    8 Sep 2021 05:09:20.338    8 Sep 2021 05:20:21.665           661.327
                       3    8 Sep 2021 06:01:51.927    8 Sep 2021 06:12:53.252           661.325
                       4    8 Sep 2021 06:54:23.514    8 Sep 2021 07:05:24.842           661.328
                       5    8 Sep 2021 07:46:55.102    8 Sep 2021 07:57:56.433           661.331
                       6    8 Sep 2021 08:39:26.689    8 Sep 2021 08:50:28.021           661.332
                       7    8 Sep 2021 09:31:58.276    8 Sep 2021 09:42:59.609           661.332
                       8    8 Sep 2021 10:24:29.868    8 Sep 2021 10:35:31.196           661.328
                       9    8 Sep 2021 11:17:01.458    8 Sep 2021 11:28:02.784           661.327
                      10    8 Sep 2021 12:09:33.046    8 Sep 2021 12:20:34.372           661.327
                      11    8 Sep 2021 13:02:04.634    8 Sep 2021 13:13:05.959           661.325
                      12    8 Sep 2021 13:54:36.221    8 Sep 2021 14:05:37.547           661.326
                      13    8 Sep 2021 14:47:07.809    8 Sep 2021 14:58:09.140           661.331
                      14    8 Sep 2021 15:39:39.396    8 Sep 2021 15:50:40.728           661.332
                      15    8 Sep 2021 16:32:10.983    8 Sep 2021 16:43:12.316           661.332
                      16    8 Sep 2021 17:24:42.573    8 Sep 2021 17:35:43.904           661.330
                      17    8 Sep 2021 18:17:14.165    8 Sep 2021 18:28:15.492           661.327
                      18    8 Sep 2021 19:09:45.753    8 Sep 2021 19:20:47.080           661.327
                      19    8 Sep 2021 20:02:17.341    8 Sep 2021 20:13:18.666           661.325
                      20    8 Sep 2021 20:54:48.929    8 Sep 2021 21:05:50.259           661.330
                      21    8 Sep 2021 21:47:20.516    8 Sep 2021 21:58:21.847           661.331
                      22    8 Sep 2021 22:39:52.103    8 Sep 2021 22:50:53.435           661.332
                      23    8 Sep 2021 23:32:23.691    8 Sep 2021 23:43:25.023           661.332
                      24    9 Sep 2021 00:24:55.279    9 Sep 2021 00:35:56.611           661.332
                      25    9 Sep 2021 01:17:26.872    9 Sep 2021 01:28:28.199           661.327
                      26    9 Sep 2021 02:09:58.460    9 Sep 2021 02:20:59.787           661.327
                      27    9 Sep 2021 03:02:30.048    9 Sep 2021 03:13:31.373           661.325
                      28    9 Sep 2021 03:55:01.636    9 Sep 2021 04:00:00.000           298.364

Min Duration          28    9 Sep 2021 03:55:01.636    9 Sep 2021 04:00:00.000           298.364
Max Duration          23    8 Sep 2021 23:32:23.691    8 Sep 2021 23:43:25.023           661.332
Mean Duration                                                                            648.366
Total Duration                                                                         18154.239


Satellite602-To-Satellite303
----------------------------
                  Access       Start Time (UTCG)           Stop Time (UTCG)       Duration (sec)
                  ------    -----------------------    -----------------------    --------------
                       1    8 Sep 2021 04:02:23.776    8 Sep 2021 04:09:25.309           421.533
                       2    8 Sep 2021 04:54:55.361    8 Sep 2021 05:01:56.898           421.537
                       3    8 Sep 2021 05:47:26.952    8 Sep 2021 05:54:28.486           421.534
                       4    8 Sep 2021 06:39:58.538    8 Sep 2021 06:47:00.075           421.537
                       5    8 Sep 2021 07:32:30.128    8 Sep 2021 07:39:31.663           421.535
                       6    8 Sep 2021 08:25:01.715    8 Sep 2021 08:32:03.252           421.536
                       7    8 Sep 2021 09:17:33.304    8 Sep 2021 09:24:34.840           421.536
                       8    8 Sep 2021 10:10:04.895    8 Sep 2021 10:17:06.428           421.534
                       9    8 Sep 2021 11:02:36.480    8 Sep 2021 11:09:38.017           421.537
                      10    8 Sep 2021 11:55:08.071    8 Sep 2021 12:02:09.605           421.534
                      11    8 Sep 2021 12:47:39.657    8 Sep 2021 12:54:41.194           421.537
                      12    8 Sep 2021 13:40:11.250    8 Sep 2021 13:47:12.782           421.532
                      13    8 Sep 2021 14:32:42.833    8 Sep 2021 14:39:44.368           421.535
                      14    8 Sep 2021 15:25:14.426    8 Sep 2021 15:32:15.958           421.533
                      15    8 Sep 2021 16:17:46.010    8 Sep 2021 16:24:47.547           421.537
                      16    8 Sep 2021 17:10:17.602    8 Sep 2021 17:17:19.135           421.533
                      17    8 Sep 2021 18:02:49.187    8 Sep 2021 18:09:50.724           421.537
                      18    8 Sep 2021 18:55:20.778    8 Sep 2021 19:02:22.312           421.534
                      19    8 Sep 2021 19:47:52.364    8 Sep 2021 19:54:53.901           421.537
                      20    8 Sep 2021 20:40:23.954    8 Sep 2021 20:47:25.489           421.535
                      21    8 Sep 2021 21:32:55.541    8 Sep 2021 21:39:57.078           421.536
                      22    8 Sep 2021 22:25:27.130    8 Sep 2021 22:32:28.666           421.536
                      23    8 Sep 2021 23:17:58.721    8 Sep 2021 23:25:00.254           421.534
                      24    9 Sep 2021 00:10:30.306    9 Sep 2021 00:17:31.843           421.537
                      25    9 Sep 2021 01:03:01.897    9 Sep 2021 01:10:03.431           421.534
                      26    9 Sep 2021 01:55:33.483    9 Sep 2021 02:02:35.020           421.537
                      27    9 Sep 2021 02:48:05.076    9 Sep 2021 02:55:06.608           421.532
                      28    9 Sep 2021 03:40:36.659    9 Sep 2021 03:47:38.194           421.534

Min Duration          12    8 Sep 2021 13:40:11.250    8 Sep 2021 13:47:12.782           421.532
Max Duration          26    9 Sep 2021 01:55:33.483    9 Sep 2021 02:02:35.020           421.537
Mean Duration                                                                            421.535
Total Duration                                                                         11802.982


Satellite602-To-Satellite304
----------------------------
                  Access       Start Time (UTCG)           Stop Time (UTCG)       Duration (sec)
                  ------    -----------------------    -----------------------    --------------
                       1    8 Sep 2021 04:00:00.000    8 Sep 2021 04:10:21.398           621.398
                       2    8 Sep 2021 04:43:28.959    8 Sep 2021 05:02:52.984          1164.024
                       3    8 Sep 2021 05:36:00.548    8 Sep 2021 05:55:24.574          1164.027
                       4    8 Sep 2021 06:28:32.133    8 Sep 2021 06:47:56.161          1164.028
                       5    8 Sep 2021 07:21:03.725    8 Sep 2021 07:40:27.749          1164.025
                       6    8 Sep 2021 08:13:35.309    8 Sep 2021 08:32:59.336          1164.027
                       7    8 Sep 2021 09:06:06.900    8 Sep 2021 09:25:30.925          1164.025
                       8    8 Sep 2021 09:58:38.488    8 Sep 2021 10:18:02.515          1164.027
                       9    8 Sep 2021 10:51:10.078    8 Sep 2021 11:10:34.102          1164.024
                      10    8 Sep 2021 11:43:41.664    8 Sep 2021 12:03:05.690          1164.026
                      11    8 Sep 2021 12:36:13.253    8 Sep 2021 12:55:37.279          1164.025
                      12    8 Sep 2021 13:28:44.843    8 Sep 2021 13:48:08.868          1164.025
                      13    8 Sep 2021 14:21:16.432    8 Sep 2021 14:40:40.457          1164.025
                      14    8 Sep 2021 15:13:48.019    8 Sep 2021 15:33:12.048          1164.029
                      15    8 Sep 2021 16:06:19.607    8 Sep 2021 16:25:43.633          1164.026
                      16    8 Sep 2021 16:58:51.197    8 Sep 2021 17:18:15.221          1164.024
                      17    8 Sep 2021 17:51:22.783    8 Sep 2021 18:10:46.809          1164.026
                      18    8 Sep 2021 18:43:54.372    8 Sep 2021 19:03:18.397          1164.025
                      19    8 Sep 2021 19:36:25.961    8 Sep 2021 19:55:49.987          1164.027
                      20    8 Sep 2021 20:28:57.551    8 Sep 2021 20:48:21.575          1164.024
                      21    8 Sep 2021 21:21:29.137    8 Sep 2021 21:40:53.163          1164.026
                      22    8 Sep 2021 22:14:00.726    8 Sep 2021 22:33:24.751          1164.025
                      23    8 Sep 2021 23:06:32.314    8 Sep 2021 23:25:56.340          1164.026
                      24    8 Sep 2021 23:59:03.904    9 Sep 2021 00:18:27.927          1164.023
                      25    9 Sep 2021 00:51:35.491    9 Sep 2021 01:10:59.515          1164.024
                      26    9 Sep 2021 01:44:07.080    9 Sep 2021 02:03:31.106          1164.026
                      27    9 Sep 2021 02:36:38.669    9 Sep 2021 02:56:02.694          1164.024
                      28    9 Sep 2021 03:29:10.255    9 Sep 2021 03:48:34.281          1164.026

Min Duration           1    8 Sep 2021 04:00:00.000    8 Sep 2021 04:10:21.398           621.398
Max Duration          14    8 Sep 2021 15:13:48.019    8 Sep 2021 15:33:12.048          1164.029
Mean Duration                                                                           1144.646
Total Duration                                                                         32050.087


Satellite602-To-Satellite305
----------------------------
                  Access       Start Time (UTCG)           Stop Time (UTCG)       Duration (sec)
                  ------    -----------------------    -----------------------    --------------
                       1    8 Sep 2021 04:00:00.000    8 Sep 2021 04:07:49.832           469.832
                       2    8 Sep 2021 04:35:30.204    8 Sep 2021 05:00:21.424          1491.221
                       3    8 Sep 2021 05:28:01.788    8 Sep 2021 05:52:53.009          1491.221
                       4    8 Sep 2021 06:20:33.380    8 Sep 2021 06:45:24.601          1491.221
                       5    8 Sep 2021 07:13:04.965    8 Sep 2021 07:37:56.186          1491.221
                       6    8 Sep 2021 08:05:36.557    8 Sep 2021 08:30:27.778          1491.221
                       7    8 Sep 2021 08:58:08.142    8 Sep 2021 09:22:59.362          1491.221
                       8    8 Sep 2021 09:50:39.734    8 Sep 2021 10:15:30.955          1491.221
                       9    8 Sep 2021 10:43:11.318    8 Sep 2021 11:08:02.539          1491.221
                      10    8 Sep 2021 11:35:42.911    8 Sep 2021 12:00:34.132          1491.221
                      11    8 Sep 2021 12:28:14.495    8 Sep 2021 12:53:05.716          1491.221
                      12    8 Sep 2021 13:20:46.087    8 Sep 2021 13:45:37.308          1491.221
                      13    8 Sep 2021 14:13:17.672    8 Sep 2021 14:38:08.893          1491.221
                      14    8 Sep 2021 15:05:49.264    8 Sep 2021 15:30:40.485          1491.221
                      15    8 Sep 2021 15:58:20.849    8 Sep 2021 16:23:12.070          1491.221
                      16    8 Sep 2021 16:50:52.441    8 Sep 2021 17:15:43.662          1491.221
                      17    8 Sep 2021 17:43:24.026    8 Sep 2021 18:08:15.246          1491.221
                      18    8 Sep 2021 18:35:55.618    8 Sep 2021 19:00:46.839          1491.221
                      19    8 Sep 2021 19:28:27.202    8 Sep 2021 19:53:18.423          1491.221
                      20    8 Sep 2021 20:20:58.795    8 Sep 2021 20:45:50.016          1491.221
                      21    8 Sep 2021 21:13:30.379    8 Sep 2021 21:38:21.600          1491.221
                      22    8 Sep 2021 22:06:01.971    8 Sep 2021 22:30:53.192          1491.221
                      23    8 Sep 2021 22:58:33.556    8 Sep 2021 23:23:24.777          1491.221
                      24    8 Sep 2021 23:51:05.148    9 Sep 2021 00:15:56.369          1491.221
                      25    9 Sep 2021 00:43:36.733    9 Sep 2021 01:08:27.954          1491.221
                      26    9 Sep 2021 01:36:08.325    9 Sep 2021 02:00:59.546          1491.221
                      27    9 Sep 2021 02:28:39.910    9 Sep 2021 02:53:31.130          1491.221
                      28    9 Sep 2021 03:21:11.502    9 Sep 2021 03:46:02.723          1491.221

Min Duration           1    8 Sep 2021 04:00:00.000    8 Sep 2021 04:07:49.832           469.832
Max Duration          16    8 Sep 2021 16:50:52.441    8 Sep 2021 17:15:43.662          1491.221
Mean Duration                                                                           1454.743
Total Duration                                                                         40732.796


Satellite602-To-Satellite306
----------------------------
                  Access       Start Time (UTCG)           Stop Time (UTCG)       Duration (sec)
                  ------    -----------------------    -----------------------    --------------
                       1    8 Sep 2021 04:00:00.000    8 Sep 2021 04:02:31.703           151.703
                       2    8 Sep 2021 04:30:18.017    8 Sep 2021 04:55:03.287          1485.270
                       3    8 Sep 2021 05:22:49.606    8 Sep 2021 05:47:34.880          1485.274
                       4    8 Sep 2021 06:15:21.196    8 Sep 2021 06:40:06.464          1485.269
                       5    8 Sep 2021 07:07:52.782    8 Sep 2021 07:32:38.056          1485.274
                       6    8 Sep 2021 08:00:24.373    8 Sep 2021 08:25:09.641          1485.268
                       7    8 Sep 2021 08:52:55.959    8 Sep 2021 09:17:41.233          1485.274
                       8    8 Sep 2021 09:45:27.550    8 Sep 2021 10:10:12.818          1485.268
                       9    8 Sep 2021 10:37:59.136    8 Sep 2021 11:02:44.410          1485.274
                      10    8 Sep 2021 11:30:30.726    8 Sep 2021 11:55:15.995          1485.268
                      11    8 Sep 2021 12:23:02.313    8 Sep 2021 12:47:47.587          1485.274
                      12    8 Sep 2021 13:15:33.903    8 Sep 2021 13:40:19.171          1485.268
                      13    8 Sep 2021 14:08:05.490    8 Sep 2021 14:32:50.763          1485.274
                      14    8 Sep 2021 15:00:37.080    8 Sep 2021 15:25:22.348          1485.268
                      15    8 Sep 2021 15:53:08.666    8 Sep 2021 16:17:53.940          1485.274
                      16    8 Sep 2021 16:45:40.257    8 Sep 2021 17:10:25.525          1485.268
                      17    8 Sep 2021 17:38:11.843    8 Sep 2021 18:02:57.117          1485.274
                      18    8 Sep 2021 18:30:43.433    8 Sep 2021 18:55:28.702          1485.268
                      19    8 Sep 2021 19:23:15.020    8 Sep 2021 19:48:00.294          1485.274
                      20    8 Sep 2021 20:15:46.610    8 Sep 2021 20:40:31.879          1485.268
                      21    8 Sep 2021 21:08:18.197    8 Sep 2021 21:33:03.471          1485.274
                      22    8 Sep 2021 22:00:49.787    8 Sep 2021 22:25:35.055          1485.268
                      23    8 Sep 2021 22:53:21.373    8 Sep 2021 23:18:06.647          1485.274
                      24    8 Sep 2021 23:45:52.964    9 Sep 2021 00:10:38.232          1485.268
                      25    9 Sep 2021 00:38:24.550    9 Sep 2021 01:03:09.824          1485.274
                      26    9 Sep 2021 01:30:56.141    9 Sep 2021 01:55:41.409          1485.268
                      27    9 Sep 2021 02:23:27.727    9 Sep 2021 02:48:13.001          1485.274
                      28    9 Sep 2021 03:15:59.317    9 Sep 2021 03:40:44.586          1485.268

Min Duration           1    8 Sep 2021 04:00:00.000    8 Sep 2021 04:02:31.703           151.703
Max Duration           9    8 Sep 2021 10:37:59.136    8 Sep 2021 11:02:44.410          1485.274
Mean Duration                                                                           1437.644
Total Duration                                                                         40254.023


Satellite602-To-Satellite307
----------------------------
                  Access       Start Time (UTCG)           Stop Time (UTCG)       Duration (sec)
                  ------    -----------------------    -----------------------    --------------
                       1    8 Sep 2021 04:27:53.012    8 Sep 2021 04:46:57.978          1144.966
                       2    8 Sep 2021 05:20:24.601    8 Sep 2021 05:39:29.568          1144.967
                       3    8 Sep 2021 06:12:56.189    8 Sep 2021 06:32:01.156          1144.967
                       4    8 Sep 2021 07:05:27.777    8 Sep 2021 07:24:32.742          1144.965
                       5    8 Sep 2021 07:57:59.366    8 Sep 2021 08:17:04.332          1144.966
                       6    8 Sep 2021 08:50:30.954    8 Sep 2021 09:09:35.920          1144.966
                       7    8 Sep 2021 09:43:02.539    8 Sep 2021 10:02:07.509          1144.970
                       8    8 Sep 2021 10:35:34.128    8 Sep 2021 10:54:39.097          1144.969
                       9    8 Sep 2021 11:28:05.716    8 Sep 2021 11:47:10.685          1144.969
                      10    8 Sep 2021 12:20:37.305    8 Sep 2021 12:39:42.274          1144.969
                      11    8 Sep 2021 13:13:08.894    8 Sep 2021 13:32:13.862          1144.969
                      12    8 Sep 2021 14:05:40.482    8 Sep 2021 14:24:45.451          1144.968
                      13    8 Sep 2021 14:58:12.071    8 Sep 2021 15:17:17.039          1144.968
                      14    8 Sep 2021 15:50:43.659    8 Sep 2021 16:09:48.627          1144.968
                      15    8 Sep 2021 16:43:15.247    8 Sep 2021 17:02:20.216          1144.968
                      16    8 Sep 2021 17:35:46.836    8 Sep 2021 17:54:51.804          1144.968
                      17    8 Sep 2021 18:28:18.424    8 Sep 2021 18:47:23.393          1144.968
                      18    8 Sep 2021 19:20:50.013    8 Sep 2021 19:39:54.981          1144.968
                      19    8 Sep 2021 20:13:21.601    8 Sep 2021 20:32:26.569          1144.968
                      20    8 Sep 2021 21:05:53.189    8 Sep 2021 21:24:58.158          1144.968
                      21    8 Sep 2021 21:58:24.778    8 Sep 2021 22:17:29.746          1144.968
                      22    8 Sep 2021 22:50:56.366    8 Sep 2021 23:10:01.335          1144.968
                      23    8 Sep 2021 23:43:27.955    9 Sep 2021 00:02:32.923          1144.968
                      24    9 Sep 2021 00:35:59.543    9 Sep 2021 00:55:04.511          1144.968
                      25    9 Sep 2021 01:28:31.131    9 Sep 2021 01:47:36.100          1144.968
                      26    9 Sep 2021 02:21:02.720    9 Sep 2021 02:40:07.688          1144.968
                      27    9 Sep 2021 03:13:34.308    9 Sep 2021 03:32:39.276          1144.968

Min Duration           4    8 Sep 2021 07:05:27.777    8 Sep 2021 07:24:32.742          1144.965
Max Duration           7    8 Sep 2021 09:43:02.539    8 Sep 2021 10:02:07.509          1144.970
Mean Duration                                                                           1144.968
Total Duration                                                                         30914.136


Satellite602-To-Satellite308
----------------------------
                  Access       Start Time (UTCG)           Stop Time (UTCG)       Duration (sec)
                  ------    -----------------------    -----------------------    --------------
                       1    8 Sep 2021 04:29:13.078    8 Sep 2021 04:35:07.593           354.515
                       2    8 Sep 2021 05:21:44.667    8 Sep 2021 05:27:39.177           354.510
                       3    8 Sep 2021 06:14:16.258    8 Sep 2021 06:20:10.769           354.510
                       4    8 Sep 2021 07:06:47.848    8 Sep 2021 07:12:42.358           354.510
                       5    8 Sep 2021 07:59:19.435    8 Sep 2021 08:05:13.946           354.511
                       6    8 Sep 2021 08:51:51.021    8 Sep 2021 08:57:45.532           354.511
                       7    8 Sep 2021 09:44:22.612    8 Sep 2021 09:50:17.123           354.511
                       8    8 Sep 2021 10:36:54.197    8 Sep 2021 10:42:48.712           354.515
                       9    8 Sep 2021 11:29:25.785    8 Sep 2021 11:35:20.295           354.510
                      10    8 Sep 2021 12:21:57.377    8 Sep 2021 12:27:51.887           354.511
                      11    8 Sep 2021 13:14:28.966    8 Sep 2021 13:20:23.477           354.511
                      12    8 Sep 2021 14:07:00.553    8 Sep 2021 14:12:55.065           354.512
                      13    8 Sep 2021 14:59:32.139    8 Sep 2021 15:05:26.650           354.511
                      14    8 Sep 2021 15:52:03.731    8 Sep 2021 15:57:58.241           354.511
                      15    8 Sep 2021 16:44:35.316    8 Sep 2021 16:50:29.830           354.515
                      16    8 Sep 2021 17:37:06.904    8 Sep 2021 17:43:01.414           354.510
                      17    8 Sep 2021 18:29:38.495    8 Sep 2021 18:35:33.006           354.511
                      18    8 Sep 2021 19:22:10.085    8 Sep 2021 19:28:04.596           354.511
                      19    8 Sep 2021 20:14:41.672    8 Sep 2021 20:20:36.184           354.512
                      20    8 Sep 2021 21:07:13.258    8 Sep 2021 21:13:07.769           354.511
                      21    8 Sep 2021 21:59:44.849    8 Sep 2021 22:05:39.360           354.511
                      22    8 Sep 2021 22:52:16.434    8 Sep 2021 22:58:10.949           354.515
                      23    8 Sep 2021 23:44:48.023    8 Sep 2021 23:50:42.535           354.512
                      24    9 Sep 2021 00:37:19.614    9 Sep 2021 00:43:14.125           354.511
                      25    9 Sep 2021 01:29:51.204    9 Sep 2021 01:35:45.714           354.511
                      26    9 Sep 2021 02:22:22.790    9 Sep 2021 02:28:17.303           354.513
                      27    9 Sep 2021 03:14:54.377    9 Sep 2021 03:20:48.888           354.511

Min Duration          16    8 Sep 2021 17:37:06.904    8 Sep 2021 17:43:01.414           354.510
Max Duration           1    8 Sep 2021 04:29:13.078    8 Sep 2021 04:35:07.593           354.515
Mean Duration                                                                            354.511
Total Duration                                                                          9571.809


