routing/visibility/v605.txt

Satellite605-To-Satellite101
----------------------------
                  Access       Start Time (UTCG)           Stop Time (UTCG)       Duration (sec)
                  ------    -----------------------    -----------------------    --------------
                       1    8 Sep 2021 04:00:00.000    8 Sep 2021 04:11:30.639           690.639
                       2    8 Sep 2021 04:44:57.297    8 Sep 2021 05:04:02.223          1144.926
                       3    8 Sep 2021 05:37:28.886    8 Sep 2021 05:56:33.815          1144.928
                       4    8 Sep 2021 06:30:00.475    8 Sep 2021 06:49:05.401          1144.926
                       5    8 Sep 2021 07:22:32.063    8 Sep 2021 07:41:36.990          1144.926
                       6    8 Sep 2021 08:15:03.652    8 Sep 2021 08:34:08.577          1144.925
                       7    8 Sep 2021 09:07:35.240    8 Sep 2021 09:26:40.167          1144.927
                       8    8 Sep 2021 10:00:06.824    8 Sep 2021 10:19:11.755          1144.932
                       9    8 Sep 2021 10:52:38.413    8 Sep 2021 11:11:43.344          1144.931
                      10    8 Sep 2021 11:45:10.002    8 Sep 2021 12:04:14.932          1144.930
                      11    8 Sep 2021 12:37:41.591    8 Sep 2021 12:56:46.520          1144.930
                      12    8 Sep 2021 13:30:13.179    8 Sep 2021 13:49:18.109          1144.929
                      13    8 Sep 2021 14:22:44.768    8 Sep 2021 14:41:49.697          1144.929
                      14    8 Sep 2021 15:15:16.356    8 Sep 2021 15:34:21.286          1144.929
                      15    8 Sep 2021 16:07:47.945    8 Sep 2021 16:26:52.874          1144.929
                      16    8 Sep 2021 17:00:19.533    8 Sep 2021 17:19:24.462          1144.929
                      17    8 Sep 2021 17:52:51.122    8 Sep 2021 18:11:56.051          1144.929
                      18    8 Sep 2021 18:45:22.710    8 Sep 2021 19:04:27.639          1144.929
                      19    8 Sep 2021 19:37:54.299    8 Sep 2021 19:56:59.228          1144.929
                      20    8 Sep 2021 20:30:25.887    8 Sep 2021 20:49:30.816          1144.929
                      21    8 Sep 2021 21:22:57.475    8 Sep 2021 21:42:02.404          1144.929
                      22    8 Sep 2021 22:15:29.064    8 Sep 2021 22:34:33.993          1144.929
                      23    8 Sep 2021 23:08:00.652    8 Sep 2021 23:27:05.581          1144.929
                      24    9 Sep 2021 00:00:32.241    9 Sep 2021 00:19:37.170          1144.929
                      25    9 Sep 2021 00:53:03.829    9 Sep 2021 01:12:08.758          1144.929
                      26    9 Sep 2021 01:45:35.417    9 Sep 2021 02:04:40.346          1144.929
                      27    9 Sep 2021 02:38:07.006    9 Sep 2021 02:57:11.935          1144.929
                      28    9 Sep 2021 03:30:38.594    9 Sep 2021 03:49:43.523          1144.929

Min Duration           1    8 Sep 2021 04:00:00.000    8 Sep 2021 04:11:30.639           690.639
Max Duration           8    8 Sep 2021 10:00:06.824    8 Sep 2021 10:19:11.755          1144.932
Mean Duration                                                                           1128.704
Total Duration                                                                         31603.714


Satellite605-To-Satellite102
----------------------------
                  Access       Start Time (UTCG)           Stop Time (UTCG)       Duration (sec)
                  ------    -----------------------    -----------------------    --------------
                       1    8 Sep 2021 04:00:00.000    8 Sep 2021 04:09:05.645           545.645
                       2    8 Sep 2021 04:36:51.970    8 Sep 2021 05:01:37.229          1485.259
                       3    8 Sep 2021 05:29:23.561    8 Sep 2021 05:54:08.821          1485.260
                       4    8 Sep 2021 06:21:55.150    8 Sep 2021 06:46:40.406          1485.256
                       5    8 Sep 2021 07:14:26.738    8 Sep 2021 07:39:11.998          1485.260
                       6    8 Sep 2021 08:06:58.328    8 Sep 2021 08:31:43.583          1485.255
                       7    8 Sep 2021 08:59:29.915    8 Sep 2021 09:24:15.175          1485.260
                       8    8 Sep 2021 09:52:01.505    8 Sep 2021 10:16:46.759          1485.254
                       9    8 Sep 2021 10:44:33.092    8 Sep 2021 11:09:18.351          1485.260
                      10    8 Sep 2021 11:37:04.682    8 Sep 2021 12:01:49.936          1485.254
                      11    8 Sep 2021 12:29:36.268    8 Sep 2021 12:54:21.528          1485.260
                      12    8 Sep 2021 13:22:07.859    8 Sep 2021 13:46:53.113          1485.254
                      13    8 Sep 2021 14:14:39.445    8 Sep 2021 14:39:24.705          1485.260
                      14    8 Sep 2021 15:07:11.035    8 Sep 2021 15:31:56.290          1485.254
                      15    8 Sep 2021 15:59:42.622    8 Sep 2021 16:24:27.882          1485.260
                      16    8 Sep 2021 16:52:14.212    8 Sep 2021 17:16:59.467          1485.254
                      17    8 Sep 2021 17:44:45.799    8 Sep 2021 18:09:31.059          1485.260
                      18    8 Sep 2021 18:37:17.389    8 Sep 2021 19:02:02.643          1485.254
                      19    8 Sep 2021 19:29:48.975    8 Sep 2021 19:54:34.235          1485.260
                      20    8 Sep 2021 20:22:20.566    8 Sep 2021 20:47:05.820          1485.254
                      21    8 Sep 2021 21:14:52.152    8 Sep 2021 21:39:37.412          1485.260
                      22    8 Sep 2021 22:07:23.743    8 Sep 2021 22:32:08.997          1485.254
                      23    8 Sep 2021 22:59:55.329    8 Sep 2021 23:24:40.589          1485.260
                      24    8 Sep 2021 23:52:26.919    9 Sep 2021 00:17:12.174          1485.254
                      25    9 Sep 2021 00:44:58.506    9 Sep 2021 01:09:43.766          1485.260
                      26    9 Sep 2021 01:37:30.096    9 Sep 2021 02:02:15.350          1485.254
                      27    9 Sep 2021 02:30:01.683    9 Sep 2021 02:54:46.943          1485.260
                      28    9 Sep 2021 03:22:33.273    9 Sep 2021 03:47:18.527          1485.254

Min Duration           1    8 Sep 2021 04:00:00.000    8 Sep 2021 04:09:05.645           545.645
Max Duration          15    8 Sep 2021 15:59:42.622    8 Sep 2021 16:24:27.882          1485.260
Mean Duration                                                                           1451.700
Total Duration                                                                         40647.590


Satellite605-To-Satellite103
----------------------------
                  Access       Start Time (UTCG)           Stop Time (UTCG)       Duration (sec)
                  ------    -----------------------    -----------------------    --------------
                       1    8 Sep 2021 04:00:00.000    8 Sep 2021 04:03:53.470           233.470
                       2    8 Sep 2021 04:31:33.828    8 Sep 2021 04:56:25.062          1491.234
                       3    8 Sep 2021 05:24:05.412    8 Sep 2021 05:48:56.646          1491.234
                       4    8 Sep 2021 06:16:37.005    8 Sep 2021 06:41:28.239          1491.234
                       5    8 Sep 2021 07:09:08.589    8 Sep 2021 07:33:59.823          1491.234
                       6    8 Sep 2021 08:01:40.181    8 Sep 2021 08:26:31.415          1491.234
                       7    8 Sep 2021 08:54:11.766    8 Sep 2021 09:19:03.000          1491.234
                       8    8 Sep 2021 09:46:43.358    8 Sep 2021 10:11:34.592          1491.234
                       9    8 Sep 2021 10:39:14.943    8 Sep 2021 11:04:06.177          1491.234
                      10    8 Sep 2021 11:31:46.535    8 Sep 2021 11:56:37.769          1491.234
                      11    8 Sep 2021 12:24:18.120    8 Sep 2021 12:49:09.353          1491.234
                      12    8 Sep 2021 13:16:49.712    8 Sep 2021 13:41:40.946          1491.234
                      13    8 Sep 2021 14:09:21.296    8 Sep 2021 14:34:12.530          1491.234
                      14    8 Sep 2021 15:01:52.889    8 Sep 2021 15:26:44.123          1491.234
                      15    8 Sep 2021 15:54:24.473    8 Sep 2021 16:19:15.707          1491.234
                      16    8 Sep 2021 16:46:56.065    8 Sep 2021 17:11:47.299          1491.234
                      17    8 Sep 2021 17:39:27.650    8 Sep 2021 18:04:18.884          1491.234
                      18    8 Sep 2021 18:31:59.242    8 Sep 2021 18:56:50.476          1491.234
                      19    8 Sep 2021 19:24:30.827    8 Sep 2021 19:49:22.061          1491.234
                      20    8 Sep 2021 20:17:02.419    8 Sep 2021 20:41:53.653          1491.234
                      21    8 Sep 2021 21:09:34.003    8 Sep 2021 21:34:25.237          1491.234
                      22    8 Sep 2021 22:02:05.596    8 Sep 2021 22:26:56.830          1491.234
                      23    8 Sep 2021 22:54:37.180    8 Sep 2021 23:19:28.414          1491.234
                      24    8 Sep 2021 23:47:08.772    9 Sep 2021 00:12:00.007          1491.234
                      25    9 Sep 2021 00:39:40.357    9 Sep 2021 01:04:31.591          1491.234
                      26    9 Sep 2021 01:32:11.949    9 Sep 2021 01:57:03.183          1491.234
                      27    9 Sep 2021 02:24:43.534    9 Sep 2021 02:49:34.768          1491.234
                      28    9 Sep 2021 03:17:15.126    9 Sep 2021 03:42:06.360          1491.234

Min Duration           1    8 Sep 2021 04:00:00.000    8 Sep 2021 04:03:53.470           233.470
Max Duration          18    8 Sep 2021 18:31:59.242    8 Sep 2021 18:56:50.476          1491.234
Mean Duration                                                                           1446.314
Total Duration                                                                         40496.787


Satellite605-To-Satellite104
----------------------------
                  Access       Start Time (UTCG)           Stop Time (UTCG)       Duration (sec)
                  ------    -----------------------    -----------------------    --------------
                       1    8 Sep 2021 04:29:02.253    8 Sep 2021 04:48:26.316          1164.063
                       2    8 Sep 2021 05:21:33.838    8 Sep 2021 05:40:57.904          1164.066
                       3    8 Sep 2021 06:14:05.430    8 Sep 2021 06:33:29.491          1164.061
                       4    8 Sep 2021 07:06:37.018    8 Sep 2021 07:26:01.080          1164.062
                       5    8 Sep 2021 07:59:08.606    8 Sep 2021 08:18:32.670          1164.064
                       6    8 Sep 2021 08:51:40.196    8 Sep 2021 09:11:04.258          1164.062
                       7    8 Sep 2021 09:44:11.781    8 Sep 2021 10:03:35.846          1164.064
                       8    8 Sep 2021 10:36:43.371    8 Sep 2021 10:56:07.434          1164.063
                       9    8 Sep 2021 11:29:14.959    8 Sep 2021 11:48:39.024          1164.065
                      10    8 Sep 2021 12:21:46.549    8 Sep 2021 12:41:10.611          1164.062
                      11    8 Sep 2021 13:14:18.136    8 Sep 2021 13:33:42.200          1164.064
                      12    8 Sep 2021 14:06:49.724    8 Sep 2021 14:26:13.788          1164.063
                      13    8 Sep 2021 14:59:21.312    8 Sep 2021 15:18:45.376          1164.064
                      14    8 Sep 2021 15:51:52.903    8 Sep 2021 16:11:16.963          1164.061
                      15    8 Sep 2021 16:44:24.490    8 Sep 2021 17:03:48.552          1164.062
                      16    8 Sep 2021 17:36:56.078    8 Sep 2021 17:56:20.142          1164.064
                      17    8 Sep 2021 18:29:27.668    8 Sep 2021 18:48:51.730          1164.063
                      18    8 Sep 2021 19:21:59.254    8 Sep 2021 19:41:23.318          1164.064
                      19    8 Sep 2021 20:14:30.843    8 Sep 2021 20:33:54.906          1164.063
                      20    8 Sep 2021 21:07:02.432    8 Sep 2021 21:26:26.496          1164.065
                      21    8 Sep 2021 21:59:34.021    8 Sep 2021 22:18:58.084          1164.062
                      22    8 Sep 2021 22:52:05.608    8 Sep 2021 23:11:29.672          1164.064
                      23    8 Sep 2021 23:44:37.197    9 Sep 2021 00:04:01.260          1164.063
                      24    9 Sep 2021 00:37:08.785    9 Sep 2021 00:56:32.849          1164.064
                      25    9 Sep 2021 01:29:40.375    9 Sep 2021 01:49:04.436          1164.061
                      26    9 Sep 2021 02:22:11.962    9 Sep 2021 02:41:36.024          1164.062
                      27    9 Sep 2021 03:14:43.551    9 Sep 2021 03:34:07.615          1164.064

Min Duration          25    9 Sep 2021 01:29:40.375    9 Sep 2021 01:49:04.436          1164.061
Max Duration           2    8 Sep 2021 05:21:33.838    8 Sep 2021 05:40:57.904          1164.066
Mean Duration                                                                           1164.063
Total Duration                                                                         31429.707


Satellite605-To-Satellite105
----------------------------
                  Access       Start Time (UTCG)           Stop Time (UTCG)       Duration (sec)
                  ------    -----------------------    -----------------------    --------------
                       1    8 Sep 2021 04:29:58.306    8 Sep 2021 04:36:59.947           421.641
                       2    8 Sep 2021 05:22:29.892    8 Sep 2021 05:29:31.536           421.644
                       3    8 Sep 2021 06:15:01.485    8 Sep 2021 06:22:03.124           421.639
                       4    8 Sep 2021 07:07:33.068    8 Sep 2021 07:14:34.710           421.641
                       5    8 Sep 2021 08:00:04.661    8 Sep 2021 08:07:06.300           421.640
                       6    8 Sep 2021 08:52:36.245    8 Sep 2021 08:59:37.889           421.644
                       7    8 Sep 2021 09:45:07.837    8 Sep 2021 09:52:09.477           421.640
                       8    8 Sep 2021 10:37:39.422    8 Sep 2021 10:44:41.066           421.644
                       9    8 Sep 2021 11:30:11.013    8 Sep 2021 11:37:12.654           421.641
                      10    8 Sep 2021 12:22:42.599    8 Sep 2021 12:29:44.243           421.644
                      11    8 Sep 2021 13:15:14.188    8 Sep 2021 13:22:15.831           421.643
                      12    8 Sep 2021 14:07:45.776    8 Sep 2021 14:14:47.419           421.643
                      13    8 Sep 2021 15:00:17.364    8 Sep 2021 15:07:19.008           421.643
                      14    8 Sep 2021 15:52:48.955    8 Sep 2021 15:59:50.596           421.641
                      15    8 Sep 2021 16:45:20.541    8 Sep 2021 16:52:22.185           421.644
                      16    8 Sep 2021 17:37:52.132    8 Sep 2021 17:44:53.773           421.641
                      17    8 Sep 2021 18:30:23.717    8 Sep 2021 18:37:25.362           421.644
                      18    8 Sep 2021 19:22:55.311    8 Sep 2021 19:29:56.949           421.639
                      19    8 Sep 2021 20:15:26.894    8 Sep 2021 20:22:28.536           421.641
                      20    8 Sep 2021 21:07:58.487    8 Sep 2021 21:15:00.126           421.640
                      21    8 Sep 2021 22:00:30.071    8 Sep 2021 22:07:31.715           421.644
                      22    8 Sep 2021 22:53:01.662    8 Sep 2021 23:00:03.303           421.640
                      23    8 Sep 2021 23:45:33.248    8 Sep 2021 23:52:34.892           421.644
                      24    9 Sep 2021 00:38:04.838    9 Sep 2021 00:45:06.480           421.641
                      25    9 Sep 2021 01:30:36.425    9 Sep 2021 01:37:38.069           421.644
                      26    9 Sep 2021 02:23:08.014    9 Sep 2021 02:30:09.657           421.643
                      27    9 Sep 2021 03:15:39.602    9 Sep 2021 03:22:41.245           421.643

Min Duration           3    8 Sep 2021 06:15:01.485    8 Sep 2021 06:22:03.124           421.639
Max Duration           6    8 Sep 2021 08:52:36.245    8 Sep 2021 08:59:37.889           421.644
Mean Duration                                                                            421.642
Total Duration                                                                         11384.336


Satellite605-To-Satellite110
----------------------------
                  Access       Start Time (UTCG)           Stop Time (UTCG)       Duration (sec)
                  ------    -----------------------    -----------------------    --------------
                       1    8 Sep 2021 04:04:16.139    8 Sep 2021 04:10:10.525           354.386
                       2    8 Sep 2021 04:56:47.726    8 Sep 2021 05:02:42.111           354.385
                       3    8 Sep 2021 05:49:19.318    8 Sep 2021 05:55:13.702           354.383
                       4    8 Sep 2021 06:41:50.904    8 Sep 2021 06:47:45.290           354.386
                       5    8 Sep 2021 07:34:22.490    8 Sep 2021 07:40:16.875           354.384
                       6    8 Sep 2021 08:26:54.083    8 Sep 2021 08:32:48.466           354.384
                       7    8 Sep 2021 09:19:25.672    8 Sep 2021 09:25:20.056           354.384
                       8    8 Sep 2021 10:11:57.256    8 Sep 2021 10:17:51.644           354.388
                       9    8 Sep 2021 11:04:28.845    8 Sep 2021 11:10:23.230           354.385
                      10    8 Sep 2021 11:57:00.436    8 Sep 2021 12:02:54.820           354.384
                      11    8 Sep 2021 12:49:32.021    8 Sep 2021 12:55:26.409           354.388
                      12    8 Sep 2021 13:42:03.609    8 Sep 2021 13:47:57.993           354.384
                      13    8 Sep 2021 14:34:35.201    8 Sep 2021 14:40:29.585           354.384
                      14    8 Sep 2021 15:27:06.790    8 Sep 2021 15:33:01.174           354.384
                      15    8 Sep 2021 16:19:38.378    8 Sep 2021 16:25:32.763           354.385
                      16    8 Sep 2021 17:12:09.963    8 Sep 2021 17:18:04.348           354.385
                      17    8 Sep 2021 18:04:41.555    8 Sep 2021 18:10:35.939           354.385
                      18    8 Sep 2021 18:57:13.139    8 Sep 2021 19:03:07.528           354.389
                      19    8 Sep 2021 19:49:44.728    8 Sep 2021 19:55:39.112           354.384
                      20    8 Sep 2021 20:42:16.319    8 Sep 2021 20:48:10.704           354.384
                      21    8 Sep 2021 21:34:47.909    8 Sep 2021 21:40:42.293           354.384
                      22    8 Sep 2021 22:27:19.495    8 Sep 2021 22:33:13.881           354.387
                      23    8 Sep 2021 23:19:51.082    8 Sep 2021 23:25:45.467           354.385
                      24    9 Sep 2021 00:12:22.673    9 Sep 2021 00:18:17.058           354.385
                      25    9 Sep 2021 01:04:54.258    9 Sep 2021 01:10:48.647           354.389
                      26    9 Sep 2021 01:57:25.847    9 Sep 2021 02:03:20.233           354.386
                      27    9 Sep 2021 02:49:57.438    9 Sep 2021 02:55:51.822           354.385
                      28    9 Sep 2021 03:42:29.027    9 Sep 2021 03:48:23.412           354.385

Min Duration           3    8 Sep 2021 05:49:19.318    8 Sep 2021 05:55:13.702           354.383
Max Duration          18    8 Sep 2021 18:57:13.139    8 Sep 2021 19:03:07.528           354.389
Mean Duration                                                                            354.385
Total Duration                                                                          9922.786


Satellite605-To-Satellite201
----------------------------
                  Access       Start Time (UTCG)           Stop Time (UTCG)       Duration (sec)
                  ------    -----------------------    -----------------------    --------------
                       1    8 Sep 2021 04:00:00.000    8 Sep 2021 04:12:37.589           757.589
                       2    8 Sep 2021 04:42:31.558    8 Sep 2021 05:05:09.177          1357.619
                       3    8 Sep 2021 05:35:03.146    8 Sep 2021 05:57:40.766          1357.620
                       4    8 Sep 2021 06:27:34.734    8 Sep 2021 06:50:12.354          1357.620
                       5    8 Sep 2021 07:20:06.323    8 Sep 2021 07:42:43.942          1357.620
                       6    8 Sep 2021 08:12:37.911    8 Sep 2021 08:35:15.531          1357.620
                       7    8 Sep 2021 09:05:09.500    8 Sep 2021 09:27:47.119          1357.620
                       8    8 Sep 2021 09:57:41.088    8 Sep 2021 10:20:18.708          1357.620
                       9    8 Sep 2021 10:50:12.676    8 Sep 2021 11:12:50.296          1357.620
                      10    8 Sep 2021 11:42:44.265    8 Sep 2021 12:05:21.884          1357.620
                      11    8 Sep 2021 12:35:15.853    8 Sep 2021 12:57:53.473          1357.620
                      12    8 Sep 2021 13:27:47.442    8 Sep 2021 13:50:25.061          1357.620
                      13    8 Sep 2021 14:20:19.030    8 Sep 2021 14:42:56.650          1357.620
                      14    8 Sep 2021 15:12:50.618    8 Sep 2021 15:35:28.238          1357.620
                      15    8 Sep 2021 16:05:22.207    8 Sep 2021 16:27:59.826          1357.620
                      16    8 Sep 2021 16:57:53.795    8 Sep 2021 17:20:31.415          1357.620
                      17    8 Sep 2021 17:50:25.383    8 Sep 2021 18:13:03.003          1357.620
                      18    8 Sep 2021 18:42:56.972    8 Sep 2021 19:05:34.592          1357.620
                      19    8 Sep 2021 19:35:28.560    8 Sep 2021 19:58:06.180          1357.620
                      20    8 Sep 2021 20:28:00.149    8 Sep 2021 20:50:37.768          1357.620
                      21    8 Sep 2021 21:20:31.737    8 Sep 2021 21:43:09.357          1357.620
                      22    8 Sep 2021 22:13:03.325    8 Sep 2021 22:35:40.945          1357.620
                      23    8 Sep 2021 23:05:34.914    8 Sep 2021 23:28:12.534          1357.620
                      24    8 Sep 2021 23:58:06.502    9 Sep 2021 00:20:44.122          1357.620
                      25    9 Sep 2021 00:50:38.091    9 Sep 2021 01:13:15.710          1357.620
                      26    9 Sep 2021 01:43:09.679    9 Sep 2021 02:05:47.299          1357.620
                      27    9 Sep 2021 02:35:41.267    9 Sep 2021 02:58:18.887          1357.620
                      28    9 Sep 2021 03:28:12.856    9 Sep 2021 03:50:50.475          1357.620

Min Duration           1    8 Sep 2021 04:00:00.000    8 Sep 2021 04:12:37.589           757.589
Max Duration          22    8 Sep 2021 22:13:03.325    8 Sep 2021 22:35:40.945          1357.620
Mean Duration                                                                           1336.190
Total Duration                                                                         37413.319


Satellite605-To-Satellite202
----------------------------
                  Access       Start Time (UTCG)           Stop Time (UTCG)       Duration (sec)
                  ------    -----------------------    -----------------------    --------------
                       1    8 Sep 2021 04:00:00.000    8 Sep 2021 04:05:25.377           325.377
                       2    8 Sep 2021 04:39:13.449    8 Sep 2021 04:57:56.966          1123.518
                       3    8 Sep 2021 05:31:45.036    8 Sep 2021 05:50:28.554          1123.517
                       4    8 Sep 2021 06:24:16.625    8 Sep 2021 06:43:00.146          1123.521
                       5    8 Sep 2021 07:16:48.211    8 Sep 2021 07:35:31.734          1123.523
                       6    8 Sep 2021 08:09:19.802    8 Sep 2021 08:28:03.320          1123.517
                       7    8 Sep 2021 09:01:51.391    8 Sep 2021 09:20:34.907          1123.517
                       8    8 Sep 2021 09:54:22.977    8 Sep 2021 10:13:06.497          1123.520
                       9    8 Sep 2021 10:46:54.564    8 Sep 2021 11:05:38.089          1123.525
                      10    8 Sep 2021 11:39:26.151    8 Sep 2021 11:58:09.675          1123.524
                      11    8 Sep 2021 12:31:57.744    8 Sep 2021 12:50:41.262          1123.518
                      12    8 Sep 2021 13:24:29.332    8 Sep 2021 13:43:12.849          1123.517
                      13    8 Sep 2021 14:17:00.919    8 Sep 2021 14:35:44.439          1123.520
                      14    8 Sep 2021 15:09:32.505    8 Sep 2021 15:28:16.031          1123.526
                      15    8 Sep 2021 16:02:04.093    8 Sep 2021 16:20:47.617          1123.524
                      16    8 Sep 2021 16:54:35.686    8 Sep 2021 17:13:19.204          1123.518
                      17    8 Sep 2021 17:47:07.274    8 Sep 2021 18:05:50.791          1123.517
                      18    8 Sep 2021 18:39:38.861    8 Sep 2021 18:58:22.381          1123.521
                      19    8 Sep 2021 19:32:10.447    8 Sep 2021 19:50:53.973          1123.526
                      20    8 Sep 2021 20:24:42.035    8 Sep 2021 20:43:25.559          1123.524
                      21    8 Sep 2021 21:17:13.628    8 Sep 2021 21:35:57.146          1123.518
                      22    8 Sep 2021 22:09:45.216    8 Sep 2021 22:28:28.733          1123.517
                      23    8 Sep 2021 23:02:16.803    8 Sep 2021 23:21:00.323          1123.521
                      24    8 Sep 2021 23:54:48.389    9 Sep 2021 00:13:31.915          1123.526
                      25    9 Sep 2021 00:47:19.977    9 Sep 2021 01:06:03.501          1123.524
                      26    9 Sep 2021 01:39:51.570    9 Sep 2021 01:58:35.088          1123.518
                      27    9 Sep 2021 02:32:23.158    9 Sep 2021 02:51:06.675          1123.517
                      28    9 Sep 2021 03:24:54.745    9 Sep 2021 03:43:38.265          1123.521

Min Duration           1    8 Sep 2021 04:00:00.000    8 Sep 2021 04:05:25.377           325.377
Max Duration          24    8 Sep 2021 23:54:48.389    9 Sep 2021 00:13:31.915          1123.526
Mean Duration                                                                           1095.015
Total Duration                                                                         30660.430


Satellite605-To-Satellite203
----------------------------
                  Access       Start Time (UTCG)           Stop Time (UTCG)       Duration (sec)
                  ------    -----------------------    -----------------------    --------------
                       1    8 Sep 2021 04:37:49.383    8 Sep 2021 04:48:50.715           661.332
                       2    8 Sep 2021 05:30:20.970    8 Sep 2021 05:41:22.303           661.332
                       3    8 Sep 2021 06:22:52.558    8 Sep 2021 06:33:53.890           661.332
                       4    8 Sep 2021 07:15:24.151    8 Sep 2021 07:26:25.478           661.328
                       5    8 Sep 2021 08:07:55.739    8 Sep 2021 08:18:57.066           661.327
                       6    8 Sep 2021 09:00:27.327    8 Sep 2021 09:11:28.654           661.327
                       7    8 Sep 2021 09:52:58.916    8 Sep 2021 10:04:00.241           661.325
                       8    8 Sep 2021 10:45:30.503    8 Sep 2021 10:56:31.829           661.327
                       9    8 Sep 2021 11:38:02.091    8 Sep 2021 11:49:03.422           661.331
                      10    8 Sep 2021 12:30:33.678    8 Sep 2021 12:41:35.010           661.332
                      11    8 Sep 2021 13:23:05.265    8 Sep 2021 13:34:06.598           661.332
                      12    8 Sep 2021 14:15:36.856    8 Sep 2021 14:26:38.185           661.329
                      13    8 Sep 2021 15:08:08.447    8 Sep 2021 15:19:09.773           661.327
                      14    8 Sep 2021 16:00:40.035    8 Sep 2021 16:11:41.361           661.327
                      15    8 Sep 2021 16:53:11.623    8 Sep 2021 17:04:12.948           661.325
                      16    8 Sep 2021 17:45:43.210    8 Sep 2021 17:56:44.541           661.330
                      17    8 Sep 2021 18:38:14.798    8 Sep 2021 18:49:16.129           661.331
                      18    8 Sep 2021 19:30:46.385    8 Sep 2021 19:41:47.717           661.332
                      19    8 Sep 2021 20:23:17.972    8 Sep 2021 20:34:19.305           661.332
                      20    8 Sep 2021 21:15:49.561    8 Sep 2021 21:26:50.893           661.332
                      21    8 Sep 2021 22:08:21.154    8 Sep 2021 22:19:22.481           661.327
                      22    8 Sep 2021 23:00:52.742    8 Sep 2021 23:11:54.069           661.327
                      23    8 Sep 2021 23:53:24.330    9 Sep 2021 00:04:25.655           661.325
                      24    9 Sep 2021 00:45:55.918    9 Sep 2021 00:56:57.245           661.328
                      25    9 Sep 2021 01:38:27.505    9 Sep 2021 01:49:28.836           661.331
                      26    9 Sep 2021 02:30:59.092    9 Sep 2021 02:42:00.424           661.332
                      27    9 Sep 2021 03:23:30.680    9 Sep 2021 03:34:32.012           661.332

Min Duration          23    8 Sep 2021 23:53:24.330    9 Sep 2021 00:04:25.655           661.325
Max Duration          27    9 Sep 2021 03:23:30.680    9 Sep 2021 03:34:32.012           661.332
Mean Duration                                                                            661.329
Total Duration                                                                         17855.892


Satellite605-To-Satellite208
----------------------------
                  Access       Start Time (UTCG)           Stop Time (UTCG)       Duration (sec)
                  ------    -----------------------    -----------------------    --------------
                       1    8 Sep 2021 04:11:33.615    8 Sep 2021 04:22:34.892           661.276
                       2    8 Sep 2021 05:04:05.203    8 Sep 2021 05:15:06.483           661.280
                       3    8 Sep 2021 05:56:36.790    8 Sep 2021 06:07:38.073           661.283
                       4    8 Sep 2021 06:49:08.377    8 Sep 2021 07:00:09.661           661.284
                       5    8 Sep 2021 07:41:39.965    8 Sep 2021 07:52:41.249           661.284
                       6    8 Sep 2021 08:34:11.558    8 Sep 2021 08:45:12.836           661.279
                       7    8 Sep 2021 09:26:43.146    8 Sep 2021 09:37:44.424           661.278
                       8    8 Sep 2021 10:19:14.734    8 Sep 2021 10:30:16.012           661.278
                       9    8 Sep 2021 11:11:46.323    8 Sep 2021 11:22:47.599           661.276
                      10    8 Sep 2021 12:04:17.910    8 Sep 2021 12:15:19.188           661.278
                      11    8 Sep 2021 12:56:49.498    8 Sep 2021 13:07:50.780           661.283
                      12    8 Sep 2021 13:49:21.085    8 Sep 2021 14:00:22.368           661.284
                      13    8 Sep 2021 14:41:52.672    8 Sep 2021 14:52:53.956           661.284
                      14    8 Sep 2021 15:34:24.263    8 Sep 2021 15:45:25.544           661.280
                      15    8 Sep 2021 16:26:55.854    8 Sep 2021 16:37:57.132           661.278
                      16    8 Sep 2021 17:19:27.442    8 Sep 2021 17:30:28.720           661.278
                      17    8 Sep 2021 18:11:59.030    8 Sep 2021 18:23:00.306           661.276
                      18    8 Sep 2021 19:04:30.617    8 Sep 2021 19:15:31.899           661.282
                      19    8 Sep 2021 19:57:02.205    8 Sep 2021 20:08:03.487           661.282
                      20    8 Sep 2021 20:49:33.792    8 Sep 2021 21:00:35.075           661.283
                      21    8 Sep 2021 21:42:05.379    8 Sep 2021 21:53:06.663           661.284
                      22    8 Sep 2021 22:34:36.968    8 Sep 2021 22:45:38.251           661.283
                      23    8 Sep 2021 23:27:08.561    8 Sep 2021 23:38:09.839           661.278
                      24    9 Sep 2021 00:19:40.149    9 Sep 2021 00:30:41.427           661.278
                      25    9 Sep 2021 01:12:11.737    9 Sep 2021 01:23:13.013           661.276
                      26    9 Sep 2021 02:04:43.325    9 Sep 2021 02:15:44.604           661.279
                      27    9 Sep 2021 02:57:14.912    9 Sep 2021 03:08:16.195           661.282
                      28    9 Sep 2021 03:49:46.499    9 Sep 2021 04:00:00.000           613.501

Min Duration          28    9 Sep 2021 03:49:46.499    9 Sep 2021 04:00:00.000           613.501
Max Duration          21    8 Sep 2021 21:42:05.379    8 Sep 2021 21:53:06.663           661.284
Mean Duration                                                                            659.574
Total Duration                                                                         18468.065


Satellite605-To-Satellite209
----------------------------
                  Access       Start Time (UTCG)           Stop Time (UTCG)       Duration (sec)
                  ------    -----------------------    -----------------------    --------------
                       1    8 Sep 2021 04:02:27.349    8 Sep 2021 04:21:10.841          1123.491
                       2    8 Sep 2021 04:54:58.937    8 Sep 2021 05:13:42.429          1123.492
                       3    8 Sep 2021 05:47:30.524    8 Sep 2021 06:06:14.021          1123.498
                       4    8 Sep 2021 06:40:02.111    8 Sep 2021 06:58:45.608          1123.497
                       5    8 Sep 2021 07:32:33.704    8 Sep 2021 07:51:17.195          1123.491
                       6    8 Sep 2021 08:25:05.292    8 Sep 2021 08:43:48.782          1123.490
                       7    8 Sep 2021 09:17:36.878    8 Sep 2021 09:36:20.372          1123.494
                       8    8 Sep 2021 10:10:08.465    8 Sep 2021 10:28:51.963          1123.499
                       9    8 Sep 2021 11:02:40.053    8 Sep 2021 11:21:23.550          1123.497
                      10    8 Sep 2021 11:55:11.646    8 Sep 2021 12:13:55.137          1123.491
                      11    8 Sep 2021 12:47:43.234    8 Sep 2021 13:06:26.724          1123.490
                      12    8 Sep 2021 13:40:14.820    8 Sep 2021 13:58:58.314          1123.494
                      13    8 Sep 2021 14:32:46.406    8 Sep 2021 14:51:29.905          1123.499
                      14    8 Sep 2021 15:25:17.995    8 Sep 2021 15:44:01.491          1123.497
                      15    8 Sep 2021 16:17:49.588    8 Sep 2021 16:36:33.079          1123.491
                      16    8 Sep 2021 17:10:21.176    8 Sep 2021 17:29:04.666          1123.490
                      17    8 Sep 2021 18:02:52.762    8 Sep 2021 18:21:36.256          1123.494
                      18    8 Sep 2021 18:55:24.348    8 Sep 2021 19:14:07.847          1123.499
                      19    8 Sep 2021 19:47:55.936    8 Sep 2021 20:06:39.433          1123.497
                      20    8 Sep 2021 20:40:27.530    8 Sep 2021 20:59:11.021          1123.491
                      21    8 Sep 2021 21:32:59.118    8 Sep 2021 21:51:42.608          1123.490
                      22    8 Sep 2021 22:25:30.704    8 Sep 2021 22:44:14.198          1123.494
                      23    8 Sep 2021 23:18:02.290    8 Sep 2021 23:36:45.789          1123.499
                      24    9 Sep 2021 00:10:33.878    9 Sep 2021 00:29:17.375          1123.497
                      25    9 Sep 2021 01:03:05.472    9 Sep 2021 01:21:48.963          1123.491
                      26    9 Sep 2021 01:55:37.060    9 Sep 2021 02:14:20.550          1123.490
                      27    9 Sep 2021 02:48:08.646    9 Sep 2021 03:06:52.140          1123.494
                      28    9 Sep 2021 03:40:40.232    9 Sep 2021 03:59:23.731          1123.499

Min Duration          26    9 Sep 2021 01:55:37.060    9 Sep 2021 02:14:20.550          1123.490
Max Duration          23    8 Sep 2021 23:18:02.290    8 Sep 2021 23:36:45.789          1123.499
Mean Duration                                                                           1123.494
Total Duration                                                                         31457.834


Satellite605-To-Satellite210
----------------------------
                  Access       Start Time (UTCG)           Stop Time (UTCG)       Duration (sec)
                  ------    -----------------------    -----------------------    --------------
                       1    8 Sep 2021 04:00:00.000    8 Sep 2021 04:17:52.743          1072.743
                       2    8 Sep 2021 04:47:46.721    8 Sep 2021 05:10:24.331          1357.610
                       3    8 Sep 2021 05:40:18.310    8 Sep 2021 06:02:55.920          1357.610
                       4    8 Sep 2021 06:32:49.898    8 Sep 2021 06:55:27.508          1357.610
                       5    8 Sep 2021 07:25:21.486    8 Sep 2021 07:47:59.096          1357.610
                       6    8 Sep 2021 08:17:53.075    8 Sep 2021 08:40:30.685          1357.610
                       7    8 Sep 2021 09:10:24.663    8 Sep 2021 09:33:02.273          1357.610
                       8    8 Sep 2021 10:02:56.252    8 Sep 2021 10:25:33.862          1357.610
                       9    8 Sep 2021 10:55:27.840    8 Sep 2021 11:18:05.450          1357.610
                      10    8 Sep 2021 11:47:59.428    8 Sep 2021 12:10:37.038          1357.610
                      11    8 Sep 2021 12:40:31.017    8 Sep 2021 13:03:08.627          1357.610
                      12    8 Sep 2021 13:33:02.605    8 Sep 2021 13:55:40.215          1357.610
                      13    8 Sep 2021 14:25:34.194    8 Sep 2021 14:48:11.804          1357.610
                      14    8 Sep 2021 15:18:05.782    8 Sep 2021 15:40:43.392          1357.610
                      15    8 Sep 2021 16:10:37.370    8 Sep 2021 16:33:14.980          1357.610
                      16    8 Sep 2021 17:03:08.959    8 Sep 2021 17:25:46.569          1357.610
                      17    8 Sep 2021 17:55:40.547    8 Sep 2021 18:18:18.157          1357.610
                      18    8 Sep 2021 18:48:12.135    8 Sep 2021 19:10:49.746          1357.610
                      19    8 Sep 2021 19:40:43.724    8 Sep 2021 20:03:21.334          1357.610
                      20    8 Sep 2021 20:33:15.312    8 Sep 2021 20:55:52.922          1357.610
                      21    8 Sep 2021 21:25:46.901    8 Sep 2021 21:48:24.511          1357.610
                      22    8 Sep 2021 22:18:18.489    8 Sep 2021 22:40:56.099          1357.610
                      23    8 Sep 2021 23:10:50.077    8 Sep 2021 23:33:27.688          1357.610
                      24    9 Sep 2021 00:03:21.666    9 Sep 2021 00:25:59.276          1357.610
                      25    9 Sep 2021 00:55:53.254    9 Sep 2021 01:18:30.864          1357.610
                      26    9 Sep 2021 01:48:24.843    9 Sep 2021 02:11:02.453          1357.610
                      27    9 Sep 2021 02:40:56.431    9 Sep 2021 03:03:34.041          1357.610
                      28    9 Sep 2021 03:33:28.019    9 Sep 2021 03:56:05.630          1357.610

Min Duration           1    8 Sep 2021 04:00:00.000    8 Sep 2021 04:17:52.743          1072.743
Max Duration          12    8 Sep 2021 13:33:02.605    8 Sep 2021 13:55:40.215          1357.610
Mean Duration                                                                           1347.436
Total Duration                                                                         37728.217


Satellite605-To-Satellite301
----------------------------
                  Access       Start Time (UTCG)           Stop Time (UTCG)       Duration (sec)
                  ------    -----------------------    -----------------------    --------------
                       1    8 Sep 2021 04:00:00.000    8 Sep 2021 04:03:36.636           216.636
                       2    8 Sep 2021 04:50:13.714    8 Sep 2021 04:56:08.226           354.512
                       3    8 Sep 2021 05:42:45.304    8 Sep 2021 05:48:39.815           354.511
                       4    8 Sep 2021 06:35:16.894    8 Sep 2021 06:41:11.405           354.511
                       5    8 Sep 2021 07:27:48.479    8 Sep 2021 07:33:42.993           354.515
                       6    8 Sep 2021 08:20:20.067    8 Sep 2021 08:26:14.578           354.511
                       7    8 Sep 2021 09:12:51.659    8 Sep 2021 09:18:46.170           354.511
                       8    8 Sep 2021 10:05:23.249    8 Sep 2021 10:11:17.759           354.510
                       9    8 Sep 2021 10:57:54.834    8 Sep 2021 11:03:49.346           354.512
                      10    8 Sep 2021 11:50:26.422    8 Sep 2021 11:56:20.933           354.511
                      11    8 Sep 2021 12:42:58.014    8 Sep 2021 12:48:52.524           354.510
                      12    8 Sep 2021 13:35:29.600    8 Sep 2021 13:41:24.112           354.512
                      13    8 Sep 2021 14:28:01.186    8 Sep 2021 14:33:55.696           354.510
                      14    8 Sep 2021 15:20:32.778    8 Sep 2021 15:26:27.288           354.510
                      15    8 Sep 2021 16:13:04.367    8 Sep 2021 16:18:58.877           354.510
                      16    8 Sep 2021 17:05:35.951    8 Sep 2021 17:11:30.465           354.514
                      17    8 Sep 2021 17:58:07.540    8 Sep 2021 18:04:02.051           354.511
                      18    8 Sep 2021 18:50:39.132    8 Sep 2021 18:56:33.642           354.510
                      19    8 Sep 2021 19:43:10.716    8 Sep 2021 19:49:05.231           354.515
                      20    8 Sep 2021 20:35:42.305    8 Sep 2021 20:41:36.815           354.510
                      21    8 Sep 2021 21:28:13.896    8 Sep 2021 21:34:08.407           354.510
                      22    8 Sep 2021 22:20:45.486    8 Sep 2021 22:26:39.996           354.510
                      23    8 Sep 2021 23:13:17.073    8 Sep 2021 23:19:11.584           354.511
                      24    9 Sep 2021 00:05:48.659    9 Sep 2021 00:11:43.170           354.511
                      25    9 Sep 2021 00:58:20.250    9 Sep 2021 01:04:14.761           354.511
                      26    9 Sep 2021 01:50:51.835    9 Sep 2021 01:56:46.350           354.515
                      27    9 Sep 2021 02:43:23.423    9 Sep 2021 02:49:17.933           354.510
                      28    9 Sep 2021 03:35:55.015    9 Sep 2021 03:41:49.525           354.511

Min Duration           1    8 Sep 2021 04:00:00.000    8 Sep 2021 04:03:36.636           216.636
Max Duration          19    8 Sep 2021 19:43:10.716    8 Sep 2021 19:49:05.231           354.515
Mean Duration                                                                            349.587
Total Duration                                                                          9788.441


Satellite605-To-Satellite306
----------------------------
                  Access       Start Time (UTCG)           Stop Time (UTCG)       Duration (sec)
                  ------    -----------------------    -----------------------    --------------
                       1    8 Sep 2021 04:23:24.409    8 Sep 2021 04:30:25.945           421.536
                       2    8 Sep 2021 05:15:55.997    8 Sep 2021 05:22:57.533           421.537
                       3    8 Sep 2021 06:08:27.588    8 Sep 2021 06:15:29.122           421.534
                       4    8 Sep 2021 07:00:59.173    8 Sep 2021 07:08:00.710           421.537
                       5    8 Sep 2021 07:53:30.764    8 Sep 2021 08:00:32.298           421.534
                       6    8 Sep 2021 08:46:02.350    8 Sep 2021 08:53:03.886           421.536
                       7    8 Sep 2021 09:38:33.943    8 Sep 2021 09:45:35.475           421.532
                       8    8 Sep 2021 10:31:05.527    8 Sep 2021 10:38:07.064           421.537
                       9    8 Sep 2021 11:23:37.119    8 Sep 2021 11:30:38.652           421.533
                      10    8 Sep 2021 12:16:08.704    8 Sep 2021 12:23:10.241           421.537
                      11    8 Sep 2021 13:08:40.295    8 Sep 2021 13:15:41.828           421.534
                      12    8 Sep 2021 14:01:11.881    8 Sep 2021 14:08:13.417           421.537
                      13    8 Sep 2021 14:53:43.471    8 Sep 2021 15:00:45.006           421.535
                      14    8 Sep 2021 15:46:15.058    8 Sep 2021 15:53:16.594           421.536
                      15    8 Sep 2021 16:38:46.647    8 Sep 2021 16:45:48.183           421.536
                      16    8 Sep 2021 17:31:18.235    8 Sep 2021 17:38:19.771           421.536
                      17    8 Sep 2021 18:23:49.823    8 Sep 2021 18:30:51.359           421.537
                      18    8 Sep 2021 19:16:21.414    8 Sep 2021 19:23:22.948           421.534
                      19    8 Sep 2021 20:08:52.999    8 Sep 2021 20:15:54.536           421.537
                      20    8 Sep 2021 21:01:24.590    8 Sep 2021 21:08:26.124           421.534
                      21    8 Sep 2021 21:53:56.176    8 Sep 2021 22:00:57.712           421.536
                      22    8 Sep 2021 22:46:27.769    8 Sep 2021 22:53:29.301           421.532
                      23    8 Sep 2021 23:38:59.353    8 Sep 2021 23:46:00.890           421.537
                      24    9 Sep 2021 00:31:30.945    9 Sep 2021 00:38:32.478           421.533
                      25    9 Sep 2021 01:24:02.530    9 Sep 2021 01:31:04.067           421.537
                      26    9 Sep 2021 02:16:34.121    9 Sep 2021 02:23:35.654           421.534
                      27    9 Sep 2021 03:09:05.707    9 Sep 2021 03:16:07.243           421.537

Min Duration           7    8 Sep 2021 09:38:33.943    8 Sep 2021 09:45:35.475           421.532
Max Duration           8    8 Sep 2021 10:31:05.527    8 Sep 2021 10:38:07.064           421.537
Mean Duration                                                                            421.535
Total Duration                                                                         11381.453


Satellite605-To-Satellite307
----------------------------
                  Access       Start Time (UTCG)           Stop Time (UTCG)       Duration (sec)
                  ------    -----------------------    -----------------------    --------------
                       1    8 Sep 2021 04:11:58.006    8 Sep 2021 04:31:22.032          1164.026
                       2    8 Sep 2021 05:04:29.595    8 Sep 2021 05:23:53.619          1164.024
                       3    8 Sep 2021 05:57:01.183    8 Sep 2021 06:16:25.208          1164.025
                       4    8 Sep 2021 06:49:32.772    8 Sep 2021 07:08:56.794          1164.023
                       5    8 Sep 2021 07:42:04.359    8 Sep 2021 08:01:28.383          1164.024
                       6    8 Sep 2021 08:34:35.948    8 Sep 2021 08:53:59.973          1164.025
                       7    8 Sep 2021 09:27:07.537    8 Sep 2021 09:46:31.561          1164.024
                       8    8 Sep 2021 10:19:39.123    8 Sep 2021 10:39:03.149          1164.026
                       9    8 Sep 2021 11:12:10.712    8 Sep 2021 11:31:34.737          1164.025
                      10    8 Sep 2021 12:04:42.300    8 Sep 2021 12:24:06.326          1164.027
                      11    8 Sep 2021 12:57:13.890    8 Sep 2021 13:16:37.915          1164.025
                      12    8 Sep 2021 13:49:45.478    8 Sep 2021 14:09:09.506          1164.028
                      13    8 Sep 2021 14:42:17.066    8 Sep 2021 15:01:41.092          1164.026
                      14    8 Sep 2021 15:34:48.656    8 Sep 2021 15:54:12.680          1164.024
                      15    8 Sep 2021 16:27:20.241    8 Sep 2021 16:46:44.267          1164.026
                      16    8 Sep 2021 17:19:51.831    8 Sep 2021 17:39:15.856          1164.025
                      17    8 Sep 2021 18:12:23.419    8 Sep 2021 18:31:47.446          1164.027
                      18    8 Sep 2021 19:04:55.009    8 Sep 2021 19:24:19.033          1164.024
                      19    8 Sep 2021 19:57:26.596    8 Sep 2021 20:16:50.622          1164.026
                      20    8 Sep 2021 20:49:58.184    8 Sep 2021 21:09:22.210          1164.025
                      21    8 Sep 2021 21:42:29.772    8 Sep 2021 22:01:53.798          1164.026
                      22    8 Sep 2021 22:35:01.363    8 Sep 2021 22:54:25.385          1164.023
                      23    8 Sep 2021 23:27:32.950    8 Sep 2021 23:46:56.979          1164.029
                      24    9 Sep 2021 00:20:04.538    9 Sep 2021 00:39:28.564          1164.026
                      25    9 Sep 2021 01:12:36.128    9 Sep 2021 01:32:00.152          1164.024
                      26    9 Sep 2021 02:05:07.714    9 Sep 2021 02:24:31.740          1164.026
                      27    9 Sep 2021 02:57:39.303    9 Sep 2021 03:17:03.328          1164.025
                      28    9 Sep 2021 03:50:10.892    9 Sep 2021 04:00:00.000           589.108

Min Duration          28    9 Sep 2021 03:50:10.892    9 Sep 2021 04:00:00.000           589.108
Max Duration          23    8 Sep 2021 23:27:32.950    8 Sep 2021 23:46:56.979          1164.029
Mean Duration                                                                           1143.493
Total Duration                                                                         32017.793


Satellite605-To-Satellite308
----------------------------
                  Access       Start Time (UTCG)           Stop Time (UTCG)       Duration (sec)
                  ------    -----------------------    -----------------------    --------------
                       1    8 Sep 2021 04:03:59.247    8 Sep 2021 04:28:50.468          1491.221
                       2    8 Sep 2021 04:56:30.839    8 Sep 2021 05:21:22.055          1491.216
                       3    8 Sep 2021 05:49:02.426    8 Sep 2021 06:13:53.648          1491.222
                       4    8 Sep 2021 06:41:34.012    8 Sep 2021 07:06:25.232          1491.221
                       5    8 Sep 2021 07:34:05.604    8 Sep 2021 07:58:56.825          1491.221
                       6    8 Sep 2021 08:26:37.189    8 Sep 2021 08:51:28.409          1491.221
                       7    8 Sep 2021 09:19:08.781    8 Sep 2021 09:44:00.002          1491.221
                       8    8 Sep 2021 10:11:40.365    8 Sep 2021 10:36:31.586          1491.221
                       9    8 Sep 2021 11:04:11.958    8 Sep 2021 11:29:03.179          1491.221
                      10    8 Sep 2021 11:56:43.542    8 Sep 2021 12:21:34.763          1491.221
                      11    8 Sep 2021 12:49:15.134    8 Sep 2021 13:14:06.355          1491.221
                      12    8 Sep 2021 13:41:46.719    8 Sep 2021 14:06:37.940          1491.221
                      13    8 Sep 2021 14:34:18.311    8 Sep 2021 14:59:09.532          1491.221
                      14    8 Sep 2021 15:26:49.896    8 Sep 2021 15:51:41.117          1491.221
                      15    8 Sep 2021 16:19:21.488    8 Sep 2021 16:44:12.709          1491.221
                      16    8 Sep 2021 17:11:53.073    8 Sep 2021 17:36:44.293          1491.221
                      17    8 Sep 2021 18:04:24.665    8 Sep 2021 18:29:15.886          1491.221
                      18    8 Sep 2021 18:56:56.249    8 Sep 2021 19:21:47.470          1491.221
                      19    8 Sep 2021 19:49:27.842    8 Sep 2021 20:14:19.062          1491.221
                      20    8 Sep 2021 20:41:59.426    8 Sep 2021 21:06:50.647          1491.221
                      21    8 Sep 2021 21:34:31.018    8 Sep 2021 21:59:22.239          1491.221
                      22    8 Sep 2021 22:27:02.603    8 Sep 2021 22:51:53.824          1491.221
                      23    8 Sep 2021 23:19:34.195    8 Sep 2021 23:44:25.416          1491.221
                      24    9 Sep 2021 00:12:05.780    9 Sep 2021 00:36:57.001          1491.221
                      25    9 Sep 2021 01:04:37.372    9 Sep 2021 01:29:28.593          1491.221
                      26    9 Sep 2021 01:57:08.956    9 Sep 2021 02:22:00.177          1491.221
                      27    9 Sep 2021 02:49:40.549    9 Sep 2021 03:14:31.770          1491.221
                      28    9 Sep 2021 03:42:12.133    9 Sep 2021 04:00:00.000          1067.867

Min Duration          28    9 Sep 2021 03:42:12.133    9 Sep 2021 04:00:00.000          1067.867
Max Duration           3    8 Sep 2021 05:49:02.426    8 Sep 2021 06:13:53.648          1491.222
Mean Duration                                                                           1476.101
Total Duration                                                                         41330.827


Satellite605-To-Satellite309
----------------------------
                  Access       Start Time (UTCG)           Stop Time (UTCG)       Duration (sec)
                  ------    -----------------------    -----------------------    --------------
                       1    8 Sep 2021 04:00:00.000    8 Sep 2021 04:23:32.335          1412.335
                       2    8 Sep 2021 04:51:18.653    8 Sep 2021 05:16:03.927          1485.273
                       3    8 Sep 2021 05:43:50.238    8 Sep 2021 06:08:35.511          1485.273
                       4    8 Sep 2021 06:36:21.829    8 Sep 2021 07:01:07.103          1485.274
                       5    8 Sep 2021 07:28:53.418    8 Sep 2021 07:53:38.688          1485.270
                       6    8 Sep 2021 08:21:25.006    8 Sep 2021 08:46:10.280          1485.274
                       7    8 Sep 2021 09:13:56.596    8 Sep 2021 09:38:41.865          1485.269
                       8    8 Sep 2021 10:06:28.183    8 Sep 2021 10:31:13.457          1485.274
                       9    8 Sep 2021 10:58:59.773    8 Sep 2021 11:23:45.042          1485.268
                      10    8 Sep 2021 11:51:31.360    8 Sep 2021 12:16:16.634          1485.274
                      11    8 Sep 2021 12:44:02.950    8 Sep 2021 13:08:48.218          1485.268
                      12    8 Sep 2021 13:36:34.536    8 Sep 2021 14:01:19.810          1485.274
                      13    8 Sep 2021 14:29:06.127    8 Sep 2021 14:53:51.395          1485.268
                      14    8 Sep 2021 15:21:37.713    8 Sep 2021 15:46:22.987          1485.274
                      15    8 Sep 2021 16:14:09.304    8 Sep 2021 16:38:54.572          1485.268
                      16    8 Sep 2021 17:06:40.890    8 Sep 2021 17:31:26.164          1485.274
                      17    8 Sep 2021 17:59:12.480    8 Sep 2021 18:23:57.749          1485.268
                      18    8 Sep 2021 18:51:44.067    8 Sep 2021 19:16:29.341          1485.274
                      19    8 Sep 2021 19:44:15.657    8 Sep 2021 20:09:00.926          1485.268
                      20    8 Sep 2021 20:36:47.244    8 Sep 2021 21:01:32.518          1485.274
                      21    8 Sep 2021 21:29:18.834    8 Sep 2021 21:54:04.102          1485.268
                      22    8 Sep 2021 22:21:50.420    8 Sep 2021 22:46:35.694          1485.274
                      23    8 Sep 2021 23:14:22.011    8 Sep 2021 23:39:07.279          1485.268
                      24    9 Sep 2021 00:06:53.597    9 Sep 2021 00:31:38.871          1485.274
                      25    9 Sep 2021 00:59:25.188    9 Sep 2021 01:24:10.456          1485.268
                      26    9 Sep 2021 01:51:56.774    9 Sep 2021 02:16:42.048          1485.274
                      27    9 Sep 2021 02:44:28.364    9 Sep 2021 03:09:13.633          1485.268
                      28    9 Sep 2021 03:36:59.951    9 Sep 2021 04:00:00.000          1380.049

Min Duration          28    9 Sep 2021 03:36:59.951    9 Sep 2021 04:00:00.000          1380.049
Max Duration          12    8 Sep 2021 13:36:34.536    8 Sep 2021 14:01:19.810          1485.274
Mean Duration                                                                           1478.909
Total Duration                                                                         41409.439


Satellite605-To-Satellite310
----------------------------
                  Access       Start Time (UTCG)           Stop Time (UTCG)       Duration (sec)
                  ------    -----------------------    -----------------------    --------------
                       1    8 Sep 2021 04:00:00.000    8 Sep 2021 04:15:27.026           927.026
                       2    8 Sep 2021 04:48:53.648    8 Sep 2021 05:07:58.612          1144.965
                       3    8 Sep 2021 05:41:25.236    8 Sep 2021 06:00:30.202          1144.966
                       4    8 Sep 2021 06:33:56.824    8 Sep 2021 06:53:01.791          1144.966
                       5    8 Sep 2021 07:26:28.409    8 Sep 2021 07:45:33.379          1144.970
                       6    8 Sep 2021 08:18:59.998    8 Sep 2021 08:38:04.967          1144.969
                       7    8 Sep 2021 09:11:31.587    8 Sep 2021 09:30:36.556          1144.969
                       8    8 Sep 2021 10:04:03.175    8 Sep 2021 10:23:08.144          1144.969
                       9    8 Sep 2021 10:56:34.764    8 Sep 2021 11:15:39.732          1144.969
                      10    8 Sep 2021 11:49:06.352    8 Sep 2021 12:08:11.321          1144.968
                      11    8 Sep 2021 12:41:37.941    8 Sep 2021 13:00:42.909          1144.968
                      12    8 Sep 2021 13:34:09.529    8 Sep 2021 13:53:14.498          1144.968
                      13    8 Sep 2021 14:26:41.118    8 Sep 2021 14:45:46.086          1144.968
                      14    8 Sep 2021 15:19:12.706    8 Sep 2021 15:38:17.674          1144.968
                      15    8 Sep 2021 16:11:44.294    8 Sep 2021 16:30:49.263          1144.968
                      16    8 Sep 2021 17:04:15.883    8 Sep 2021 17:23:20.851          1144.968
                      17    8 Sep 2021 17:56:47.471    8 Sep 2021 18:15:52.440          1144.968
                      18    8 Sep 2021 18:49:19.060    8 Sep 2021 19:08:24.028          1144.968
                      19    8 Sep 2021 19:41:50.648    8 Sep 2021 20:00:55.616          1144.968
                      20    8 Sep 2021 20:34:22.236    8 Sep 2021 20:53:27.205          1144.968
                      21    8 Sep 2021 21:26:53.825    8 Sep 2021 21:45:58.793          1144.968
                      22    8 Sep 2021 22:19:25.413    8 Sep 2021 22:38:30.381          1144.968
                      23    8 Sep 2021 23:11:57.002    8 Sep 2021 23:31:01.970          1144.968
                      24    9 Sep 2021 00:04:28.590    9 Sep 2021 00:23:33.558          1144.968
                      25    9 Sep 2021 00:57:00.178    9 Sep 2021 01:16:05.147          1144.968
                      26    9 Sep 2021 01:49:31.767    9 Sep 2021 02:08:36.735          1144.968
                      27    9 Sep 2021 02:42:03.355    9 Sep 2021 03:01:08.323          1144.968
                      28    9 Sep 2021 03:34:34.944    9 Sep 2021 03:53:39.912          1144.968

Min Duration           1    8 Sep 2021 04:00:00.000    8 Sep 2021 04:15:27.026           927.026
Max Duration           5    8 Sep 2021 07:26:28.409    8 Sep 2021 07:45:33.379          1144.970
Mean Duration                                                                           1137.185
