routing/visibility/v606.txt

Satellite606-To-Satellite101
----------------------------
                  Access       Start Time (UTCG)           Stop Time (UTCG)       Duration (sec)
                  ------    -----------------------    -----------------------    --------------
                       1    8 Sep 2021 04:46:17.407    8 Sep 2021 04:52:11.793           354.386
                       2    8 Sep 2021 05:38:48.998    8 Sep 2021 05:44:43.383           354.385
                       3    8 Sep 2021 06:31:20.588    8 Sep 2021 06:37:14.973           354.385
                       4    8 Sep 2021 07:23:52.173    8 Sep 2021 07:29:46.561           354.388
                       5    8 Sep 2021 08:16:23.761    8 Sep 2021 08:22:18.146           354.385
                       6    8 Sep 2021 09:08:55.352    8 Sep 2021 09:14:49.737           354.385
                       7    8 Sep 2021 10:01:26.943    8 Sep 2021 10:07:21.326           354.384
                       8    8 Sep 2021 10:53:58.528    8 Sep 2021 10:59:52.914           354.387
                       9    8 Sep 2021 11:46:30.116    8 Sep 2021 11:52:24.501           354.385
                      10    8 Sep 2021 12:39:01.708    8 Sep 2021 12:44:56.091           354.384
                      11    8 Sep 2021 13:31:33.293    8 Sep 2021 13:37:27.680           354.387
                      12    8 Sep 2021 14:24:04.880    8 Sep 2021 14:29:59.264           354.384
                      13    8 Sep 2021 15:16:36.472    8 Sep 2021 15:22:30.856           354.384
                      14    8 Sep 2021 16:09:08.061    8 Sep 2021 16:15:02.445           354.384
                      15    8 Sep 2021 17:01:39.645    8 Sep 2021 17:07:34.033           354.388
                      16    8 Sep 2021 17:54:11.234    8 Sep 2021 18:00:05.619           354.385
                      17    8 Sep 2021 18:46:42.826    8 Sep 2021 18:52:37.210           354.384
                      18    8 Sep 2021 19:39:14.410    8 Sep 2021 19:45:08.799           354.388
                      19    8 Sep 2021 20:31:45.999    8 Sep 2021 20:37:40.382           354.384
                      20    8 Sep 2021 21:24:17.590    8 Sep 2021 21:30:11.974           354.384
                      21    8 Sep 2021 22:16:49.180    8 Sep 2021 22:22:43.564           354.384
                      22    8 Sep 2021 23:09:20.768    8 Sep 2021 23:15:15.152           354.384
                      23    9 Sep 2021 00:01:52.353    9 Sep 2021 00:07:46.738           354.385
                      24    9 Sep 2021 00:54:23.944    9 Sep 2021 01:00:18.329           354.385
                      25    9 Sep 2021 01:46:55.529    9 Sep 2021 01:52:49.918           354.389
                      26    9 Sep 2021 02:39:27.117    9 Sep 2021 02:45:21.501           354.384
                      27    9 Sep 2021 03:31:58.709    9 Sep 2021 03:37:53.093           354.384

Min Duration          10    8 Sep 2021 12:39:01.708    8 Sep 2021 12:44:56.091           354.384
Max Duration          25    9 Sep 2021 01:46:55.529    9 Sep 2021 01:52:49.918           354.389
Mean Duration                                                                            354.385
Total Duration                                                                          9568.401


Satellite606-To-Satellite102
----------------------------
                  Access       Start Time (UTCG)           Stop Time (UTCG)       Duration (sec)
                  ------    -----------------------    -----------------------    --------------
                       1    8 Sep 2021 04:00:00.000    8 Sep 2021 04:01:00.320            60.320
                       2    8 Sep 2021 04:34:26.976    8 Sep 2021 04:53:31.905          1144.929
                       3    8 Sep 2021 05:26:58.569    8 Sep 2021 05:46:03.496          1144.927
                       4    8 Sep 2021 06:19:30.157    8 Sep 2021 06:38:35.085          1144.927
                       5    8 Sep 2021 07:12:01.746    8 Sep 2021 07:31:06.673          1144.927
                       6    8 Sep 2021 08:04:33.334    8 Sep 2021 08:23:38.260          1144.926
                       7    8 Sep 2021 08:57:04.922    8 Sep 2021 09:16:09.850          1144.927
                       8    8 Sep 2021 09:49:36.511    8 Sep 2021 10:08:41.438          1144.927
                       9    8 Sep 2021 10:42:08.095    8 Sep 2021 11:01:13.026          1144.931
                      10    8 Sep 2021 11:34:39.684    8 Sep 2021 11:53:44.614          1144.930
                      11    8 Sep 2021 12:27:11.273    8 Sep 2021 12:46:16.203          1144.930
                      12    8 Sep 2021 13:19:42.862    8 Sep 2021 13:38:47.791          1144.930
                      13    8 Sep 2021 14:12:14.450    8 Sep 2021 14:31:19.380          1144.929
                      14    8 Sep 2021 15:04:46.039    8 Sep 2021 15:23:50.968          1144.929
                      15    8 Sep 2021 15:57:17.627    8 Sep 2021 16:16:22.556          1144.929
                      16    8 Sep 2021 16:49:49.216    8 Sep 2021 17:08:54.145          1144.929
                      17    8 Sep 2021 17:42:20.804    8 Sep 2021 18:01:25.733          1144.929
                      18    8 Sep 2021 18:34:52.392    8 Sep 2021 18:53:57.321          1144.929
                      19    8 Sep 2021 19:27:23.981    8 Sep 2021 19:46:28.910          1144.929
                      20    8 Sep 2021 20:19:55.569    8 Sep 2021 20:39:00.498          1144.929
                      21    8 Sep 2021 21:12:27.158    8 Sep 2021 21:31:32.087          1144.929
                      22    8 Sep 2021 22:04:58.746    8 Sep 2021 22:24:03.675          1144.929
                      23    8 Sep 2021 22:57:30.334    8 Sep 2021 23:16:35.263          1144.929
                      24    8 Sep 2021 23:50:01.923    9 Sep 2021 00:09:06.852          1144.929
                      25    9 Sep 2021 00:42:33.511    9 Sep 2021 01:01:38.440          1144.929
                      26    9 Sep 2021 01:35:05.100    9 Sep 2021 01:54:10.029          1144.929
                      27    9 Sep 2021 02:27:36.688    9 Sep 2021 02:46:41.617          1144.929
                      28    9 Sep 2021 03:20:08.276    9 Sep 2021 03:39:13.205          1144.929

Min Duration           1    8 Sep 2021 04:00:00.000    8 Sep 2021 04:01:00.320            60.320
Max Duration           9    8 Sep 2021 10:42:08.095    8 Sep 2021 11:01:13.026          1144.931
Mean Duration                                                                           1106.193
Total Duration                                                                         30973.396


Satellite606-To-Satellite103
----------------------------
                  Access       Start Time (UTCG)           Stop Time (UTCG)       Duration (sec)
                  ------    -----------------------    -----------------------    --------------
                       1    8 Sep 2021 04:26:21.656    8 Sep 2021 04:51:06.915          1485.260
                       2    8 Sep 2021 05:18:53.242    8 Sep 2021 05:43:38.500          1485.258
                       3    8 Sep 2021 06:11:24.832    8 Sep 2021 06:36:10.092          1485.260
                       4    8 Sep 2021 07:03:56.421    8 Sep 2021 07:28:41.677          1485.255
                       5    8 Sep 2021 07:56:28.009    8 Sep 2021 08:21:13.269          1485.260
                       6    8 Sep 2021 08:48:59.599    8 Sep 2021 09:13:44.853          1485.254
                       7    8 Sep 2021 09:41:31.185    8 Sep 2021 10:06:16.445          1485.260
                       8    8 Sep 2021 10:34:02.776    8 Sep 2021 10:58:48.030          1485.254
                       9    8 Sep 2021 11:26:34.362    8 Sep 2021 11:51:19.622          1485.260
                      10    8 Sep 2021 12:19:05.953    8 Sep 2021 12:43:51.207          1485.254
                      11    8 Sep 2021 13:11:37.539    8 Sep 2021 13:36:22.799          1485.260
                      12    8 Sep 2021 14:04:09.129    8 Sep 2021 14:28:54.384          1485.254
                      13    8 Sep 2021 14:56:40.716    8 Sep 2021 15:21:25.976          1485.260
                      14    8 Sep 2021 15:49:12.306    8 Sep 2021 16:13:57.560          1485.254
                      15    8 Sep 2021 16:41:43.893    8 Sep 2021 17:06:29.152          1485.260
                      16    8 Sep 2021 17:34:15.483    8 Sep 2021 17:59:00.737          1485.254
                      17    8 Sep 2021 18:26:47.069    8 Sep 2021 18:51:32.329          1485.260
                      18    8 Sep 2021 19:19:18.660    8 Sep 2021 19:44:03.914          1485.254
                      19    8 Sep 2021 20:11:50.246    8 Sep 2021 20:36:35.506          1485.260
                      20    8 Sep 2021 21:04:21.837    8 Sep 2021 21:29:07.091          1485.254
                      21    8 Sep 2021 21:56:53.423    8 Sep 2021 22:21:38.683          1485.260
                      22    8 Sep 2021 22:49:25.013    8 Sep 2021 23:14:10.268          1485.254
                      23    8 Sep 2021 23:41:56.600    9 Sep 2021 00:06:41.860          1485.260
                      24    9 Sep 2021 00:34:28.190    9 Sep 2021 00:59:13.444          1485.254
                      25    9 Sep 2021 01:26:59.777    9 Sep 2021 01:51:45.036          1485.260
                      26    9 Sep 2021 02:19:31.367    9 Sep 2021 02:44:16.621          1485.254
                      27    9 Sep 2021 03:12:02.953    9 Sep 2021 03:36:48.213          1485.260

Min Duration          26    9 Sep 2021 02:19:31.367    9 Sep 2021 02:44:16.621          1485.254
Max Duration          15    8 Sep 2021 16:41:43.893    8 Sep 2021 17:06:29.152          1485.260
Mean Duration                                                                           1485.257
Total Duration                                                                         40101.948


Satellite606-To-Satellite104
----------------------------
                  Access       Start Time (UTCG)           Stop Time (UTCG)       Duration (sec)
                  ------    -----------------------    -----------------------    --------------
                       1    8 Sep 2021 04:21:03.509    8 Sep 2021 04:45:54.744          1491.235
                       2    8 Sep 2021 05:13:35.095    8 Sep 2021 05:38:26.328          1491.234
                       3    8 Sep 2021 06:06:06.686    8 Sep 2021 06:30:57.921          1491.235
                       4    8 Sep 2021 06:58:38.271    8 Sep 2021 07:23:29.505          1491.234
                       5    8 Sep 2021 07:51:09.864    8 Sep 2021 08:16:01.098          1491.234
                       6    8 Sep 2021 08:43:41.448    8 Sep 2021 09:08:32.682          1491.234
                       7    8 Sep 2021 09:36:13.040    8 Sep 2021 10:01:04.275          1491.234
                       8    8 Sep 2021 10:28:44.625    8 Sep 2021 10:53:35.859          1491.234
                       9    8 Sep 2021 11:21:16.217    8 Sep 2021 11:46:07.451          1491.234
                      10    8 Sep 2021 12:13:47.802    8 Sep 2021 12:38:39.036          1491.234
                      11    8 Sep 2021 13:06:19.394    8 Sep 2021 13:31:10.628          1491.234
                      12    8 Sep 2021 13:58:50.979    8 Sep 2021 14:23:42.213          1491.234
                      13    8 Sep 2021 14:51:22.571    8 Sep 2021 15:16:13.805          1491.234
                      14    8 Sep 2021 15:43:54.155    8 Sep 2021 16:08:45.389          1491.234
                      15    8 Sep 2021 16:36:25.748    8 Sep 2021 17:01:16.982          1491.234
                      16    8 Sep 2021 17:28:57.332    8 Sep 2021 17:53:48.566          1491.234
                      17    8 Sep 2021 18:21:28.924    8 Sep 2021 18:46:20.158          1491.234
                      18    8 Sep 2021 19:14:00.509    8 Sep 2021 19:38:51.743          1491.234
                      19    8 Sep 2021 20:06:32.101    8 Sep 2021 20:31:23.335          1491.234
                      20    8 Sep 2021 20:59:03.686    8 Sep 2021 21:23:54.920          1491.234
                      21    8 Sep 2021 21:51:35.278    8 Sep 2021 22:16:26.512          1491.234
                      22    8 Sep 2021 22:44:06.863    8 Sep 2021 23:08:58.097          1491.234
                      23    8 Sep 2021 23:36:38.455    9 Sep 2021 00:01:29.689          1491.234
                      24    9 Sep 2021 00:29:10.039    9 Sep 2021 00:54:01.273          1491.234
                      25    9 Sep 2021 01:21:41.632    9 Sep 2021 01:46:32.866          1491.234
                      26    9 Sep 2021 02:14:13.216    9 Sep 2021 02:39:04.450          1491.234
                      27    9 Sep 2021 03:06:44.808    9 Sep 2021 03:31:36.042          1491.234
                      28    9 Sep 2021 03:59:16.393    9 Sep 2021 04:00:00.000            43.607

Min Duration          28    9 Sep 2021 03:59:16.393    9 Sep 2021 04:00:00.000            43.607
Max Duration           1    8 Sep 2021 04:21:03.509    8 Sep 2021 04:45:54.744          1491.235
Mean Duration                                                                           1439.533
Total Duration                                                                         40306.925


Satellite606-To-Satellite105
----------------------------
                  Access       Start Time (UTCG)           Stop Time (UTCG)       Duration (sec)
                  ------    -----------------------    -----------------------    --------------
                       1    8 Sep 2021 04:18:31.933    8 Sep 2021 04:37:55.998          1164.064
                       2    8 Sep 2021 05:11:03.523    8 Sep 2021 05:30:27.586          1164.063
                       3    8 Sep 2021 06:03:35.111    8 Sep 2021 06:22:59.176          1164.065
                       4    8 Sep 2021 06:56:06.701    8 Sep 2021 07:15:30.763          1164.062
                       5    8 Sep 2021 07:48:38.288    8 Sep 2021 08:08:02.352          1164.064
                       6    8 Sep 2021 08:41:09.876    8 Sep 2021 09:00:33.940          1164.063
                       7    8 Sep 2021 09:33:41.464    8 Sep 2021 09:53:05.528          1164.064
                       8    8 Sep 2021 10:26:13.055    8 Sep 2021 10:45:37.115          1164.061
                       9    8 Sep 2021 11:18:44.642    8 Sep 2021 11:38:08.704          1164.062
                      10    8 Sep 2021 12:11:16.230    8 Sep 2021 12:30:40.294          1164.064
                      11    8 Sep 2021 13:03:47.820    8 Sep 2021 13:23:11.882          1164.063
                      12    8 Sep 2021 13:56:19.406    8 Sep 2021 14:15:43.470          1164.064
                      13    8 Sep 2021 14:48:50.995    8 Sep 2021 15:08:15.058          1164.063
                      14    8 Sep 2021 15:41:22.583    8 Sep 2021 16:00:46.648          1164.065
                      15    8 Sep 2021 16:33:54.173    8 Sep 2021 16:53:18.236          1164.062
                      16    8 Sep 2021 17:26:25.760    8 Sep 2021 17:45:49.824          1164.064
                      17    8 Sep 2021 18:18:57.349    8 Sep 2021 18:38:21.412          1164.063
                      18    8 Sep 2021 19:11:28.937    8 Sep 2021 19:30:53.001          1164.064
                      19    8 Sep 2021 20:04:00.527    8 Sep 2021 20:23:24.588          1164.061
                      20    8 Sep 2021 20:56:32.114    8 Sep 2021 21:15:56.176          1164.062
                      21    8 Sep 2021 21:49:03.703    8 Sep 2021 22:08:27.767          1164.064
                      22    8 Sep 2021 22:41:35.292    8 Sep 2021 23:00:59.355          1164.063
                      23    8 Sep 2021 23:34:06.878    8 Sep 2021 23:53:30.942          1164.064
                      24    9 Sep 2021 00:26:38.467    9 Sep 2021 00:46:02.530          1164.063
                      25    9 Sep 2021 01:19:10.056    9 Sep 2021 01:38:34.121          1164.065
                      26    9 Sep 2021 02:11:41.646    9 Sep 2021 02:31:05.708          1164.062
                      27    9 Sep 2021 03:04:13.232    9 Sep 2021 03:23:37.296          1164.064
                      28    9 Sep 2021 03:56:44.821    9 Sep 2021 04:00:00.000           195.179

Min Duration          28    9 Sep 2021 03:56:44.821    9 Sep 2021 04:00:00.000           195.179
Max Duration          25    9 Sep 2021 01:19:10.056    9 Sep 2021 01:38:34.121          1164.065
Mean Duration                                                                           1129.460
Total Duration                                                                         31624.889


Satellite606-To-Satellite106
----------------------------
                  Access       Start Time (UTCG)           Stop Time (UTCG)       Duration (sec)
                  ------    -----------------------    -----------------------    --------------
                       1    8 Sep 2021 04:19:27.987    8 Sep 2021 04:26:29.629           421.643
                       2    8 Sep 2021 05:11:59.575    8 Sep 2021 05:19:01.218           421.643
                       3    8 Sep 2021 06:04:31.163    8 Sep 2021 06:11:32.806           421.644
                       4    8 Sep 2021 06:57:02.754    8 Sep 2021 07:04:04.395           421.641
                       5    8 Sep 2021 07:49:34.339    8 Sep 2021 07:56:35.983           421.644
                       6    8 Sep 2021 08:42:05.930    8 Sep 2021 08:49:07.571           421.641
                       7    8 Sep 2021 09:34:37.516    8 Sep 2021 09:41:39.159           421.644
                       8    8 Sep 2021 10:27:09.109    8 Sep 2021 10:34:10.748           421.639
                       9    8 Sep 2021 11:19:40.693    8 Sep 2021 11:26:42.337           421.644
                      10    8 Sep 2021 12:12:12.285    8 Sep 2021 12:19:13.925           421.640
                      11    8 Sep 2021 13:04:43.869    8 Sep 2021 13:11:45.513           421.644
                      12    8 Sep 2021 13:57:15.460    8 Sep 2021 14:04:17.101           421.641
                      13    8 Sep 2021 14:49:47.046    8 Sep 2021 14:56:48.690           421.644
                      14    8 Sep 2021 15:42:18.636    8 Sep 2021 15:49:20.278           421.642
                      15    8 Sep 2021 16:34:50.223    8 Sep 2021 16:41:51.867           421.644
                      16    8 Sep 2021 17:27:21.812    8 Sep 2021 17:34:23.455           421.643
                      17    8 Sep 2021 18:19:53.401    8 Sep 2021 18:26:55.044           421.643
                      18    8 Sep 2021 19:12:24.989    8 Sep 2021 19:19:26.632           421.644
                      19    8 Sep 2021 20:04:56.580    8 Sep 2021 20:11:58.220           421.641
                      20    8 Sep 2021 20:57:28.165    8 Sep 2021 21:04:29.809           421.644
                      21    8 Sep 2021 21:49:59.756    8 Sep 2021 21:57:01.397           421.641
                      22    8 Sep 2021 22:42:31.342    8 Sep 2021 22:49:32.985           421.643
                      23    8 Sep 2021 23:35:02.935    8 Sep 2021 23:42:04.574           421.639
                      24    9 Sep 2021 00:27:34.518    9 Sep 2021 00:34:36.163           421.644
                      25    9 Sep 2021 01:20:06.110    9 Sep 2021 01:27:07.750           421.640
                      26    9 Sep 2021 02:12:37.695    9 Sep 2021 02:19:39.339           421.644
                      27    9 Sep 2021 03:05:09.286    9 Sep 2021 03:12:10.927           421.641
                      28    9 Sep 2021 03:57:40.872    9 Sep 2021 04:00:00.000           139.128

Min Duration          28    9 Sep 2021 03:57:40.872    9 Sep 2021 04:00:00.000           139.128
Max Duration           9    8 Sep 2021 11:19:40.693    8 Sep 2021 11:26:42.337           421.644
Mean Duration                                                                            411.553
Total Duration                                                                         11523.471


Satellite606-To-Satellite201
----------------------------
                  Access       Start Time (UTCG)           Stop Time (UTCG)       Duration (sec)
                  ------    -----------------------    -----------------------    --------------
                       1    8 Sep 2021 04:00:00.000    8 Sep 2021 04:07:22.422           442.422
                       2    8 Sep 2021 04:37:16.400    8 Sep 2021 04:59:54.010          1357.610
                       3    8 Sep 2021 05:29:47.989    8 Sep 2021 05:52:25.599          1357.610
                       4    8 Sep 2021 06:22:19.580    8 Sep 2021 06:44:57.190          1357.610
                       5    8 Sep 2021 07:14:51.169    8 Sep 2021 07:37:28.779          1357.610
                       6    8 Sep 2021 08:07:22.757    8 Sep 2021 08:30:00.367          1357.610
                       7    8 Sep 2021 08:59:54.345    8 Sep 2021 09:22:31.956          1357.610
                       8    8 Sep 2021 09:52:25.934    8 Sep 2021 10:15:03.544          1357.610
                       9    8 Sep 2021 10:44:57.522    8 Sep 2021 11:07:35.132          1357.610
                      10    8 Sep 2021 11:37:29.111    8 Sep 2021 12:00:06.721          1357.610
                      11    8 Sep 2021 12:30:00.699    8 Sep 2021 12:52:38.309          1357.610
                      12    8 Sep 2021 13:22:32.287    8 Sep 2021 13:45:09.898          1357.610
                      13    8 Sep 2021 14:15:03.876    8 Sep 2021 14:37:41.486          1357.610
                      14    8 Sep 2021 15:07:35.464    8 Sep 2021 15:30:13.074          1357.610
                      15    8 Sep 2021 16:00:07.053    8 Sep 2021 16:22:44.663          1357.610
                      16    8 Sep 2021 16:52:38.641    8 Sep 2021 17:15:16.251          1357.610
                      17    8 Sep 2021 17:45:10.229    8 Sep 2021 18:07:47.840          1357.610
                      18    8 Sep 2021 18:37:41.818    8 Sep 2021 19:00:19.428          1357.610
                      19    8 Sep 2021 19:30:13.406    8 Sep 2021 19:52:51.016          1357.610
                      20    8 Sep 2021 20:22:44.995    8 Sep 2021 20:45:22.605          1357.610
                      21    8 Sep 2021 21:15:16.583    8 Sep 2021 21:37:54.193          1357.610
                      22    8 Sep 2021 22:07:48.171    8 Sep 2021 22:30:25.782          1357.610
                      23    8 Sep 2021 23:00:19.760    8 Sep 2021 23:22:57.370          1357.610
                      24    8 Sep 2021 23:52:51.348    9 Sep 2021 00:15:28.958          1357.610
                      25    9 Sep 2021 00:45:22.937    9 Sep 2021 01:08:00.547          1357.610
                      26    9 Sep 2021 01:37:54.525    9 Sep 2021 02:00:32.135          1357.610
                      27    9 Sep 2021 02:30:26.113    9 Sep 2021 02:53:03.723          1357.610
                      28    9 Sep 2021 03:22:57.702    9 Sep 2021 03:45:35.312          1357.610

Min Duration           1    8 Sep 2021 04:00:00.000    8 Sep 2021 04:07:22.422           442.422
Max Duration           2    8 Sep 2021 04:37:16.400    8 Sep 2021 04:59:54.010          1357.610
Mean Duration                                                                           1324.925
Total Duration                                                                         37097.896


Satellite606-To-Satellite202
----------------------------
                  Access       Start Time (UTCG)           Stop Time (UTCG)       Duration (sec)
                  ------    -----------------------    -----------------------    --------------
                       1    8 Sep 2021 04:00:00.000    8 Sep 2021 04:02:07.271           127.271
                       2    8 Sep 2021 04:32:01.240    8 Sep 2021 04:54:38.860          1357.619
                       3    8 Sep 2021 05:24:32.828    8 Sep 2021 05:47:10.448          1357.620
                       4    8 Sep 2021 06:17:04.417    8 Sep 2021 06:39:42.036          1357.620
                       5    8 Sep 2021 07:09:36.005    8 Sep 2021 07:32:13.625          1357.620
                       6    8 Sep 2021 08:02:07.593    8 Sep 2021 08:24:45.213          1357.620
                       7    8 Sep 2021 08:54:39.182    8 Sep 2021 09:17:16.802          1357.620
                       8    8 Sep 2021 09:47:10.770    8 Sep 2021 10:09:48.390          1357.620
                       9    8 Sep 2021 10:39:42.359    8 Sep 2021 11:02:19.978          1357.620
                      10    8 Sep 2021 11:32:13.947    8 Sep 2021 11:54:51.567          1357.620
                      11    8 Sep 2021 12:24:45.535    8 Sep 2021 12:47:23.155          1357.620
                      12    8 Sep 2021 13:17:17.124    8 Sep 2021 13:39:54.743          1357.620
                      13    8 Sep 2021 14:09:48.712    8 Sep 2021 14:32:26.332          1357.620
                      14    8 Sep 2021 15:02:20.301    8 Sep 2021 15:24:57.920          1357.620
                      15    8 Sep 2021 15:54:51.889    8 Sep 2021 16:17:29.509          1357.620
                      16    8 Sep 2021 16:47:23.477    8 Sep 2021 17:10:01.097          1357.620
                      17    8 Sep 2021 17:39:55.066    8 Sep 2021 18:02:32.685          1357.620
                      18    8 Sep 2021 18:32:26.654    8 Sep 2021 18:55:04.274          1357.620
                      19    8 Sep 2021 19:24:58.243    8 Sep 2021 19:47:35.862          1357.620
                      20    8 Sep 2021 20:17:29.831    8 Sep 2021 20:40:07.451          1357.620
                      21    8 Sep 2021 21:10:01.419    8 Sep 2021 21:32:39.039          1357.620
                      22    8 Sep 2021 22:02:33.008    8 Sep 2021 22:25:10.627          1357.620
                      23    8 Sep 2021 22:55:04.596    8 Sep 2021 23:17:42.216          1357.620
                      24    8 Sep 2021 23:47:36.185    9 Sep 2021 00:10:13.804          1357.620
                      25    9 Sep 2021 00:40:07.773    9 Sep 2021 01:02:45.393          1357.620
                      26    9 Sep 2021 01:32:39.361    9 Sep 2021 01:55:16.981          1357.620
                      27    9 Sep 2021 02:25:10.950    9 Sep 2021 02:47:48.569          1357.620
                      28    9 Sep 2021 03:17:42.538    9 Sep 2021 03:40:20.158          1357.620

Min Duration           1    8 Sep 2021 04:00:00.000    8 Sep 2021 04:02:07.271           127.271
Max Duration          22    8 Sep 2021 22:02:33.008    8 Sep 2021 22:25:10.627          1357.620
Mean Duration                                                                           1313.679
Total Duration                                                                         36783.001


Satellite606-To-Satellite203
----------------------------
                  Access       Start Time (UTCG)           Stop Time (UTCG)       Duration (sec)
                  ------    -----------------------    -----------------------    --------------
                       1    8 Sep 2021 04:28:43.126    8 Sep 2021 04:47:26.650          1123.523
                       2    8 Sep 2021 05:21:14.719    8 Sep 2021 05:39:58.237          1123.518
                       3    8 Sep 2021 06:13:46.308    8 Sep 2021 06:32:29.824          1123.517
                       4    8 Sep 2021 07:06:17.896    8 Sep 2021 07:25:01.415          1123.519
                       5    8 Sep 2021 07:58:49.484    8 Sep 2021 08:17:33.006          1123.522
                       6    8 Sep 2021 08:51:21.068    8 Sep 2021 09:10:04.592          1123.524
                       7    8 Sep 2021 09:43:52.661    8 Sep 2021 10:02:36.179          1123.518
                       8    8 Sep 2021 10:36:24.250    8 Sep 2021 10:55:07.766          1123.517
                       9    8 Sep 2021 11:28:55.838    8 Sep 2021 11:47:39.357          1123.518
                      10    8 Sep 2021 12:21:27.426    8 Sep 2021 12:40:10.948          1123.521
                      11    8 Sep 2021 13:13:59.010    8 Sep 2021 13:32:42.534          1123.524
                      12    8 Sep 2021 14:06:30.603    8 Sep 2021 14:25:14.121          1123.518
                      13    8 Sep 2021 14:59:02.192    8 Sep 2021 15:17:45.708          1123.517
                      14    8 Sep 2021 15:51:33.778    8 Sep 2021 16:10:17.299          1123.521
                      15    8 Sep 2021 16:44:05.364    8 Sep 2021 17:02:48.890          1123.526
                      16    8 Sep 2021 17:36:36.952    8 Sep 2021 17:55:20.476          1123.524
                      17    8 Sep 2021 18:29:08.545    8 Sep 2021 18:47:52.063          1123.518
                      18    8 Sep 2021 19:21:40.134    8 Sep 2021 19:40:23.650          1123.517
                      19    8 Sep 2021 20:14:11.720    8 Sep 2021 20:32:55.241          1123.521
                      20    8 Sep 2021 21:06:43.306    8 Sep 2021 21:25:26.832          1123.526
                      21    8 Sep 2021 21:59:14.894    8 Sep 2021 22:17:58.418          1123.524
                      22    8 Sep 2021 22:51:46.487    8 Sep 2021 23:10:30.005          1123.518
                      23    8 Sep 2021 23:44:18.076    9 Sep 2021 00:03:01.592          1123.517
                      24    9 Sep 2021 00:36:49.662    9 Sep 2021 00:55:33.182          1123.521
                      25    9 Sep 2021 01:29:21.248    9 Sep 2021 01:48:04.774          1123.526
                      26    9 Sep 2021 02:21:52.836    9 Sep 2021 02:40:36.360          1123.524
                      27    9 Sep 2021 03:14:24.429    9 Sep 2021 03:33:07.947          1123.518

Min Duration           3    8 Sep 2021 06:13:46.308    8 Sep 2021 06:32:29.824          1123.517
Max Duration          15    8 Sep 2021 16:44:05.364    8 Sep 2021 17:02:48.890          1123.526
Mean Duration                                                                           1123.521
Total Duration                                                                         30335.054


Satellite606-To-Satellite204
----------------------------
                  Access       Start Time (UTCG)           Stop Time (UTCG)       Duration (sec)
                  ------    -----------------------    -----------------------    --------------
                       1    8 Sep 2021 04:27:19.064    8 Sep 2021 04:38:20.396           661.332
                       2    8 Sep 2021 05:19:50.652    8 Sep 2021 05:30:51.984           661.332
                       3    8 Sep 2021 06:12:22.242    8 Sep 2021 06:23:23.572           661.330
                       4    8 Sep 2021 07:04:53.833    8 Sep 2021 07:15:55.160           661.327
                       5    8 Sep 2021 07:57:25.421    8 Sep 2021 08:08:26.748           661.327
                       6    8 Sep 2021 08:49:57.009    8 Sep 2021 09:00:58.334           661.325
                       7    8 Sep 2021 09:42:28.597    8 Sep 2021 09:53:29.926           661.329
                       8    8 Sep 2021 10:35:00.184    8 Sep 2021 10:46:01.516           661.332
                       9    8 Sep 2021 11:27:31.771    8 Sep 2021 11:38:33.104           661.332
                      10    8 Sep 2021 12:20:03.359    8 Sep 2021 12:31:04.691           661.332
                      11    8 Sep 2021 13:12:34.952    8 Sep 2021 13:23:36.279           661.327
                      12    8 Sep 2021 14:05:06.540    8 Sep 2021 14:16:07.867           661.327
                      13    8 Sep 2021 14:57:38.128    8 Sep 2021 15:08:39.455           661.327
                      14    8 Sep 2021 15:50:09.717    8 Sep 2021 16:01:11.042           661.325
                      15    8 Sep 2021 16:42:41.304    8 Sep 2021 16:53:42.631           661.327
                      16    8 Sep 2021 17:35:12.892    8 Sep 2021 17:46:14.223           661.331
                      17    8 Sep 2021 18:27:44.479    8 Sep 2021 18:38:45.811           661.332
                      18    8 Sep 2021 19:20:16.066    8 Sep 2021 19:31:17.399           661.332
                      19    8 Sep 2021 20:12:47.657    8 Sep 2021 20:23:48.986           661.329
                      20    8 Sep 2021 21:05:19.248    8 Sep 2021 21:16:20.574           661.327
                      21    8 Sep 2021 21:57:50.836    8 Sep 2021 22:08:52.162           661.327
                      22    8 Sep 2021 22:50:22.424    8 Sep 2021 23:01:23.749           661.325
                      23    8 Sep 2021 23:42:54.012    8 Sep 2021 23:53:55.337           661.326
                      24    9 Sep 2021 00:35:25.599    9 Sep 2021 00:46:26.930           661.331
                      25    9 Sep 2021 01:27:57.186    9 Sep 2021 01:38:58.518           661.332
                      26    9 Sep 2021 02:20:28.773    9 Sep 2021 02:31:30.106           661.332
                      27    9 Sep 2021 03:13:00.362    9 Sep 2021 03:24:01.694           661.331

Min Duration          22    8 Sep 2021 22:50:22.424    8 Sep 2021 23:01:23.749           661.325
Max Duration           1    8 Sep 2021 04:27:19.064    8 Sep 2021 04:38:20.396           661.332
Mean Duration                                                                            661.329
Total Duration                                                                         17855.888


Satellite606-To-Satellite209
----------------------------
                  Access       Start Time (UTCG)           Stop Time (UTCG)       Duration (sec)
                  ------    -----------------------    -----------------------    --------------
                       1    8 Sep 2021 04:01:03.298    8 Sep 2021 04:12:04.574           661.276
                       2    8 Sep 2021 04:53:34.885    8 Sep 2021 05:04:36.165           661.280
                       3    8 Sep 2021 05:46:06.473    8 Sep 2021 05:57:07.755           661.283
                       4    8 Sep 2021 06:38:38.060    8 Sep 2021 06:49:39.343           661.284
                       5    8 Sep 2021 07:31:09.647    8 Sep 2021 07:42:10.931           661.284
                       6    8 Sep 2021 08:23:41.240    8 Sep 2021 08:34:42.519           661.279
                       7    8 Sep 2021 09:16:12.829    8 Sep 2021 09:27:14.107           661.278
                       8    8 Sep 2021 10:08:44.417    8 Sep 2021 10:19:45.695           661.278
                       9    8 Sep 2021 11:01:16.005    8 Sep 2021 11:12:17.281           661.276
                      10    8 Sep 2021 11:53:47.592    8 Sep 2021 12:04:48.870           661.278
                      11    8 Sep 2021 12:46:19.180    8 Sep 2021 12:57:20.462           661.283
                      12    8 Sep 2021 13:38:50.767    8 Sep 2021 13:49:52.050           661.284
                      13    8 Sep 2021 14:31:22.354    8 Sep 2021 14:42:23.638           661.284
                      14    8 Sep 2021 15:23:53.945    8 Sep 2021 15:34:55.226           661.281
                      15    8 Sep 2021 16:16:25.536    8 Sep 2021 16:27:26.814           661.278
                      16    8 Sep 2021 17:08:57.124    8 Sep 2021 17:19:58.402           661.278
                      17    8 Sep 2021 18:01:28.712    8 Sep 2021 18:12:29.988           661.276
                      18    8 Sep 2021 18:54:00.300    8 Sep 2021 19:05:01.581           661.282
                      19    8 Sep 2021 19:46:31.887    8 Sep 2021 19:57:33.170           661.282
                      20    8 Sep 2021 20:39:03.474    8 Sep 2021 20:50:04.758           661.283
                      21    8 Sep 2021 21:31:35.062    8 Sep 2021 21:42:36.345           661.284
                      22    8 Sep 2021 22:24:06.650    8 Sep 2021 22:35:07.933           661.283
                      23    8 Sep 2021 23:16:38.243    8 Sep 2021 23:27:39.521           661.278
                      24    9 Sep 2021 00:09:09.831    9 Sep 2021 00:20:11.109           661.278
                      25    9 Sep 2021 01:01:41.419    9 Sep 2021 01:12:42.695           661.276
                      26    9 Sep 2021 01:54:13.007    9 Sep 2021 02:05:14.286           661.279
                      27    9 Sep 2021 02:46:44.595    9 Sep 2021 02:57:45.877           661.282
                      28    9 Sep 2021 03:39:16.182    9 Sep 2021 03:50:17.465           661.283

Min Duration          25    9 Sep 2021 01:01:41.419    9 Sep 2021 01:12:42.695           661.276
Max Duration          21    8 Sep 2021 21:31:35.062    8 Sep 2021 21:42:36.345           661.284
Mean Duration                                                                            661.280
Total Duration                                                                         18515.848


Satellite606-To-Satellite210
----------------------------
                  Access       Start Time (UTCG)           Stop Time (UTCG)       Duration (sec)
                  ------    -----------------------    -----------------------    --------------
                       1    8 Sep 2021 04:00:00.000    8 Sep 2021 04:10:40.527           640.527
                       2    8 Sep 2021 04:44:28.616    8 Sep 2021 05:03:12.111          1123.495
                       3    8 Sep 2021 05:37:00.209    8 Sep 2021 05:55:43.700          1123.491
                       4    8 Sep 2021 06:29:31.797    8 Sep 2021 06:48:15.287          1123.490
                       5    8 Sep 2021 07:22:03.384    8 Sep 2021 07:40:46.879          1123.495
                       6    8 Sep 2021 08:14:34.972    8 Sep 2021 08:33:18.468          1123.496
                       7    8 Sep 2021 09:07:06.563    8 Sep 2021 09:25:50.053          1123.490
                       8    8 Sep 2021 09:59:38.151    8 Sep 2021 10:18:21.641          1123.490
                       9    8 Sep 2021 10:52:09.738    8 Sep 2021 11:10:53.231          1123.493
                      10    8 Sep 2021 11:44:41.325    8 Sep 2021 12:03:24.822          1123.497
                      11    8 Sep 2021 12:37:12.912    8 Sep 2021 12:55:56.409          1123.497
                      12    8 Sep 2021 13:29:44.505    8 Sep 2021 13:48:27.996          1123.491
                      13    8 Sep 2021 14:22:16.093    8 Sep 2021 14:40:59.583          1123.490
                      14    8 Sep 2021 15:14:47.679    8 Sep 2021 15:33:31.173          1123.494
                      15    8 Sep 2021 16:07:19.266    8 Sep 2021 16:26:02.764          1123.499
                      16    8 Sep 2021 16:59:50.854    8 Sep 2021 17:18:34.351          1123.497
                      17    8 Sep 2021 17:52:22.447    8 Sep 2021 18:11:05.938          1123.491
                      18    8 Sep 2021 18:44:54.035    8 Sep 2021 19:03:37.525          1123.490
                      19    8 Sep 2021 19:37:25.621    8 Sep 2021 19:56:09.115          1123.494
                      20    8 Sep 2021 20:29:57.207    8 Sep 2021 20:48:40.706          1123.499
                      21    8 Sep 2021 21:22:28.796    8 Sep 2021 21:41:12.293          1123.497
                      22    8 Sep 2021 22:15:00.389    8 Sep 2021 22:33:43.880          1123.491
                      23    8 Sep 2021 23:07:31.977    8 Sep 2021 23:26:15.467          1123.490
                      24    9 Sep 2021 00:00:03.563    9 Sep 2021 00:18:47.057          1123.494
                      25    9 Sep 2021 00:52:35.149    9 Sep 2021 01:11:18.648          1123.499
                      26    9 Sep 2021 01:45:06.738    9 Sep 2021 02:03:50.234          1123.497
                      27    9 Sep 2021 02:37:38.331    9 Sep 2021 02:56:21.822          1123.491
                      28    9 Sep 2021 03:30:09.919    9 Sep 2021 03:48:53.409          1123.490

Min Duration           1    8 Sep 2021 04:00:00.000    8 Sep 2021 04:10:40.527           640.527
Max Duration          25    9 Sep 2021 00:52:35.149    9 Sep 2021 01:11:18.648          1123.499
Mean Duration                                                                           1106.245
Total Duration                                                                         30974.854


Satellite606-To-Satellite301
----------------------------
                  Access       Start Time (UTCG)           Stop Time (UTCG)       Duration (sec)
                  ------    -----------------------    -----------------------    --------------
                       1    8 Sep 2021 04:00:00.000    8 Sep 2021 04:04:56.707           296.707
                       2    8 Sep 2021 04:38:23.328    8 Sep 2021 04:57:28.296          1144.967
                       3    8 Sep 2021 05:30:54.917    8 Sep 2021 05:49:59.884          1144.968
                       4    8 Sep 2021 06:23:26.505    8 Sep 2021 06:42:31.473          1144.968
                       5    8 Sep 2021 07:15:58.093    8 Sep 2021 07:35:03.061          1144.968
                       6    8 Sep 2021 08:08:29.681    8 Sep 2021 08:27:34.649          1144.968
                       7    8 Sep 2021 09:01:01.270    8 Sep 2021 09:20:06.238          1144.968
                       8    8 Sep 2021 09:53:32.858    8 Sep 2021 10:12:37.826          1144.968
                       9    8 Sep 2021 10:46:04.446    8 Sep 2021 11:05:09.415          1144.968
                      10    8 Sep 2021 11:38:36.035    8 Sep 2021 11:57:41.003          1144.968
                      11    8 Sep 2021 12:31:07.623    8 Sep 2021 12:50:12.591          1144.968
                      12    8 Sep 2021 13:23:39.212    8 Sep 2021 13:42:44.180          1144.968
                      13    8 Sep 2021 14:16:10.800    8 Sep 2021 14:35:15.768          1144.968
                      14    8 Sep 2021 15:08:42.388    8 Sep 2021 15:27:47.357          1144.968
                      15    8 Sep 2021 16:01:13.977    8 Sep 2021 16:20:18.945          1144.968
                      16    8 Sep 2021 16:53:45.565    8 Sep 2021 17:12:50.533          1144.968
                      17    8 Sep 2021 17:46:17.154    8 Sep 2021 18:05:22.122          1144.968
                      18    8 Sep 2021 18:38:48.742    8 Sep 2021 18:57:53.710          1144.968
                      19    8 Sep 2021 19:31:20.330    8 Sep 2021 19:50:25.299          1144.968
                      20    8 Sep 2021 20:23:51.919    8 Sep 2021 20:42:56.887          1144.968
                      21    8 Sep 2021 21:16:23.507    8 Sep 2021 21:35:28.475          1144.968
                      22    8 Sep 2021 22:08:55.096    8 Sep 2021 22:28:00.064          1144.968
                      23    8 Sep 2021 23:01:26.684    8 Sep 2021 23:20:31.652          1144.968
                      24    8 Sep 2021 23:53:58.272    9 Sep 2021 00:13:03.241          1144.968
                      25    9 Sep 2021 00:46:29.861    9 Sep 2021 01:05:34.829          1144.968
                      26    9 Sep 2021 01:39:01.449    9 Sep 2021 01:58:06.417          1144.968
                      27    9 Sep 2021 02:31:33.038    9 Sep 2021 02:50:38.006          1144.968
                      28    9 Sep 2021 03:24:04.626    9 Sep 2021 03:43:09.594          1144.968

Min Duration           1    8 Sep 2021 04:00:00.000    8 Sep 2021 04:04:56.707           296.707
Max Duration          28    9 Sep 2021 03:24:04.626    9 Sep 2021 03:43:09.594          1144.968
Mean Duration                                                                           1114.673
Total Duration                                                                         31210.848


Satellite606-To-Satellite302
----------------------------
                  Access       Start Time (UTCG)           Stop Time (UTCG)       Duration (sec)
                  ------    -----------------------    -----------------------    --------------
                       1    8 Sep 2021 04:39:43.399    8 Sep 2021 04:45:37.910           354.511
                       2    8 Sep 2021 05:32:14.985    8 Sep 2021 05:38:09.497           354.511
                       3    8 Sep 2021 06:24:46.575    8 Sep 2021 06:30:41.087           354.512
                       4    8 Sep 2021 07:17:18.164    8 Sep 2021 07:23:12.676           354.511
                       5    8 Sep 2021 08:09:49.750    8 Sep 2021 08:15:44.260           354.510
                       6    8 Sep 2021 09:02:21.342    8 Sep 2021 09:08:15.852           354.509
                       7    8 Sep 2021 09:54:52.931    8 Sep 2021 10:00:47.441           354.510
                       8    8 Sep 2021 10:47:24.515    8 Sep 2021 10:53:19.029           354.514
                       9    8 Sep 2021 11:39:56.104    8 Sep 2021 11:45:50.615           354.511
                      10    8 Sep 2021 12:32:27.696    8 Sep 2021 12:38:22.206           354.510
                      11    8 Sep 2021 13:24:59.280    8 Sep 2021 13:30:53.794           354.515
                      12    8 Sep 2021 14:17:30.868    8 Sep 2021 14:23:25.378           354.510
                      13    8 Sep 2021 15:10:02.460    8 Sep 2021 15:15:56.970           354.510
                      14    8 Sep 2021 16:02:34.049    8 Sep 2021 16:08:28.560           354.510
                      15    8 Sep 2021 16:55:05.635    8 Sep 2021 17:01:00.148           354.513
                      16    8 Sep 2021 17:47:37.222    8 Sep 2021 17:53:31.733           354.511
                      17    8 Sep 2021 18:40:08.814    8 Sep 2021 18:46:03.324           354.511
                      18    8 Sep 2021 19:32:40.399    8 Sep 2021 19:38:34.913           354.515
                      19    8 Sep 2021 20:25:11.987    8 Sep 2021 20:31:06.497           354.510
                      20    8 Sep 2021 21:17:43.578    8 Sep 2021 21:23:38.089           354.511
                      21    8 Sep 2021 22:10:15.168    8 Sep 2021 22:16:09.678           354.511
                      22    8 Sep 2021 23:02:46.753    8 Sep 2021 23:08:41.267           354.514
                      23    8 Sep 2021 23:55:18.341    9 Sep 2021 00:01:12.852           354.511
                      24    9 Sep 2021 00:47:49.932    9 Sep 2021 00:53:44.443           354.511
                      25    9 Sep 2021 01:40:21.517    9 Sep 2021 01:46:16.032           354.515
                      26    9 Sep 2021 02:32:53.106    9 Sep 2021 02:38:47.615           354.510
                      27    9 Sep 2021 03:25:24.697    9 Sep 2021 03:31:19.208           354.511

Min Duration           6    8 Sep 2021 09:02:21.342    8 Sep 2021 09:08:15.852           354.509
Max Duration          18    8 Sep 2021 19:32:40.399    8 Sep 2021 19:38:34.913           354.515
Mean Duration                                                                            354.511
Total Duration                                                                          9571.807


Satellite606-To-Satellite307
----------------------------
                  Access       Start Time (UTCG)           Stop Time (UTCG)       Duration (sec)
                  ------    -----------------------    -----------------------    --------------
                       1    8 Sep 2021 04:12:54.093    8 Sep 2021 04:19:55.627           421.533
                       2    8 Sep 2021 05:05:25.679    8 Sep 2021 05:12:27.216           421.537
                       3    8 Sep 2021 05:57:57.269    8 Sep 2021 06:04:58.804           421.534
                       4    8 Sep 2021 06:50:28.856    8 Sep 2021 06:57:30.393           421.537
                       5    8 Sep 2021 07:43:00.445    8 Sep 2021 07:50:01.981           421.535
                       6    8 Sep 2021 08:35:32.033    8 Sep 2021 08:42:33.569           421.536
                       7    8 Sep 2021 09:28:03.621    8 Sep 2021 09:35:05.158           421.536
                       8    8 Sep 2021 10:20:35.212    8 Sep 2021 10:27:36.746           421.534
                       9    8 Sep 2021 11:13:06.798    8 Sep 2021 11:20:08.335           421.537
                      10    8 Sep 2021 12:05:38.389    8 Sep 2021 12:12:39.923           421.534
                      11    8 Sep 2021 12:58:09.974    8 Sep 2021 13:05:11.511           421.537
                      12    8 Sep 2021 13:50:41.568    8 Sep 2021 13:57:43.099           421.532
                      13    8 Sep 2021 14:43:13.151    8 Sep 2021 14:50:14.686           421.534
                      14    8 Sep 2021 15:35:44.743    8 Sep 2021 15:42:46.276           421.533
                      15    8 Sep 2021 16:28:16.328    8 Sep 2021 16:35:17.865           421.537
                      16    8 Sep 2021 17:20:47.919    8 Sep 2021 17:27:49.453           421.533
                      17    8 Sep 2021 18:13:19.505    8 Sep 2021 18:20:21.042           421.537
                      18    8 Sep 2021 19:05:51.095    8 Sep 2021 19:12:52.629           421.534
                      19    8 Sep 2021 19:58:22.682    8 Sep 2021 20:05:24.219           421.537
                      20    8 Sep 2021 20:50:54.271    8 Sep 2021 20:57:55.807           421.535
                      21    8 Sep 2021 21:43:25.859    8 Sep 2021 21:50:27.395           421.536
                      22    8 Sep 2021 22:35:57.447    8 Sep 2021 22:42:58.984           421.536
                      23    8 Sep 2021 23:28:29.038    8 Sep 2021 23:35:30.572           421.534
                      24    9 Sep 2021 00:21:00.624    9 Sep 2021 00:28:02.160           421.537
                      25    9 Sep 2021 01:13:32.215    9 Sep 2021 01:20:33.749           421.534
                      26    9 Sep 2021 02:06:03.800    9 Sep 2021 02:13:05.337           421.537
                      27    9 Sep 2021 02:58:35.393    9 Sep 2021 03:05:36.925           421.532
                      28    9 Sep 2021 03:51:06.977    9 Sep 2021 03:58:08.511           421.534

Min Duration          12    8 Sep 2021 13:50:41.568    8 Sep 2021 13:57:43.099           421.532
Max Duration          11    8 Sep 2021 12:58:09.974    8 Sep 2021 13:05:11.511           421.537
Mean Duration                                                                            421.535
Total Duration                                                                         11802.983


Satellite606-To-Satellite308
----------------------------
                  Access       Start Time (UTCG)           Stop Time (UTCG)       Duration (sec)
                  ------    -----------------------    -----------------------    --------------
                       1    8 Sep 2021 04:01:27.689    8 Sep 2021 04:20:51.713          1164.024
                       2    8 Sep 2021 04:53:59.277    8 Sep 2021 05:13:23.303          1164.026
                       3    8 Sep 2021 05:46:30.861    8 Sep 2021 06:05:54.890          1164.029
                       4    8 Sep 2021 06:39:02.454    8 Sep 2021 06:58:26.479          1164.025
                       5    8 Sep 2021 07:31:34.042    8 Sep 2021 07:50:58.065          1164.023
                       6    8 Sep 2021 08:24:05.629    8 Sep 2021 08:43:29.654          1164.024
                       7    8 Sep 2021 09:16:37.219    8 Sep 2021 09:36:01.244          1164.025
                       8    8 Sep 2021 10:09:08.807    8 Sep 2021 10:28:32.832          1164.024
                       9    8 Sep 2021 11:01:40.394    8 Sep 2021 11:21:04.420          1164.026
                      10    8 Sep 2021 11:54:11.983    8 Sep 2021 12:13:36.008          1164.025
                      11    8 Sep 2021 12:46:43.570    8 Sep 2021 13:06:07.597          1164.027
                      12    8 Sep 2021 13:39:15.161    8 Sep 2021 13:58:39.186          1164.025
                      13    8 Sep 2021 14:31:46.748    8 Sep 2021 14:51:10.777          1164.028
                      14    8 Sep 2021 15:24:18.337    8 Sep 2021 15:43:42.363          1164.026
                      15    8 Sep 2021 16:16:49.926    8 Sep 2021 16:36:13.951          1164.024
                      16    8 Sep 2021 17:09:21.512    8 Sep 2021 17:28:45.538          1164.026
                      17    8 Sep 2021 18:01:53.102    8 Sep 2021 18:21:17.126          1164.025
                      18    8 Sep 2021 18:54:24.690    8 Sep 2021 19:13:48.717          1164.027
                      19    8 Sep 2021 19:46:56.280    8 Sep 2021 20:06:20.304          1164.024
                      20    8 Sep 2021 20:39:27.867    8 Sep 2021 20:58:51.892          1164.026
                      21    8 Sep 2021 21:31:59.455    8 Sep 2021 21:51:23.480          1164.025
                      22    8 Sep 2021 22:24:31.043    8 Sep 2021 22:43:55.069          1164.026
                      23    8 Sep 2021 23:17:02.633    8 Sep 2021 23:36:26.656          1164.023
                      24    9 Sep 2021 00:09:34.221    9 Sep 2021 00:28:58.249          1164.029
                      25    9 Sep 2021 01:02:05.809    9 Sep 2021 01:21:29.835          1164.026
                      26    9 Sep 2021 01:54:37.399    9 Sep 2021 02:14:01.423          1164.024
                      27    9 Sep 2021 02:47:08.984    9 Sep 2021 03:06:33.011          1164.026
                      28    9 Sep 2021 03:39:40.574    9 Sep 2021 03:59:04.603          1164.029

Min Duration          23    8 Sep 2021 23:17:02.633    8 Sep 2021 23:36:26.656          1164.023
Max Duration           3    8 Sep 2021 05:46:30.861    8 Sep 2021 06:05:54.890          1164.029
Mean Duration                                                                           1164.026
Total Duration                                                                         32592.718


Satellite606-To-Satellite309
----------------------------
                  Access       Start Time (UTCG)           Stop Time (UTCG)       Duration (sec)
                  ------    -----------------------    -----------------------    --------------
                       1    8 Sep 2021 04:00:00.000    8 Sep 2021 04:18:20.149          1100.149
                       2    8 Sep 2021 04:46:00.521    8 Sep 2021 05:10:51.742          1491.221
                       3    8 Sep 2021 05:38:32.106    8 Sep 2021 06:03:23.327          1491.221
                       4    8 Sep 2021 06:31:03.698    8 Sep 2021 06:55:54.919          1491.221
                       5    8 Sep 2021 07:23:35.283    8 Sep 2021 07:48:26.503          1491.221
                       6    8 Sep 2021 08:16:06.875    8 Sep 2021 08:40:58.096          1491.221
                       7    8 Sep 2021 09:08:38.459    8 Sep 2021 09:33:29.680          1491.221
                       8    8 Sep 2021 10:01:10.052    8 Sep 2021 10:26:01.272          1491.221
                       9    8 Sep 2021 10:53:41.636    8 Sep 2021 11:18:32.857          1491.221
                      10    8 Sep 2021 11:46:13.228    8 Sep 2021 12:11:04.449          1491.221
                      11    8 Sep 2021 12:38:44.813    8 Sep 2021 13:03:36.034          1491.221
                      12    8 Sep 2021 13:31:16.405    8 Sep 2021 13:56:07.626          1491.221
                      13    8 Sep 2021 14:23:47.990    8 Sep 2021 14:48:39.211          1491.221
                      14    8 Sep 2021 15:16:19.582    8 Sep 2021 15:41:10.803          1491.221
                      15    8 Sep 2021 16:08:51.166    8 Sep 2021 16:33:42.387          1491.221
                      16    8 Sep 2021 17:01:22.759    8 Sep 2021 17:26:13.980          1491.221
                      17    8 Sep 2021 17:53:54.343    8 Sep 2021 18:18:45.564          1491.221
                      18    8 Sep 2021 18:46:25.935    8 Sep 2021 19:11:17.156          1491.221
                      19    8 Sep 2021 19:38:57.520    8 Sep 2021 20:03:48.741          1491.221
                      20    8 Sep 2021 20:31:29.112    8 Sep 2021 20:56:20.333          1491.221
                      21    8 Sep 2021 21:24:00.697    8 Sep 2021 21:48:51.918          1491.221
                      22    8 Sep 2021 22:16:32.289    8 Sep 2021 22:41:23.510          1491.221
                      23    8 Sep 2021 23:09:03.874    8 Sep 2021 23:33:55.094          1491.221
                      24    9 Sep 2021 00:01:35.466    9 Sep 2021 00:26:26.687          1491.221
                      25    9 Sep 2021 00:54:07.050    9 Sep 2021 01:18:58.271          1491.221
                      26    9 Sep 2021 01:46:38.643    9 Sep 2021 02:11:29.864          1491.221
                      27    9 Sep 2021 02:39:10.227    9 Sep 2021 03:04:01.448          1491.221
                      28    9 Sep 2021 03:31:41.819    9 Sep 2021 03:56:33.040          1491.221

Min Duration           1    8 Sep 2021 04:00:00.000    8 Sep 2021 04:18:20.149          1100.149
Max Duration           2    8 Sep 2021 04:46:00.521    8 Sep 2021 05:10:51.742          1491.221
Mean Duration                                                                           1477.254
Total Duration                                                                         41363.114


Satellite606-To-Satellite310
----------------------------
                  Access       Start Time (UTCG)           Stop Time (UTCG)       Duration (sec)
                  ------    -----------------------    -----------------------    --------------
                       1    8 Sep 2021 04:00:00.000    8 Sep 2021 04:13:02.021           782.021
                       2    8 Sep 2021 04:40:48.332    8 Sep 2021 05:05:33.606          1485.274
                       3    8 Sep 2021 05:33:19.924    8 Sep 2021 05:58:05.197          1485.273
                       4    8 Sep 2021 06:25:51.509    8 Sep 2021 06:50:36.782          1485.273
                       5    8 Sep 2021 07:18:23.100    8 Sep 2021 07:43:08.374          1485.274
                       6    8 Sep 2021 08:10:54.689    8 Sep 2021 08:35:39.959          1485.270
                       7    8 Sep 2021 09:03:26.277    8 Sep 2021 09:28:11.551          1485.274
                       8    8 Sep 2021 09:55:57.867    8 Sep 2021 10:20:43.136          1485.269
                       9    8 Sep 2021 10:48:29.454    8 Sep 2021 11:13:14.728          1485.274
                      10    8 Sep 2021 11:41:01.044    8 Sep 2021 12:05:46.312          1485.268
                      11    8 Sep 2021 12:33:32.630    8 Sep 2021 12:58:17.904          1485.274
                      12    8 Sep 2021 13:26:04.221    8 Sep 2021 13:50:49.489          1485.268
                      13    8 Sep 2021 14:18:35.807    8 Sep 2021 14:43:21.081          1485.274
                      14    8 Sep 2021 15:11:07.398    8 Sep 2021 15:35:52.666          1485.268
                      15    8 Sep 2021 16:03:38.984    8 Sep 2021 16:28:24.258          1485.274
                      16    8 Sep 2021 16:56:10.574    8 Sep 2021 17:20:55.843          1485.268
                      17    8 Sep 2021 17:48:42.161    8 Sep 2021 18:13:27.435          1485.274
                      18    8 Sep 2021 18:41:13.751    8 Sep 2021 19:05:59.019          1485.268
                      19    8 Sep 2021 19:33:45.338    8 Sep 2021 19:58:30.612          1485.274
                      20    8 Sep 2021 20:26:16.928    8 Sep 2021 20:51:02.196          1485.268
                      21    8 Sep 2021 21:18:48.514    8 Sep 2021 21:43:33.788          1485.274
                      22    8 Sep 2021 22:11:20.105    8 Sep 2021 22:36:05.373          1485.268
                      23    8 Sep 2021 23:03:51.691    8 Sep 2021 23:28:36.965          1485.274
                      24    8 Sep 2021 23:56:23.282    9 Sep 2021 00:21:08.550          1485.268
                      25    9 Sep 2021 00:48:54.868    9 Sep 2021 01:13:40.142          1485.274
                      26    9 Sep 2021 01:41:26.458    9 Sep 2021 02:06:11.727          1485.268
                      27    9 Sep 2021 02:33:58.045    9 Sep 2021 02:58:43.319          1485.274
                      28    9 Sep 2021 03:26:29.635    9 Sep 2021 03:51:14.903          1485.268

Min Duration           1    8 Sep 2021 04:00:00.000    8 Sep 2021 04:13:02.021           782.021
Max Duration          13    8 Sep 2021 14:18:35.807    8 Sep 2021 14:43:21.081          1485.274
Mean Duration                                                                           1460.155
Total Duration                                                                         40884.350


