routing/visibility/v608.txt

Satellite608-To-Satellite103
----------------------------
                  Access       Start Time (UTCG)           Stop Time (UTCG)       Duration (sec)
                  ------    -----------------------    -----------------------    --------------
                       1    8 Sep 2021 04:25:16.773    8 Sep 2021 04:31:11.159           354.385
                       2    8 Sep 2021 05:17:48.363    8 Sep 2021 05:23:42.749           354.386
                       3    8 Sep 2021 06:10:19.949    8 Sep 2021 06:16:14.337           354.388
                       4    8 Sep 2021 07:02:51.537    8 Sep 2021 07:08:45.922           354.384
                       5    8 Sep 2021 07:55:23.130    8 Sep 2021 08:01:17.513           354.383
                       6    8 Sep 2021 08:47:54.719    8 Sep 2021 08:53:49.103           354.384
                       7    8 Sep 2021 09:40:26.303    8 Sep 2021 09:46:20.691           354.388
                       8    8 Sep 2021 10:32:57.892    8 Sep 2021 10:38:52.277           354.385
                       9    8 Sep 2021 11:25:29.483    8 Sep 2021 11:31:23.867           354.384
                      10    8 Sep 2021 12:18:01.068    8 Sep 2021 12:23:55.456           354.389
                      11    8 Sep 2021 13:10:32.656    8 Sep 2021 13:16:27.040           354.384
                      12    8 Sep 2021 14:03:04.248    8 Sep 2021 14:08:58.632           354.384
                      13    8 Sep 2021 14:55:35.837    8 Sep 2021 15:01:30.221           354.384
                      14    8 Sep 2021 15:48:07.421    8 Sep 2021 15:54:01.809           354.388
                      15    8 Sep 2021 16:40:39.010    8 Sep 2021 16:46:33.395           354.385
                      16    8 Sep 2021 17:33:10.602    8 Sep 2021 17:39:04.986           354.385
                      17    8 Sep 2021 18:25:42.186    8 Sep 2021 18:31:36.575           354.388
                      18    8 Sep 2021 19:18:13.775    8 Sep 2021 19:24:08.159           354.384
                      19    8 Sep 2021 20:10:45.366    8 Sep 2021 20:16:39.751           354.384
                      20    8 Sep 2021 21:03:16.956    8 Sep 2021 21:09:11.340           354.384
                      21    8 Sep 2021 21:55:48.540    8 Sep 2021 22:01:42.928           354.388
                      22    8 Sep 2021 22:48:20.129    8 Sep 2021 22:54:14.514           354.385
                      23    8 Sep 2021 23:40:51.720    8 Sep 2021 23:46:46.105           354.385
                      24    9 Sep 2021 00:33:23.305    9 Sep 2021 00:39:17.694           354.389
                      25    9 Sep 2021 01:25:54.894    9 Sep 2021 01:31:49.277           354.384
                      26    9 Sep 2021 02:18:26.485    9 Sep 2021 02:24:20.869           354.385
                      27    9 Sep 2021 03:10:58.074    9 Sep 2021 03:16:52.459           354.385

Min Duration           5    8 Sep 2021 07:55:23.130    8 Sep 2021 08:01:17.513           354.383
Max Duration          24    9 Sep 2021 00:33:23.305    9 Sep 2021 00:39:17.694           354.389
Mean Duration                                                                            354.385
Total Duration                                                                          9568.406


Satellite608-To-Satellite104
----------------------------
                  Access       Start Time (UTCG)           Stop Time (UTCG)       Duration (sec)
                  ------    -----------------------    -----------------------    --------------
                       1    8 Sep 2021 04:13:26.345    8 Sep 2021 04:32:31.271          1144.926
                       2    8 Sep 2021 05:05:57.933    8 Sep 2021 05:25:02.858          1144.925
                       3    8 Sep 2021 05:58:29.522    8 Sep 2021 06:17:34.449          1144.927
                       4    8 Sep 2021 06:51:01.106    8 Sep 2021 07:10:06.037          1144.931
                       5    8 Sep 2021 07:43:32.695    8 Sep 2021 08:02:37.625          1144.930
                       6    8 Sep 2021 08:36:04.284    8 Sep 2021 08:55:09.214          1144.930
                       7    8 Sep 2021 09:28:35.873    8 Sep 2021 09:47:40.802          1144.930
                       8    8 Sep 2021 10:21:07.461    8 Sep 2021 10:40:12.391          1144.929
                       9    8 Sep 2021 11:13:39.050    8 Sep 2021 11:32:43.979          1144.929
                      10    8 Sep 2021 12:06:10.638    8 Sep 2021 12:25:15.567          1144.929
                      11    8 Sep 2021 12:58:42.227    8 Sep 2021 13:17:47.156          1144.929
                      12    8 Sep 2021 13:51:13.815    8 Sep 2021 14:10:18.744          1144.929
                      13    8 Sep 2021 14:43:45.403    8 Sep 2021 15:02:50.333          1144.929
                      14    8 Sep 2021 15:36:16.992    8 Sep 2021 15:55:21.921          1144.929
                      15    8 Sep 2021 16:28:48.580    8 Sep 2021 16:47:53.509          1144.929
                      16    8 Sep 2021 17:21:20.169    8 Sep 2021 17:40:25.098          1144.929
                      17    8 Sep 2021 18:13:51.757    8 Sep 2021 18:32:56.686          1144.929
                      18    8 Sep 2021 19:06:23.346    8 Sep 2021 19:25:28.274          1144.929
                      19    8 Sep 2021 19:58:54.934    8 Sep 2021 20:17:59.863          1144.929
                      20    8 Sep 2021 20:51:26.522    8 Sep 2021 21:10:31.451          1144.929
                      21    8 Sep 2021 21:43:58.111    8 Sep 2021 22:03:03.040          1144.929
                      22    8 Sep 2021 22:36:29.699    8 Sep 2021 22:55:34.628          1144.929
                      23    8 Sep 2021 23:29:01.287    8 Sep 2021 23:48:06.216          1144.929
                      24    9 Sep 2021 00:21:32.876    9 Sep 2021 00:40:37.805          1144.929
                      25    9 Sep 2021 01:14:04.464    9 Sep 2021 01:33:09.393          1144.929
                      26    9 Sep 2021 02:06:36.053    9 Sep 2021 02:25:40.982          1144.929
                      27    9 Sep 2021 02:59:07.641    9 Sep 2021 03:18:12.570          1144.929
                      28    9 Sep 2021 03:51:39.229    9 Sep 2021 04:00:00.000           500.771

Min Duration          28    9 Sep 2021 03:51:39.229    9 Sep 2021 04:00:00.000           500.771
Max Duration           4    8 Sep 2021 06:51:01.106    8 Sep 2021 07:10:06.037          1144.931
Mean Duration                                                                           1121.923
Total Duration                                                                         31413.851


Satellite608-To-Satellite105
----------------------------
                  Access       Start Time (UTCG)           Stop Time (UTCG)       Duration (sec)
                  ------    -----------------------    -----------------------    --------------
                       1    8 Sep 2021 04:05:21.017    8 Sep 2021 04:30:06.276          1485.259
                       2    8 Sep 2021 04:57:52.609    8 Sep 2021 05:22:37.868          1485.260
                       3    8 Sep 2021 05:50:24.196    8 Sep 2021 06:15:09.453          1485.257
                       4    8 Sep 2021 06:42:55.785    8 Sep 2021 07:07:41.045          1485.260
                       5    8 Sep 2021 07:35:27.375    8 Sep 2021 08:00:12.630          1485.255
                       6    8 Sep 2021 08:27:58.962    8 Sep 2021 08:52:44.222          1485.260
                       7    8 Sep 2021 09:20:30.552    8 Sep 2021 09:45:15.806          1485.254
                       8    8 Sep 2021 10:13:02.138    8 Sep 2021 10:37:47.398          1485.260
                       9    8 Sep 2021 11:05:33.729    8 Sep 2021 11:30:18.983          1485.254
                      10    8 Sep 2021 11:58:05.315    8 Sep 2021 12:22:50.575          1485.260
                      11    8 Sep 2021 12:50:36.906    8 Sep 2021 13:15:22.160          1485.254
                      12    8 Sep 2021 13:43:08.492    8 Sep 2021 14:07:53.752          1485.260
                      13    8 Sep 2021 14:35:40.082    8 Sep 2021 15:00:25.337          1485.254
                      14    8 Sep 2021 15:28:11.669    8 Sep 2021 15:52:56.929          1485.260
                      15    8 Sep 2021 16:20:43.259    8 Sep 2021 16:45:28.513          1485.254
                      16    8 Sep 2021 17:13:14.846    8 Sep 2021 17:38:00.106          1485.260
                      17    8 Sep 2021 18:05:46.436    8 Sep 2021 18:30:31.690          1485.254
                      18    8 Sep 2021 18:58:18.022    8 Sep 2021 19:23:03.282          1485.260
                      19    8 Sep 2021 19:50:49.613    8 Sep 2021 20:15:34.867          1485.254
                      20    8 Sep 2021 20:43:21.199    8 Sep 2021 21:08:06.459          1485.260
                      21    8 Sep 2021 21:35:52.790    8 Sep 2021 22:00:38.044          1485.254
                      22    8 Sep 2021 22:28:24.376    8 Sep 2021 22:53:09.636          1485.260
                      23    8 Sep 2021 23:20:55.966    8 Sep 2021 23:45:41.221          1485.254
                      24    9 Sep 2021 00:13:27.553    9 Sep 2021 00:38:12.813          1485.260
                      25    9 Sep 2021 01:05:59.143    9 Sep 2021 01:30:44.397          1485.254
                      26    9 Sep 2021 01:58:30.730    9 Sep 2021 02:23:15.989          1485.260
                      27    9 Sep 2021 02:51:02.320    9 Sep 2021 03:15:47.574          1485.254
                      28    9 Sep 2021 03:43:33.906    9 Sep 2021 04:00:00.000           986.094

Min Duration          28    9 Sep 2021 03:43:33.906    9 Sep 2021 04:00:00.000           986.094
Max Duration          14    8 Sep 2021 15:28:11.669    8 Sep 2021 15:52:56.929          1485.260
Mean Duration                                                                           1467.430
Total Duration                                                                         41088.040


Satellite608-To-Satellite106
----------------------------
                  Access       Start Time (UTCG)           Stop Time (UTCG)       Duration (sec)
                  ------    -----------------------    -----------------------    --------------
                       1    8 Sep 2021 04:00:02.871    8 Sep 2021 04:24:54.104          1491.233
                       2    8 Sep 2021 04:52:34.462    8 Sep 2021 05:17:25.697          1491.235
                       3    8 Sep 2021 05:45:06.048    8 Sep 2021 06:09:57.282          1491.234
                       4    8 Sep 2021 06:37:37.640    8 Sep 2021 07:02:28.874          1491.234
                       5    8 Sep 2021 07:30:09.225    8 Sep 2021 07:55:00.458          1491.234
                       6    8 Sep 2021 08:22:40.817    8 Sep 2021 08:47:32.051          1491.234
                       7    8 Sep 2021 09:15:12.401    8 Sep 2021 09:40:03.635          1491.234
                       8    8 Sep 2021 10:07:43.994    8 Sep 2021 10:32:35.228          1491.234
                       9    8 Sep 2021 11:00:15.578    8 Sep 2021 11:25:06.812          1491.234
                      10    8 Sep 2021 11:52:47.170    8 Sep 2021 12:17:38.404          1491.234
                      11    8 Sep 2021 12:45:18.755    8 Sep 2021 13:10:09.989          1491.234
                      12    8 Sep 2021 13:37:50.347    8 Sep 2021 14:02:41.581          1491.234
                      13    8 Sep 2021 14:30:21.932    8 Sep 2021 14:55:13.166          1491.234
                      14    8 Sep 2021 15:22:53.524    8 Sep 2021 15:47:44.758          1491.234
                      15    8 Sep 2021 16:15:25.108    8 Sep 2021 16:40:16.342          1491.234
                      16    8 Sep 2021 17:07:56.701    8 Sep 2021 17:32:47.935          1491.234
                      17    8 Sep 2021 18:00:28.285    8 Sep 2021 18:25:19.519          1491.234
                      18    8 Sep 2021 18:52:59.877    8 Sep 2021 19:17:51.112          1491.234
                      19    8 Sep 2021 19:45:31.462    8 Sep 2021 20:10:22.696          1491.234
                      20    8 Sep 2021 20:38:03.054    8 Sep 2021 21:02:54.288          1491.234
                      21    8 Sep 2021 21:30:34.639    8 Sep 2021 21:55:25.873          1491.234
                      22    8 Sep 2021 22:23:06.231    8 Sep 2021 22:47:57.465          1491.234
                      23    8 Sep 2021 23:15:37.816    8 Sep 2021 23:40:29.050          1491.234
                      24    9 Sep 2021 00:08:09.408    9 Sep 2021 00:33:00.642          1491.234
                      25    9 Sep 2021 01:00:40.992    9 Sep 2021 01:25:32.226          1491.234
                      26    9 Sep 2021 01:53:12.585    9 Sep 2021 02:18:03.819          1491.234
                      27    9 Sep 2021 02:45:44.169    9 Sep 2021 03:10:35.403          1491.234
                      28    9 Sep 2021 03:38:15.761    9 Sep 2021 04:00:00.000          1304.239

Min Duration          28    9 Sep 2021 03:38:15.761    9 Sep 2021 04:00:00.000          1304.239
Max Duration           2    8 Sep 2021 04:52:34.462    8 Sep 2021 05:17:25.697          1491.235
Mean Duration                                                                           1484.556
Total Duration                                                                         41567.556


Satellite608-To-Satellite107
----------------------------
                  Access       Start Time (UTCG)           Stop Time (UTCG)       Duration (sec)
                  ------    -----------------------    -----------------------    --------------
                       1    8 Sep 2021 04:00:00.000    8 Sep 2021 04:16:55.364          1015.364
                       2    8 Sep 2021 04:50:02.889    8 Sep 2021 05:09:26.951          1164.062
                       3    8 Sep 2021 05:42:34.477    8 Sep 2021 06:01:58.541          1164.064
                       4    8 Sep 2021 06:35:06.065    8 Sep 2021 06:54:30.128          1164.063
                       5    8 Sep 2021 07:27:37.649    8 Sep 2021 07:47:01.716          1164.066
                       6    8 Sep 2021 08:20:09.242    8 Sep 2021 08:39:33.303          1164.061
                       7    8 Sep 2021 09:12:40.830    8 Sep 2021 09:32:04.892          1164.062
                       8    8 Sep 2021 10:05:12.419    8 Sep 2021 10:24:36.482          1164.064
                       9    8 Sep 2021 10:57:44.008    8 Sep 2021 11:17:08.070          1164.062
                      10    8 Sep 2021 11:50:15.594    8 Sep 2021 12:09:39.658          1164.064
                      11    8 Sep 2021 12:42:47.183    8 Sep 2021 13:02:11.246          1164.063
                      12    8 Sep 2021 13:35:18.771    8 Sep 2021 13:54:42.836          1164.065
                      13    8 Sep 2021 14:27:50.361    8 Sep 2021 14:47:14.424          1164.062
                      14    8 Sep 2021 15:20:21.948    8 Sep 2021 15:39:46.012          1164.064
                      15    8 Sep 2021 16:12:53.536    8 Sep 2021 16:32:17.600          1164.063
                      16    8 Sep 2021 17:05:25.124    8 Sep 2021 17:24:49.189          1164.064
                      17    8 Sep 2021 17:57:56.715    8 Sep 2021 18:17:20.776          1164.061
                      18    8 Sep 2021 18:50:28.302    8 Sep 2021 19:09:52.364          1164.062
                      19    8 Sep 2021 19:42:59.891    8 Sep 2021 20:02:23.955          1164.064
                      20    8 Sep 2021 20:35:31.480    8 Sep 2021 20:54:55.543          1164.063
                      21    8 Sep 2021 21:28:03.066    8 Sep 2021 21:47:27.130          1164.064
                      22    8 Sep 2021 22:20:34.655    8 Sep 2021 22:39:58.718          1164.063
                      23    8 Sep 2021 23:13:06.244    8 Sep 2021 23:32:30.309          1164.065
                      24    9 Sep 2021 00:05:37.834    9 Sep 2021 00:25:01.896          1164.062
                      25    9 Sep 2021 00:58:09.420    9 Sep 2021 01:17:33.484          1164.064
                      26    9 Sep 2021 01:50:41.009    9 Sep 2021 02:10:05.072          1164.063
                      27    9 Sep 2021 02:43:12.597    9 Sep 2021 03:02:36.661          1164.064
                      28    9 Sep 2021 03:35:44.187    9 Sep 2021 03:55:08.248          1164.061

Min Duration           1    8 Sep 2021 04:00:00.000    8 Sep 2021 04:16:55.364          1015.364
Max Duration           5    8 Sep 2021 07:27:37.649    8 Sep 2021 07:47:01.716          1164.066
Mean Duration                                                                           1158.753
Total Duration                                                                         32445.072


Satellite608-To-Satellite108
----------------------------
                  Access       Start Time (UTCG)           Stop Time (UTCG)       Duration (sec)
                  ------    -----------------------    -----------------------    --------------
                       1    8 Sep 2021 04:00:00.000    8 Sep 2021 04:05:28.994           328.994
                       2    8 Sep 2021 04:50:58.939    8 Sep 2021 04:58:00.583           421.643
                       3    8 Sep 2021 05:43:30.528    8 Sep 2021 05:50:32.171           421.643
                       4    8 Sep 2021 06:36:02.118    8 Sep 2021 06:43:03.759           421.641
                       5    8 Sep 2021 07:28:33.704    8 Sep 2021 07:35:35.348           421.644
                       6    8 Sep 2021 08:21:05.295    8 Sep 2021 08:28:06.936           421.641
                       7    8 Sep 2021 09:13:36.881    8 Sep 2021 09:20:38.525           421.644
                       8    8 Sep 2021 10:06:08.471    8 Sep 2021 10:13:10.113           421.641
                       9    8 Sep 2021 10:58:40.057    8 Sep 2021 11:05:41.699           421.642
                      10    8 Sep 2021 11:51:11.650    8 Sep 2021 11:58:13.289           421.640
                      11    8 Sep 2021 12:43:43.234    8 Sep 2021 12:50:44.878           421.644
                      12    8 Sep 2021 13:36:14.826    8 Sep 2021 13:43:16.466           421.640
                      13    8 Sep 2021 14:28:46.411    8 Sep 2021 14:35:48.055           421.644
                      14    8 Sep 2021 15:21:18.002    8 Sep 2021 15:28:19.643           421.641
                      15    8 Sep 2021 16:13:49.588    8 Sep 2021 16:20:51.232           421.644
                      16    8 Sep 2021 17:06:21.178    8 Sep 2021 17:13:22.820           421.642
                      17    8 Sep 2021 17:58:52.765    8 Sep 2021 18:05:54.408           421.643
                      18    8 Sep 2021 18:51:24.354    8 Sep 2021 18:58:25.997           421.643
                      19    8 Sep 2021 19:43:55.944    8 Sep 2021 19:50:57.585           421.641
                      20    8 Sep 2021 20:36:27.530    8 Sep 2021 20:43:29.174           421.644
                      21    8 Sep 2021 21:28:59.121    8 Sep 2021 21:36:00.762           421.641
                      22    8 Sep 2021 22:21:30.706    8 Sep 2021 22:28:32.350           421.644
                      23    8 Sep 2021 23:14:02.300    8 Sep 2021 23:21:03.938           421.639
                      24    9 Sep 2021 00:06:33.883    9 Sep 2021 00:13:35.525           421.642
                      25    9 Sep 2021 00:59:05.476    9 Sep 2021 01:06:07.115           421.640
                      26    9 Sep 2021 01:51:37.060    9 Sep 2021 01:58:38.704           421.644
                      27    9 Sep 2021 02:44:08.651    9 Sep 2021 02:51:10.292           421.640
                      28    9 Sep 2021 03:36:40.237    9 Sep 2021 03:43:41.881           421.644

Min Duration           1    8 Sep 2021 04:00:00.000    8 Sep 2021 04:05:28.994           328.994
Max Duration          11    8 Sep 2021 12:43:43.234    8 Sep 2021 12:50:44.878           421.644
Mean Duration                                                                            418.333
Total Duration                                                                         11713.333


Satellite608-To-Satellite201
----------------------------
                  Access       Start Time (UTCG)           Stop Time (UTCG)       Duration (sec)
                  ------    -----------------------    -----------------------    --------------
                       1    8 Sep 2021 04:32:34.248    8 Sep 2021 04:43:35.531           661.283
                       2    8 Sep 2021 05:25:05.835    8 Sep 2021 05:36:07.119           661.284
                       3    8 Sep 2021 06:17:37.423    8 Sep 2021 06:28:38.707           661.283
                       4    8 Sep 2021 07:10:09.014    8 Sep 2021 07:21:10.295           661.281
                       5    8 Sep 2021 08:02:40.605    8 Sep 2021 08:13:41.883           661.278
                       6    8 Sep 2021 08:55:12.193    8 Sep 2021 09:06:13.471           661.278
                       7    8 Sep 2021 09:47:43.781    8 Sep 2021 09:58:45.057           661.276
                       8    8 Sep 2021 10:40:15.368    8 Sep 2021 10:51:16.649           661.281
                       9    8 Sep 2021 11:32:46.956    8 Sep 2021 11:43:48.239           661.283
                      10    8 Sep 2021 12:25:18.543    8 Sep 2021 12:36:19.827           661.284
                      11    8 Sep 2021 13:17:50.131    8 Sep 2021 13:28:51.414           661.284
                      12    8 Sep 2021 14:10:21.723    8 Sep 2021 14:21:23.002           661.279
                      13    8 Sep 2021 15:02:53.312    8 Sep 2021 15:13:54.590           661.278
                      14    8 Sep 2021 15:55:24.900    8 Sep 2021 16:06:26.178           661.278
                      15    8 Sep 2021 16:47:56.488    8 Sep 2021 16:58:57.764           661.276
                      16    8 Sep 2021 17:40:28.075    8 Sep 2021 17:51:29.354           661.278
                      17    8 Sep 2021 18:32:59.663    8 Sep 2021 18:44:00.946           661.283
                      18    8 Sep 2021 19:25:31.250    8 Sep 2021 19:36:32.534           661.284
                      19    8 Sep 2021 20:18:02.838    8 Sep 2021 20:29:04.122           661.284
                      20    8 Sep 2021 21:10:34.429    8 Sep 2021 21:21:35.709           661.280
                      21    8 Sep 2021 22:03:06.019    8 Sep 2021 22:14:07.297           661.278
                      22    8 Sep 2021 22:55:37.607    8 Sep 2021 23:06:38.885           661.278
                      23    8 Sep 2021 23:48:09.196    8 Sep 2021 23:59:10.472           661.276
                      24    9 Sep 2021 00:40:40.783    9 Sep 2021 00:51:42.060           661.277
                      25    9 Sep 2021 01:33:12.371    9 Sep 2021 01:44:13.653           661.282
                      26    9 Sep 2021 02:25:43.958    9 Sep 2021 02:36:45.241           661.283
                      27    9 Sep 2021 03:18:15.545    9 Sep 2021 03:29:16.829           661.284

Min Duration          23    8 Sep 2021 23:48:09.196    8 Sep 2021 23:59:10.472           661.276
Max Duration           2    8 Sep 2021 05:25:05.835    8 Sep 2021 05:36:07.119           661.284
Mean Duration                                                                            661.280
Total Duration                                                                         17854.571


Satellite608-To-Satellite202
----------------------------
                  Access       Start Time (UTCG)           Stop Time (UTCG)       Duration (sec)
                  ------    -----------------------    -----------------------    --------------
                       1    8 Sep 2021 04:23:27.982    8 Sep 2021 04:42:11.476          1123.494
                       2    8 Sep 2021 05:15:59.574    8 Sep 2021 05:34:43.065          1123.491
                       3    8 Sep 2021 06:08:31.162    8 Sep 2021 06:27:14.652          1123.490
                       4    8 Sep 2021 07:01:02.749    8 Sep 2021 07:19:46.244          1123.495
                       5    8 Sep 2021 07:53:34.337    8 Sep 2021 08:12:17.833          1123.496
                       6    8 Sep 2021 08:46:05.927    8 Sep 2021 09:04:49.418          1123.490
                       7    8 Sep 2021 09:38:37.516    8 Sep 2021 09:57:21.006          1123.490
                       8    8 Sep 2021 10:31:09.103    8 Sep 2021 10:49:52.595          1123.493
                       9    8 Sep 2021 11:23:40.689    8 Sep 2021 11:42:24.187          1123.498
                      10    8 Sep 2021 12:16:12.276    8 Sep 2021 12:34:55.774          1123.497
                      11    8 Sep 2021 13:08:43.869    8 Sep 2021 13:27:27.360          1123.491
                      12    8 Sep 2021 14:01:15.458    8 Sep 2021 14:19:58.948          1123.490
                      13    8 Sep 2021 14:53:47.044    8 Sep 2021 15:12:30.538          1123.494
                      14    8 Sep 2021 15:46:18.630    8 Sep 2021 16:05:02.129          1123.499
                      15    8 Sep 2021 16:38:50.218    8 Sep 2021 16:57:33.715          1123.497
                      16    8 Sep 2021 17:31:21.811    8 Sep 2021 17:50:05.302          1123.491
                      17    8 Sep 2021 18:23:53.400    8 Sep 2021 18:42:36.890          1123.490
                      18    8 Sep 2021 19:16:24.986    8 Sep 2021 19:35:08.480          1123.494
                      19    8 Sep 2021 20:08:56.572    8 Sep 2021 20:27:40.071          1123.499
                      20    8 Sep 2021 21:01:28.160    8 Sep 2021 21:20:11.657          1123.497
                      21    8 Sep 2021 21:53:59.753    8 Sep 2021 22:12:43.244          1123.491
                      22    8 Sep 2021 22:46:31.342    8 Sep 2021 23:05:14.832          1123.490
                      23    8 Sep 2021 23:39:02.928    8 Sep 2021 23:57:46.422          1123.494
                      24    9 Sep 2021 00:31:34.514    9 Sep 2021 00:50:18.013          1123.499
                      25    9 Sep 2021 01:24:06.102    9 Sep 2021 01:42:49.599          1123.497
                      26    9 Sep 2021 02:16:37.695    9 Sep 2021 02:35:21.186          1123.491
                      27    9 Sep 2021 03:09:09.284    9 Sep 2021 03:27:52.774          1123.490

Min Duration          27    9 Sep 2021 03:09:09.284    9 Sep 2021 03:27:52.774          1123.490
Max Duration          24    9 Sep 2021 00:31:34.514    9 Sep 2021 00:50:18.013          1123.499
Mean Duration                                                                           1123.494
Total Duration                                                                         30334.327


Satellite608-To-Satellite203
----------------------------
                  Access       Start Time (UTCG)           Stop Time (UTCG)       Duration (sec)
                  ------    -----------------------    -----------------------    --------------
                       1    8 Sep 2021 04:16:15.764    8 Sep 2021 04:38:53.375          1357.610
                       2    8 Sep 2021 05:08:47.353    8 Sep 2021 05:31:24.964          1357.610
                       3    8 Sep 2021 06:01:18.945    8 Sep 2021 06:23:56.555          1357.610
                       4    8 Sep 2021 06:53:50.533    8 Sep 2021 07:16:28.143          1357.610
                       5    8 Sep 2021 07:46:22.122    8 Sep 2021 08:08:59.732          1357.610
                       6    8 Sep 2021 08:38:53.710    8 Sep 2021 09:01:31.320          1357.610
                       7    8 Sep 2021 09:31:25.298    8 Sep 2021 09:54:02.909          1357.610
                       8    8 Sep 2021 10:23:56.887    8 Sep 2021 10:46:34.497          1357.610
                       9    8 Sep 2021 11:16:28.475    8 Sep 2021 11:39:06.085          1357.610
                      10    8 Sep 2021 12:09:00.064    8 Sep 2021 12:31:37.674          1357.610
                      11    8 Sep 2021 13:01:31.652    8 Sep 2021 13:24:09.262          1357.610
                      12    8 Sep 2021 13:54:03.240    8 Sep 2021 14:16:40.851          1357.610
                      13    8 Sep 2021 14:46:34.829    8 Sep 2021 15:09:12.439          1357.610
                      14    8 Sep 2021 15:39:06.417    8 Sep 2021 16:01:44.027          1357.610
                      15    8 Sep 2021 16:31:38.006    8 Sep 2021 16:54:15.616          1357.610
                      16    8 Sep 2021 17:24:09.594    8 Sep 2021 17:46:47.204          1357.610
                      17    8 Sep 2021 18:16:41.182    8 Sep 2021 18:39:18.793          1357.610
                      18    8 Sep 2021 19:09:12.771    8 Sep 2021 19:31:50.381          1357.610
                      19    8 Sep 2021 20:01:44.359    8 Sep 2021 20:24:21.969          1357.610
                      20    8 Sep 2021 20:54:15.948    8 Sep 2021 21:16:53.558          1357.610
                      21    8 Sep 2021 21:46:47.536    8 Sep 2021 22:09:25.146          1357.610
                      22    8 Sep 2021 22:39:19.124    8 Sep 2021 23:01:56.735          1357.610
                      23    8 Sep 2021 23:31:50.713    8 Sep 2021 23:54:28.323          1357.610
                      24    9 Sep 2021 00:24:22.301    9 Sep 2021 00:46:59.911          1357.610
                      25    9 Sep 2021 01:16:53.890    9 Sep 2021 01:39:31.500          1357.610
                      26    9 Sep 2021 02:09:25.478    9 Sep 2021 02:32:03.088          1357.610
                      27    9 Sep 2021 03:01:57.066    9 Sep 2021 03:24:34.677          1357.610
                      28    9 Sep 2021 03:54:28.655    9 Sep 2021 04:00:00.000           331.345

Min Duration          28    9 Sep 2021 03:54:28.655    9 Sep 2021 04:00:00.000           331.345
Max Duration           2    8 Sep 2021 05:08:47.353    8 Sep 2021 05:31:24.964          1357.610
Mean Duration                                                                           1320.958
Total Duration                                                                         36986.820


Satellite608-To-Satellite204
----------------------------
                  Access       Start Time (UTCG)           Stop Time (UTCG)       Duration (sec)
                  ------    -----------------------    -----------------------    --------------
                       1    8 Sep 2021 04:11:00.601    8 Sep 2021 04:33:38.220          1357.620
                       2    8 Sep 2021 05:03:32.189    8 Sep 2021 05:26:09.809          1357.620
                       3    8 Sep 2021 05:56:03.778    8 Sep 2021 06:18:41.398          1357.620
                       4    8 Sep 2021 06:48:35.370    8 Sep 2021 07:11:12.986          1357.617
                       5    8 Sep 2021 07:41:06.958    8 Sep 2021 08:03:44.578          1357.620
                       6    8 Sep 2021 08:33:38.546    8 Sep 2021 08:56:16.166          1357.620
                       7    8 Sep 2021 09:26:10.135    8 Sep 2021 09:48:47.755          1357.620
                       8    8 Sep 2021 10:18:41.723    8 Sep 2021 10:41:19.343          1357.620
                       9    8 Sep 2021 11:11:13.312    8 Sep 2021 11:33:50.931          1357.620
                      10    8 Sep 2021 12:03:44.900    8 Sep 2021 12:26:22.520          1357.620
                      11    8 Sep 2021 12:56:16.488    8 Sep 2021 13:18:54.108          1357.620
                      12    8 Sep 2021 13:48:48.077    8 Sep 2021 14:11:25.697          1357.620
                      13    8 Sep 2021 14:41:19.665    8 Sep 2021 15:03:57.285          1357.620
                      14    8 Sep 2021 15:33:51.254    8 Sep 2021 15:56:28.873          1357.620
                      15    8 Sep 2021 16:26:22.842    8 Sep 2021 16:49:00.462          1357.620
                      16    8 Sep 2021 17:18:54.430    8 Sep 2021 17:41:32.050          1357.620
                      17    8 Sep 2021 18:11:26.019    8 Sep 2021 18:34:03.638          1357.620
                      18    8 Sep 2021 19:03:57.607    8 Sep 2021 19:26:35.227          1357.620
                      19    8 Sep 2021 19:56:29.196    8 Sep 2021 20:19:06.815          1357.620
                      20    8 Sep 2021 20:49:00.784    8 Sep 2021 21:11:38.404          1357.620
                      21    8 Sep 2021 21:41:32.372    8 Sep 2021 22:04:09.992          1357.620
                      22    8 Sep 2021 22:34:03.961    8 Sep 2021 22:56:41.580          1357.620
                      23    8 Sep 2021 23:26:35.549    8 Sep 2021 23:49:13.169          1357.620
                      24    9 Sep 2021 00:19:07.138    9 Sep 2021 00:41:44.757          1357.620
                      25    9 Sep 2021 01:11:38.726    9 Sep 2021 01:34:16.346          1357.620
                      26    9 Sep 2021 02:04:10.314    9 Sep 2021 02:26:47.934          1357.620
                      27    9 Sep 2021 02:56:41.903    9 Sep 2021 03:19:19.522          1357.620
                      28    9 Sep 2021 03:49:13.491    9 Sep 2021 04:00:00.000           646.509

Min Duration          28    9 Sep 2021 03:49:13.491    9 Sep 2021 04:00:00.000           646.509
Max Duration           3    8 Sep 2021 05:56:03.778    8 Sep 2021 06:18:41.398          1357.620
Mean Duration                                                                           1332.223
Total Duration                                                                         37302.237


Satellite608-To-Satellite205
----------------------------
                  Access       Start Time (UTCG)           Stop Time (UTCG)       Duration (sec)
                  ------    -----------------------    -----------------------    --------------
                       1    8 Sep 2021 04:07:42.496    8 Sep 2021 04:26:26.014          1123.518
                       2    8 Sep 2021 05:00:14.084    8 Sep 2021 05:18:57.603          1123.519
                       3    8 Sep 2021 05:52:45.671    8 Sep 2021 06:11:29.192          1123.521
                       4    8 Sep 2021 06:45:17.259    8 Sep 2021 07:04:00.781          1123.523
                       5    8 Sep 2021 07:37:48.849    8 Sep 2021 07:56:32.366          1123.517
                       6    8 Sep 2021 08:30:20.437    8 Sep 2021 08:49:03.954          1123.517
                       7    8 Sep 2021 09:22:52.024    8 Sep 2021 09:41:35.544          1123.519
                       8    8 Sep 2021 10:15:23.611    8 Sep 2021 10:34:07.135          1123.524
                       9    8 Sep 2021 11:07:55.198    8 Sep 2021 11:26:38.722          1123.524
                      10    8 Sep 2021 12:00:26.791    8 Sep 2021 12:19:10.309          1123.518
                      11    8 Sep 2021 12:52:58.379    8 Sep 2021 13:11:41.896          1123.517
                      12    8 Sep 2021 13:45:29.966    8 Sep 2021 14:04:13.486          1123.520
                      13    8 Sep 2021 14:38:01.552    8 Sep 2021 14:56:45.078          1123.526
                      14    8 Sep 2021 15:30:33.140    8 Sep 2021 15:49:16.664          1123.524
                      15    8 Sep 2021 16:23:04.733    8 Sep 2021 16:41:48.251          1123.518
                      16    8 Sep 2021 17:15:36.321    8 Sep 2021 17:34:19.838          1123.517
                      17    8 Sep 2021 18:08:07.908    8 Sep 2021 18:26:51.428          1123.521
                      18    8 Sep 2021 19:00:39.494    8 Sep 2021 19:19:23.020          1123.526
                      19    8 Sep 2021 19:53:11.082    8 Sep 2021 20:11:54.606          1123.524
                      20    8 Sep 2021 20:45:42.675    8 Sep 2021 21:04:26.193          1123.518
                      21    8 Sep 2021 21:38:14.263    8 Sep 2021 21:56:57.780          1123.517
                      22    8 Sep 2021 22:30:45.850    8 Sep 2021 22:49:29.370          1123.521
                      23    8 Sep 2021 23:23:17.436    8 Sep 2021 23:42:00.962          1123.526
                      24    9 Sep 2021 00:15:49.024    9 Sep 2021 00:34:32.548          1123.524
                      25    9 Sep 2021 01:08:20.617    9 Sep 2021 01:27:04.135          1123.518
                      26    9 Sep 2021 02:00:52.205    9 Sep 2021 02:19:35.722          1123.517
                      27    9 Sep 2021 02:53:23.792    9 Sep 2021 03:12:07.312          1123.521
                      28    9 Sep 2021 03:45:55.378    9 Sep 2021 04:00:00.000           844.622

Min Duration          28    9 Sep 2021 03:45:55.378    9 Sep 2021 04:00:00.000           844.622
Max Duration          23    8 Sep 2021 23:23:17.436    8 Sep 2021 23:42:00.962          1123.526
Mean Duration                                                                           1113.560
Total Duration                                                                         31179.676


Satellite608-To-Satellite206
----------------------------
                  Access       Start Time (UTCG)           Stop Time (UTCG)       Duration (sec)
                  ------    -----------------------    -----------------------    --------------
                       1    8 Sep 2021 04:06:18.433    8 Sep 2021 04:17:19.759           661.327
                       2    8 Sep 2021 04:58:50.021    8 Sep 2021 05:09:51.348           661.327
                       3    8 Sep 2021 05:51:21.609    8 Sep 2021 06:02:22.934           661.325
                       4    8 Sep 2021 06:43:53.196    8 Sep 2021 06:54:54.524           661.328
                       5    8 Sep 2021 07:36:24.784    8 Sep 2021 07:47:26.115           661.331
                       6    8 Sep 2021 08:28:56.371    8 Sep 2021 08:39:57.703           661.332
                       7    8 Sep 2021 09:21:27.959    8 Sep 2021 09:32:29.291           661.332
                       8    8 Sep 2021 10:13:59.551    8 Sep 2021 10:25:00.879           661.328
                       9    8 Sep 2021 11:06:31.140    8 Sep 2021 11:17:32.467           661.327
                      10    8 Sep 2021 11:59:02.728    8 Sep 2021 12:10:04.055           661.327
                      11    8 Sep 2021 12:51:34.316    8 Sep 2021 13:02:35.641           661.325
                      12    8 Sep 2021 13:44:05.904    8 Sep 2021 13:55:07.230           661.326
                      13    8 Sep 2021 14:36:37.491    8 Sep 2021 14:47:38.823           661.331
                      14    8 Sep 2021 15:29:09.078    8 Sep 2021 15:40:10.411           661.332
                      15    8 Sep 2021 16:21:40.666    8 Sep 2021 16:32:41.998           661.332
                      16    8 Sep 2021 17:14:12.256    8 Sep 2021 17:25:13.586           661.330
                      17    8 Sep 2021 18:06:43.847    8 Sep 2021 18:17:45.174           661.327
                      18    8 Sep 2021 18:59:15.435    8 Sep 2021 19:10:16.762           661.327
                      19    8 Sep 2021 19:51:47.024    8 Sep 2021 20:02:48.348           661.325
                      20    8 Sep 2021 20:44:18.611    8 Sep 2021 20:55:19.941           661.330
                      21    8 Sep 2021 21:36:50.199    8 Sep 2021 21:47:51.530           661.331
                      22    8 Sep 2021 22:29:21.786    8 Sep 2021 22:40:23.118           661.332
                      23    8 Sep 2021 23:21:53.373    8 Sep 2021 23:32:54.705           661.332
                      24    9 Sep 2021 00:14:24.961    9 Sep 2021 00:25:26.293           661.332
                      25    9 Sep 2021 01:06:56.554    9 Sep 2021 01:17:57.881           661.327
                      26    9 Sep 2021 01:59:28.143    9 Sep 2021 02:10:29.469           661.327
                      27    9 Sep 2021 02:51:59.731    9 Sep 2021 03:03:01.055           661.325
                      28    9 Sep 2021 03:44:31.318    9 Sep 2021 03:55:32.644           661.325

Min Duration          27    9 Sep 2021 02:51:59.731    9 Sep 2021 03:03:01.055           661.325
Max Duration          23    8 Sep 2021 23:21:53.373    8 Sep 2021 23:32:54.705           661.332
Mean Duration                                                                            661.329
Total Duration                                                                         18517.200


Satellite608-To-Satellite301
----------------------------
                  Access       Start Time (UTCG)           Stop Time (UTCG)       Duration (sec)
                  ------    -----------------------    -----------------------    --------------
                       1    8 Sep 2021 04:24:59.886    8 Sep 2021 04:49:51.102          1491.216
                       2    8 Sep 2021 05:17:31.473    8 Sep 2021 05:42:22.695          1491.222
                       3    8 Sep 2021 06:10:03.059    8 Sep 2021 06:34:54.279          1491.221
                       4    8 Sep 2021 07:02:34.651    8 Sep 2021 07:27:25.872          1491.221
                       5    8 Sep 2021 07:55:06.236    8 Sep 2021 08:19:57.456          1491.221
                       6    8 Sep 2021 08:47:37.828    8 Sep 2021 09:12:29.049          1491.221
                       7    8 Sep 2021 09:40:09.412    8 Sep 2021 10:05:00.633          1491.221
                       8    8 Sep 2021 10:32:41.005    8 Sep 2021 10:57:32.226          1491.221
                       9    8 Sep 2021 11:25:12.589    8 Sep 2021 11:50:03.810          1491.221
                      10    8 Sep 2021 12:17:44.181    8 Sep 2021 12:42:35.402          1491.221
                      11    8 Sep 2021 13:10:15.766    8 Sep 2021 13:35:06.987          1491.221
                      12    8 Sep 2021 14:02:47.358    8 Sep 2021 14:27:38.579          1491.221
                      13    8 Sep 2021 14:55:18.943    8 Sep 2021 15:20:10.164          1491.221
                      14    8 Sep 2021 15:47:50.535    8 Sep 2021 16:12:41.756          1491.221
                      15    8 Sep 2021 16:40:22.120    8 Sep 2021 17:05:13.340          1491.221
                      16    8 Sep 2021 17:32:53.712    8 Sep 2021 17:57:44.933          1491.221
                      17    8 Sep 2021 18:25:25.296    8 Sep 2021 18:50:16.517          1491.221
                      18    8 Sep 2021 19:17:56.888    8 Sep 2021 19:42:48.109          1491.221
                      19    8 Sep 2021 20:10:28.473    8 Sep 2021 20:35:19.694          1491.221
                      20    8 Sep 2021 21:03:00.065    8 Sep 2021 21:27:51.286          1491.221
                      21    8 Sep 2021 21:55:31.650    8 Sep 2021 22:20:22.871          1491.221
                      22    8 Sep 2021 22:48:03.242    8 Sep 2021 23:12:54.463          1491.221
                      23    8 Sep 2021 23:40:34.827    9 Sep 2021 00:05:26.047          1491.221
                      24    9 Sep 2021 00:33:06.419    9 Sep 2021 00:57:57.640          1491.221
                      25    9 Sep 2021 01:25:38.003    9 Sep 2021 01:50:29.224          1491.221
                      26    9 Sep 2021 02:18:09.596    9 Sep 2021 02:43:00.817          1491.221
                      27    9 Sep 2021 03:10:41.180    9 Sep 2021 03:35:32.401          1491.221

Min Duration           1    8 Sep 2021 04:24:59.886    8 Sep 2021 04:49:51.102          1491.216
Max Duration           2    8 Sep 2021 05:17:31.473    8 Sep 2021 05:42:22.695          1491.222
Mean Duration                                                                           1491.221
Total Duration                                                                         40262.960


Satellite608-To-Satellite302
----------------------------
                  Access       Start Time (UTCG)           Stop Time (UTCG)       Duration (sec)
                  ------    -----------------------    -----------------------    --------------
                       1    8 Sep 2021 04:19:47.701    8 Sep 2021 04:44:32.974          1485.273
                       2    8 Sep 2021 05:12:19.285    8 Sep 2021 05:37:04.558          1485.273
                       3    8 Sep 2021 06:04:50.876    8 Sep 2021 06:29:36.150          1485.274
                       4    8 Sep 2021 06:57:22.465    8 Sep 2021 07:22:07.735          1485.270
                       5    8 Sep 2021 07:49:54.053    8 Sep 2021 08:14:39.327          1485.274
                       6    8 Sep 2021 08:42:25.643    8 Sep 2021 09:07:10.912          1485.269
                       7    8 Sep 2021 09:34:57.230    8 Sep 2021 09:59:42.504          1485.274
                       8    8 Sep 2021 10:27:28.820    8 Sep 2021 10:52:14.089          1485.268
                       9    8 Sep 2021 11:20:00.407    8 Sep 2021 11:44:45.681          1485.274
                      10    8 Sep 2021 12:12:31.997    8 Sep 2021 12:37:17.265          1485.268
                      11    8 Sep 2021 13:05:03.583    8 Sep 2021 13:29:48.857          1485.274
                      12    8 Sep 2021 13:57:35.174    8 Sep 2021 14:22:20.442          1485.268
                      13    8 Sep 2021 14:50:06.760    8 Sep 2021 15:14:52.034          1485.274
                      14    8 Sep 2021 15:42:38.351    8 Sep 2021 16:07:23.619          1485.268
                      15    8 Sep 2021 16:35:09.937    8 Sep 2021 16:59:55.211          1485.274
                      16    8 Sep 2021 17:27:41.527    8 Sep 2021 17:52:26.796          1485.268
                      17    8 Sep 2021 18:20:13.114    8 Sep 2021 18:44:58.388          1485.274
                      18    8 Sep 2021 19:12:44.704    8 Sep 2021 19:37:29.972          1485.268
                      19    8 Sep 2021 20:05:16.291    8 Sep 2021 20:30:01.565          1485.274
                      20    8 Sep 2021 20:57:47.881    8 Sep 2021 21:22:33.149          1485.268
                      21    8 Sep 2021 21:50:19.467    8 Sep 2021 22:15:04.741          1485.274
                      22    8 Sep 2021 22:42:51.058    8 Sep 2021 23:07:36.326          1485.268
                      23    8 Sep 2021 23:35:22.644    9 Sep 2021 00:00:07.918          1485.274
                      24    9 Sep 2021 00:27:54.235    9 Sep 2021 00:52:39.503          1485.268
                      25    9 Sep 2021 01:20:25.821    9 Sep 2021 01:45:11.095          1485.274
                      26    9 Sep 2021 02:12:57.411    9 Sep 2021 02:37:42.680          1485.268
                      27    9 Sep 2021 03:05:28.998    9 Sep 2021 03:30:14.272          1485.274
                      28    9 Sep 2021 03:58:00.585    9 Sep 2021 04:00:00.000           119.415

Min Duration          28    9 Sep 2021 03:58:00.585    9 Sep 2021 04:00:00.000           119.415
Max Duration          13    8 Sep 2021 14:50:06.760    8 Sep 2021 15:14:52.034          1485.274
Mean Duration                                                                           1436.491
Total Duration                                                                         40221.745


Satellite608-To-Satellite303
----------------------------
                  Access       Start Time (UTCG)           Stop Time (UTCG)       Duration (sec)
                  ------    -----------------------    -----------------------    --------------
                       1    8 Sep 2021 04:17:22.695    8 Sep 2021 04:36:27.659          1144.964
                       2    8 Sep 2021 05:09:54.283    8 Sep 2021 05:28:59.249          1144.966
                       3    8 Sep 2021 06:02:25.871    8 Sep 2021 06:21:30.838          1144.967
                       4    8 Sep 2021 06:54:57.460    8 Sep 2021 07:14:02.427          1144.967
                       5    8 Sep 2021 07:47:29.048    8 Sep 2021 08:06:34.013          1144.965
                       6    8 Sep 2021 08:40:00.637    8 Sep 2021 08:59:05.603          1144.966
                       7    8 Sep 2021 09:32:32.225    8 Sep 2021 09:51:37.191          1144.966
                       8    8 Sep 2021 10:25:03.809    8 Sep 2021 10:44:08.779          1144.970
                       9    8 Sep 2021 11:17:35.398    8 Sep 2021 11:36:40.368          1144.969
                      10    8 Sep 2021 12:10:06.987    8 Sep 2021 12:29:11.956          1144.969
                      11    8 Sep 2021 13:02:38.576    8 Sep 2021 13:21:43.545          1144.969
                      12    8 Sep 2021 13:55:10.164    8 Sep 2021 14:14:15.133          1144.969
                      13    8 Sep 2021 14:47:41.753    8 Sep 2021 15:06:46.721          1144.968
                      14    8 Sep 2021 15:40:13.341    8 Sep 2021 15:59:18.310          1144.968
                      15    8 Sep 2021 16:32:44.930    8 Sep 2021 16:51:49.898          1144.968
                      16    8 Sep 2021 17:25:16.518    8 Sep 2021 17:44:21.486          1144.968
                      17    8 Sep 2021 18:17:48.107    8 Sep 2021 18:36:53.075          1144.968
                      18    8 Sep 2021 19:10:19.695    8 Sep 2021 19:29:24.663          1144.968
                      19    8 Sep 2021 20:02:51.283    8 Sep 2021 20:21:56.252          1144.968
                      20    8 Sep 2021 20:55:22.872    8 Sep 2021 21:14:27.840          1144.968
                      21    8 Sep 2021 21:47:54.460    8 Sep 2021 22:06:59.428          1144.968
                      22    8 Sep 2021 22:40:26.049    8 Sep 2021 22:59:31.017          1144.968
                      23    8 Sep 2021 23:32:57.637    8 Sep 2021 23:52:02.605          1144.968
                      24    9 Sep 2021 00:25:29.225    9 Sep 2021 00:44:34.194          1144.968
                      25    9 Sep 2021 01:18:00.814    9 Sep 2021 01:37:05.782          1144.968
                      26    9 Sep 2021 02:10:32.402    9 Sep 2021 02:29:37.370          1144.968
                      27    9 Sep 2021 03:03:03.991    9 Sep 2021 03:22:08.959          1144.968
                      28    9 Sep 2021 03:55:35.579    9 Sep 2021 04:00:00.000           264.421

Min Duration          28    9 Sep 2021 03:55:35.579    9 Sep 2021 04:00:00.000           264.421
Max Duration           8    8 Sep 2021 10:25:03.809    8 Sep 2021 10:44:08.779          1144.970
Mean Duration                                                                           1113.520
Total Duration                                                                         31178.553


Satellite608-To-Satellite304
----------------------------
                  Access       Start Time (UTCG)           Stop Time (UTCG)       Duration (sec)
                  ------    -----------------------    -----------------------    --------------
                       1    8 Sep 2021 04:18:42.765    8 Sep 2021 04:24:37.274           354.510
                       2    8 Sep 2021 05:11:14.354    8 Sep 2021 05:17:08.864           354.510
                       3    8 Sep 2021 06:03:45.937    8 Sep 2021 06:09:40.452           354.514
                       4    8 Sep 2021 06:56:17.526    8 Sep 2021 07:02:12.038           354.511
                       5    8 Sep 2021 07:48:49.118    8 Sep 2021 07:54:43.628           354.510
                       6    8 Sep 2021 08:41:20.702    8 Sep 2021 08:47:15.217           354.515
                       7    8 Sep 2021 09:33:52.291    8 Sep 2021 09:39:46.801           354.510
                       8    8 Sep 2021 10:26:23.883    8 Sep 2021 10:32:18.393           354.510
                       9    8 Sep 2021 11:18:55.472    8 Sep 2021 11:24:49.982           354.510
                      10    8 Sep 2021 12:11:27.060    8 Sep 2021 12:17:21.570           354.511
                      11    8 Sep 2021 13:03:58.645    8 Sep 2021 13:09:53.156           354.511
                      12    8 Sep 2021 13:56:30.236    8 Sep 2021 14:02:24.747           354.511
                      13    8 Sep 2021 14:49:01.821    8 Sep 2021 14:54:56.336           354.515
                      14    8 Sep 2021 15:41:33.410    8 Sep 2021 15:47:27.919           354.510
                      15    8 Sep 2021 16:34:05.001    8 Sep 2021 16:39:59.512           354.511
                      16    8 Sep 2021 17:26:36.590    8 Sep 2021 17:32:31.101           354.511
                      17    8 Sep 2021 18:19:08.177    8 Sep 2021 18:25:02.689           354.512
                      18    8 Sep 2021 19:11:39.764    8 Sep 2021 19:17:34.275           354.511
                      19    8 Sep 2021 20:04:11.355    8 Sep 2021 20:10:05.866           354.511
                      20    8 Sep 2021 20:56:42.940    8 Sep 2021 21:02:37.455           354.515
                      21    8 Sep 2021 21:49:14.528    8 Sep 2021 21:55:09.038           354.510
                      22    8 Sep 2021 22:41:46.120    8 Sep 2021 22:47:40.630           354.511
                      23    8 Sep 2021 23:34:17.709    8 Sep 2021 23:40:12.220           354.511
                      24    9 Sep 2021 00:26:49.296    9 Sep 2021 00:32:43.808           354.512
                      25    9 Sep 2021 01:19:20.882    9 Sep 2021 01:25:15.393           354.511
                      26    9 Sep 2021 02:11:52.474    9 Sep 2021 02:17:46.985           354.511
                      27    9 Sep 2021 03:04:24.059    9 Sep 2021 03:10:18.573           354.515
                      28    9 Sep 2021 03:56:55.647    9 Sep 2021 04:00:00.000           184.353

Min Duration          28    9 Sep 2021 03:56:55.647    9 Sep 2021 04:00:00.000           184.353
Max Duration           6    8 Sep 2021 08:41:20.702    8 Sep 2021 08:47:15.217           354.515
Mean Duration                                                                            348.434
Total Duration                                                                          9756.160


Satellite608-To-Satellite309
----------------------------
                  Access       Start Time (UTCG)           Stop Time (UTCG)       Duration (sec)
                  ------    -----------------------    -----------------------    --------------
                       1    8 Sep 2021 04:44:25.044    8 Sep 2021 04:51:26.580           421.536
                       2    8 Sep 2021 05:36:56.632    8 Sep 2021 05:43:58.169           421.537
                       3    8 Sep 2021 06:29:28.223    8 Sep 2021 06:36:29.757           421.534
                       4    8 Sep 2021 07:21:59.809    8 Sep 2021 07:29:01.346           421.537
                       5    8 Sep 2021 08:14:31.400    8 Sep 2021 08:21:32.934           421.534
                       6    8 Sep 2021 09:07:02.985    8 Sep 2021 09:14:04.521           421.536
                       7    8 Sep 2021 09:59:34.578    8 Sep 2021 10:06:36.110           421.532
                       8    8 Sep 2021 10:52:06.162    8 Sep 2021 10:59:07.699           421.537
                       9    8 Sep 2021 11:44:37.754    8 Sep 2021 11:51:39.287           421.533
                      10    8 Sep 2021 12:37:09.339    8 Sep 2021 12:44:10.876           421.537
                      11    8 Sep 2021 13:29:40.930    8 Sep 2021 13:36:42.464           421.534
                      12    8 Sep 2021 14:22:12.516    8 Sep 2021 14:29:14.053           421.537
                      13    8 Sep 2021 15:14:44.106    8 Sep 2021 15:21:45.641           421.535
                      14    8 Sep 2021 16:07:15.693    8 Sep 2021 16:14:17.230           421.536
                      15    8 Sep 2021 16:59:47.282    8 Sep 2021 17:06:48.818           421.536
                      16    8 Sep 2021 17:52:18.872    8 Sep 2021 17:59:20.406           421.534
                      17    8 Sep 2021 18:44:50.458    8 Sep 2021 18:51:51.995           421.537
                      18    8 Sep 2021 19:37:22.049    8 Sep 2021 19:44:23.583           421.534
                      19    8 Sep 2021 20:29:53.635    8 Sep 2021 20:36:55.172           421.537
                      20    8 Sep 2021 21:22:25.225    8 Sep 2021 21:29:26.760           421.534
                      21    8 Sep 2021 22:14:56.811    8 Sep 2021 22:21:58.347           421.536
                      22    8 Sep 2021 23:07:28.404    8 Sep 2021 23:14:29.936           421.532
                      23    8 Sep 2021 23:59:59.988    9 Sep 2021 00:07:01.525           421.537
                      24    9 Sep 2021 00:52:31.580    9 Sep 2021 00:59:33.113           421.533
                      25    9 Sep 2021 01:45:03.165    9 Sep 2021 01:52:04.702           421.537
                      26    9 Sep 2021 02:37:34.756    9 Sep 2021 02:44:36.290           421.534
                      27    9 Sep 2021 03:30:06.342    9 Sep 2021 03:37:07.879           421.537

Min Duration           7    8 Sep 2021 09:59:34.578    8 Sep 2021 10:06:36.110           421.532
Max Duration           8    8 Sep 2021 10:52:06.162    8 Sep 2021 10:59:07.699           421.537
Mean Duration                                                                            421.535
Total Duration                                                                         11381.451


Satellite608-To-Satellite310
----------------------------
                  Access       Start Time (UTCG)           Stop Time (UTCG)       Duration (sec)
                  ------    -----------------------    -----------------------    --------------
                       1    8 Sep 2021 04:32:58.641    8 Sep 2021 04:52:22.668          1164.026
                       2    8 Sep 2021 05:25:30.230    8 Sep 2021 05:44:54.255          1164.025
                       3    8 Sep 2021 06:18:01.818    8 Sep 2021 06:37:25.845          1164.027
                       4    8 Sep 2021 07:10:33.404    8 Sep 2021 07:29:57.431          1164.028
                       5    8 Sep 2021 08:03:04.995    8 Sep 2021 08:22:29.020          1164.025
                       6    8 Sep 2021 08:55:36.580    8 Sep 2021 09:15:00.607          1164.027
                       7    8 Sep 2021 09:48:08.171    8 Sep 2021 10:07:32.195          1164.025
                       8    8 Sep 2021 10:40:39.758    8 Sep 2021 11:00:03.786          1164.027
                       9    8 Sep 2021 11:33:11.349    8 Sep 2021 11:52:35.373          1164.024
                      10    8 Sep 2021 12:25:42.935    8 Sep 2021 12:45:06.961          1164.026
                      11    8 Sep 2021 13:18:14.524    8 Sep 2021 13:37:38.549          1164.025
                      12    8 Sep 2021 14:10:46.113    8 Sep 2021 14:30:10.138          1164.025
                      13    8 Sep 2021 15:03:17.703    8 Sep 2021 15:22:41.727          1164.025
                      14    8 Sep 2021 15:55:49.290    8 Sep 2021 16:15:13.318          1164.029
                      15    8 Sep 2021 16:48:20.878    8 Sep 2021 17:07:44.904          1164.026
                      16    8 Sep 2021 17:40:52.468    8 Sep 2021 18:00:16.492          1164.024
                      17    8 Sep 2021 18:33:24.053    8 Sep 2021 18:52:48.080          1164.026
                      18    8 Sep 2021 19:25:55.643    8 Sep 2021 19:45:19.668          1164.025
                      19    8 Sep 2021 20:18:27.231    8 Sep 2021 20:37:51.258          1164.027
                      20    8 Sep 2021 21:10:58.821    8 Sep 2021 21:30:22.845          1164.024
                      21    8 Sep 2021 22:03:30.408    8 Sep 2021 22:22:54.434          1164.026
                      22    8 Sep 2021 22:56:01.997    8 Sep 2021 23:15:26.022          1164.025
                      23    8 Sep 2021 23:48:33.584    9 Sep 2021 00:07:57.610          1164.026
                      24    9 Sep 2021 00:41:05.175    9 Sep 2021 01:00:29.197          1164.023
                      25    9 Sep 2021 01:33:36.762    9 Sep 2021 01:53:00.786          1164.024
                      26    9 Sep 2021 02:26:08.351    9 Sep 2021 02:45:32.376          1164.026
                      27    9 Sep 2021 03:18:39.940    9 Sep 2021 03:38:03.964          1164.024

Min Duration          24    9 Sep 2021 00:41:05.175    9 Sep 2021 01:00:29.197          1164.023
Max Duration          14    8 Sep 2021 15:55:49.290    8 Sep 2021 16:15:13.318          1164.029
Mean Duration                                                                           1164.026
Total Duration                                                                         31428.689


Satellite608-To-Satellite401
----------------------------
