routing/visibility/v609.txt

Satellite609-To-Satellite104
----------------------------
                  Access       Start Time (UTCG)           Stop Time (UTCG)       Duration (sec)
                  ------    -----------------------    -----------------------    --------------
                       1    8 Sep 2021 04:14:46.457    8 Sep 2021 04:20:40.842           354.385
                       2    8 Sep 2021 05:07:18.047    8 Sep 2021 05:13:12.431           354.385
                       3    8 Sep 2021 05:59:49.633    8 Sep 2021 06:05:44.020           354.387
                       4    8 Sep 2021 06:52:21.220    8 Sep 2021 06:58:15.605           354.385
                       5    8 Sep 2021 07:44:52.811    8 Sep 2021 07:50:47.196           354.385
                       6    8 Sep 2021 08:37:24.396    8 Sep 2021 08:43:18.785           354.389
                       7    8 Sep 2021 09:29:55.985    8 Sep 2021 09:35:50.371           354.386
                       8    8 Sep 2021 10:22:27.576    8 Sep 2021 10:28:21.960           354.385
                       9    8 Sep 2021 11:14:59.165    8 Sep 2021 11:20:53.550           354.385
                      10    8 Sep 2021 12:07:30.751    8 Sep 2021 12:13:25.138           354.387
                      11    8 Sep 2021 13:00:02.339    8 Sep 2021 13:05:56.724           354.385
                      12    8 Sep 2021 13:52:33.930    8 Sep 2021 13:58:28.315           354.385
                      13    8 Sep 2021 14:45:05.515    8 Sep 2021 14:50:59.904           354.389
                      14    8 Sep 2021 15:37:37.104    8 Sep 2021 15:43:31.490           354.386
                      15    8 Sep 2021 16:30:08.695    8 Sep 2021 16:36:03.079           354.385
                      16    8 Sep 2021 17:22:40.284    8 Sep 2021 17:28:34.669           354.385
                      17    8 Sep 2021 18:15:11.872    8 Sep 2021 18:21:06.257           354.385
                      18    8 Sep 2021 19:07:43.458    8 Sep 2021 19:13:37.842           354.385
                      19    8 Sep 2021 20:00:15.049    8 Sep 2021 20:06:09.434           354.385
                      20    8 Sep 2021 20:52:46.634    8 Sep 2021 20:58:41.023           354.389
                      21    8 Sep 2021 21:45:18.222    8 Sep 2021 21:51:12.608           354.386
                      22    8 Sep 2021 22:37:49.813    8 Sep 2021 22:43:44.198           354.385
                      23    8 Sep 2021 23:30:21.403    8 Sep 2021 23:36:15.788           354.385
                      24    9 Sep 2021 00:22:52.991    9 Sep 2021 00:28:47.376           354.385
                      25    9 Sep 2021 01:15:24.576    9 Sep 2021 01:21:18.961           354.385
                      26    9 Sep 2021 02:07:56.167    9 Sep 2021 02:13:50.552           354.385
                      27    9 Sep 2021 03:00:27.753    9 Sep 2021 03:06:22.141           354.389
                      28    9 Sep 2021 03:52:59.341    9 Sep 2021 03:58:53.729           354.388

Min Duration           1    8 Sep 2021 04:14:46.457    8 Sep 2021 04:20:40.842           354.385
Max Duration           6    8 Sep 2021 08:37:24.396    8 Sep 2021 08:43:18.785           354.389
Mean Duration                                                                            354.386
Total Duration                                                                          9922.800


Satellite609-To-Satellite105
----------------------------
                  Access       Start Time (UTCG)           Stop Time (UTCG)       Duration (sec)
                  ------    -----------------------    -----------------------    --------------
                       1    8 Sep 2021 04:02:56.025    8 Sep 2021 04:22:00.956          1144.931
                       2    8 Sep 2021 04:55:27.616    8 Sep 2021 05:14:32.544          1144.929
                       3    8 Sep 2021 05:47:59.204    8 Sep 2021 06:07:04.130          1144.926
                       4    8 Sep 2021 06:40:30.793    8 Sep 2021 06:59:35.717          1144.925
                       5    8 Sep 2021 07:33:02.381    8 Sep 2021 07:52:07.308          1144.927
                       6    8 Sep 2021 08:25:33.965    8 Sep 2021 08:44:38.896          1144.931
                       7    8 Sep 2021 09:18:05.554    8 Sep 2021 09:37:10.485          1144.930
                       8    8 Sep 2021 10:10:37.143    8 Sep 2021 10:29:42.073          1144.930
                       9    8 Sep 2021 11:03:08.732    8 Sep 2021 11:22:13.661          1144.930
                      10    8 Sep 2021 11:55:40.320    8 Sep 2021 12:14:45.250          1144.929
                      11    8 Sep 2021 12:48:11.909    8 Sep 2021 13:07:16.838          1144.929
                      12    8 Sep 2021 13:40:43.497    8 Sep 2021 13:59:48.426          1144.929
                      13    8 Sep 2021 14:33:15.086    8 Sep 2021 14:52:20.015          1144.929
                      14    8 Sep 2021 15:25:46.674    8 Sep 2021 15:44:51.603          1144.929
                      15    8 Sep 2021 16:18:18.263    8 Sep 2021 16:37:23.192          1144.929
                      16    8 Sep 2021 17:10:49.851    8 Sep 2021 17:29:54.780          1144.929
                      17    8 Sep 2021 18:03:21.439    8 Sep 2021 18:22:26.368          1144.929
                      18    8 Sep 2021 18:55:53.028    8 Sep 2021 19:14:57.957          1144.929
                      19    8 Sep 2021 19:48:24.616    8 Sep 2021 20:07:29.545          1144.929
                      20    8 Sep 2021 20:40:56.205    8 Sep 2021 21:00:01.134          1144.929
                      21    8 Sep 2021 21:33:27.793    8 Sep 2021 21:52:32.722          1144.929
                      22    8 Sep 2021 22:25:59.381    8 Sep 2021 22:45:04.310          1144.929
                      23    8 Sep 2021 23:18:30.970    8 Sep 2021 23:37:35.899          1144.929
                      24    9 Sep 2021 00:11:02.558    9 Sep 2021 00:30:07.487          1144.929
                      25    9 Sep 2021 01:03:34.147    9 Sep 2021 01:22:39.076          1144.929
                      26    9 Sep 2021 01:56:05.735    9 Sep 2021 02:15:10.664          1144.929
                      27    9 Sep 2021 02:48:37.323    9 Sep 2021 03:07:42.252          1144.929
                      28    9 Sep 2021 03:41:08.912    9 Sep 2021 04:00:00.000          1131.088

Min Duration          28    9 Sep 2021 03:41:08.912    9 Sep 2021 04:00:00.000          1131.088
Max Duration           6    8 Sep 2021 08:25:33.965    8 Sep 2021 08:44:38.896          1144.931
Mean Duration                                                                           1144.435
Total Duration                                                                         32044.169


Satellite609-To-Satellite106
----------------------------
                  Access       Start Time (UTCG)           Stop Time (UTCG)       Duration (sec)
                  ------    -----------------------    -----------------------    --------------
                       1    8 Sep 2021 04:00:00.000    8 Sep 2021 04:19:35.963          1175.963
                       2    8 Sep 2021 04:47:22.287    8 Sep 2021 05:12:07.547          1485.259
                       3    8 Sep 2021 05:39:53.879    8 Sep 2021 06:04:39.139          1485.260
                       4    8 Sep 2021 06:32:25.466    8 Sep 2021 06:57:10.723          1485.258
                       5    8 Sep 2021 07:24:57.056    8 Sep 2021 07:49:42.316          1485.260
                       6    8 Sep 2021 08:17:28.645    8 Sep 2021 08:42:13.900          1485.255
                       7    8 Sep 2021 09:10:00.232    8 Sep 2021 09:34:45.492          1485.260
                       8    8 Sep 2021 10:02:31.823    8 Sep 2021 10:27:17.077          1485.254
                       9    8 Sep 2021 10:55:03.409    8 Sep 2021 11:19:48.669          1485.260
                      10    8 Sep 2021 11:47:35.000    8 Sep 2021 12:12:20.254          1485.254
                      11    8 Sep 2021 12:40:06.586    8 Sep 2021 13:04:51.846          1485.260
                      12    8 Sep 2021 13:32:38.176    8 Sep 2021 13:57:23.431          1485.254
                      13    8 Sep 2021 14:25:09.763    8 Sep 2021 14:49:55.023          1485.260
                      14    8 Sep 2021 15:17:41.353    8 Sep 2021 15:42:26.607          1485.254
                      15    8 Sep 2021 16:10:12.940    8 Sep 2021 16:34:58.199          1485.260
                      16    8 Sep 2021 17:02:44.530    8 Sep 2021 17:27:29.784          1485.254
                      17    8 Sep 2021 17:55:16.116    8 Sep 2021 18:20:01.376          1485.260
                      18    8 Sep 2021 18:47:47.707    8 Sep 2021 19:12:32.961          1485.254
                      19    8 Sep 2021 19:40:19.293    8 Sep 2021 20:05:04.553          1485.260
                      20    8 Sep 2021 20:32:50.884    8 Sep 2021 20:57:36.138          1485.254
                      21    8 Sep 2021 21:25:22.470    8 Sep 2021 21:50:07.730          1485.260
                      22    8 Sep 2021 22:17:54.060    8 Sep 2021 22:42:39.315          1485.254
                      23    8 Sep 2021 23:10:25.647    8 Sep 2021 23:35:10.907          1485.260
                      24    9 Sep 2021 00:02:57.237    9 Sep 2021 00:27:42.491          1485.254
                      25    9 Sep 2021 00:55:28.824    9 Sep 2021 01:20:14.083          1485.260
                      26    9 Sep 2021 01:48:00.414    9 Sep 2021 02:12:45.668          1485.254
                      27    9 Sep 2021 02:40:32.000    9 Sep 2021 03:05:17.260          1485.260
                      28    9 Sep 2021 03:33:03.591    9 Sep 2021 03:57:48.845          1485.254

Min Duration           1    8 Sep 2021 04:00:00.000    8 Sep 2021 04:19:35.963          1175.963
Max Duration          15    8 Sep 2021 16:10:12.940    8 Sep 2021 16:34:58.199          1485.260
Mean Duration                                                                           1474.211
Total Duration                                                                         41277.910


Satellite609-To-Satellite107
----------------------------
                  Access       Start Time (UTCG)           Stop Time (UTCG)       Duration (sec)
                  ------    -----------------------    -----------------------    --------------
                       1    8 Sep 2021 04:00:00.000    8 Sep 2021 04:14:23.788           863.788
                       2    8 Sep 2021 04:42:04.146    8 Sep 2021 05:06:55.375          1491.229
                       3    8 Sep 2021 05:34:35.733    8 Sep 2021 05:59:26.968          1491.235
                       4    8 Sep 2021 06:27:07.318    8 Sep 2021 06:51:58.552          1491.234
                       5    8 Sep 2021 07:19:38.910    8 Sep 2021 07:44:30.145          1491.234
                       6    8 Sep 2021 08:12:10.495    8 Sep 2021 08:37:01.729          1491.234
                       7    8 Sep 2021 09:04:42.087    8 Sep 2021 09:29:33.321          1491.234
                       8    8 Sep 2021 09:57:13.672    8 Sep 2021 10:22:04.906          1491.234
                       9    8 Sep 2021 10:49:45.264    8 Sep 2021 11:14:36.498          1491.234
                      10    8 Sep 2021 11:42:16.849    8 Sep 2021 12:07:08.083          1491.234
                      11    8 Sep 2021 12:34:48.441    8 Sep 2021 12:59:39.675          1491.234
                      12    8 Sep 2021 13:27:20.026    8 Sep 2021 13:52:11.260          1491.234
                      13    8 Sep 2021 14:19:51.618    8 Sep 2021 14:44:42.852          1491.234
                      14    8 Sep 2021 15:12:23.202    8 Sep 2021 15:37:14.436          1491.234
                      15    8 Sep 2021 16:04:54.795    8 Sep 2021 16:29:46.029          1491.234
                      16    8 Sep 2021 16:57:26.379    8 Sep 2021 17:22:17.613          1491.234
                      17    8 Sep 2021 17:49:57.971    8 Sep 2021 18:14:49.205          1491.234
                      18    8 Sep 2021 18:42:29.556    8 Sep 2021 19:07:20.790          1491.234
                      19    8 Sep 2021 19:35:01.148    8 Sep 2021 19:59:52.382          1491.234
                      20    8 Sep 2021 20:27:32.733    8 Sep 2021 20:52:23.967          1491.234
                      21    8 Sep 2021 21:20:04.325    8 Sep 2021 21:44:55.559          1491.234
                      22    8 Sep 2021 22:12:35.910    8 Sep 2021 22:37:27.143          1491.234
                      23    8 Sep 2021 23:05:07.502    8 Sep 2021 23:29:58.736          1491.234
                      24    8 Sep 2021 23:57:39.086    9 Sep 2021 00:22:30.320          1491.234
                      25    9 Sep 2021 00:50:10.679    9 Sep 2021 01:15:01.913          1491.234
                      26    9 Sep 2021 01:42:42.263    9 Sep 2021 02:07:33.497          1491.234
                      27    9 Sep 2021 02:35:13.855    9 Sep 2021 03:00:05.089          1491.234
                      28    9 Sep 2021 03:27:45.440    9 Sep 2021 03:52:36.674          1491.234

Min Duration           1    8 Sep 2021 04:00:00.000    8 Sep 2021 04:14:23.788           863.788
Max Duration           3    8 Sep 2021 05:34:35.733    8 Sep 2021 05:59:26.968          1491.235
Mean Duration                                                                           1468.825
Total Duration                                                                         41127.101


Satellite609-To-Satellite108
----------------------------
                  Access       Start Time (UTCG)           Stop Time (UTCG)       Duration (sec)
                  ------    -----------------------    -----------------------    --------------
                       1    8 Sep 2021 04:00:00.000    8 Sep 2021 04:06:25.044           385.044
                       2    8 Sep 2021 04:39:32.570    8 Sep 2021 04:58:56.633          1164.062
                       3    8 Sep 2021 05:32:04.160    8 Sep 2021 05:51:28.223          1164.063
                       4    8 Sep 2021 06:24:35.747    8 Sep 2021 06:43:59.813          1164.066
                       5    8 Sep 2021 07:17:07.334    8 Sep 2021 07:36:31.399          1164.065
                       6    8 Sep 2021 08:09:38.925    8 Sep 2021 08:29:02.987          1164.063
                       7    8 Sep 2021 09:02:10.510    8 Sep 2021 09:21:34.575          1164.065
                       8    8 Sep 2021 09:54:42.100    8 Sep 2021 10:14:06.163          1164.063
                       9    8 Sep 2021 10:47:13.688    8 Sep 2021 11:06:37.753          1164.065
                      10    8 Sep 2021 11:39:45.278    8 Sep 2021 11:59:09.341          1164.062
                      11    8 Sep 2021 12:32:16.865    8 Sep 2021 12:51:40.929          1164.064
                      12    8 Sep 2021 13:24:48.454    8 Sep 2021 13:44:12.517          1164.063
                      13    8 Sep 2021 14:17:20.042    8 Sep 2021 14:36:44.106          1164.064
                      14    8 Sep 2021 15:09:51.632    8 Sep 2021 15:29:15.695          1164.063
                      15    8 Sep 2021 16:02:23.219    8 Sep 2021 16:21:47.286          1164.067
                      16    8 Sep 2021 16:54:54.808    8 Sep 2021 17:14:18.872          1164.064
                      17    8 Sep 2021 17:47:26.397    8 Sep 2021 18:06:50.460          1164.063
                      18    8 Sep 2021 18:39:57.983    8 Sep 2021 18:59:22.047          1164.064
                      19    8 Sep 2021 19:32:29.572    8 Sep 2021 19:51:53.635          1164.063
                      20    8 Sep 2021 20:25:01.161    8 Sep 2021 20:44:25.226          1164.065
                      21    8 Sep 2021 21:17:32.751    8 Sep 2021 21:36:56.813          1164.062
                      22    8 Sep 2021 22:10:04.337    8 Sep 2021 22:29:28.401          1164.064
                      23    8 Sep 2021 23:02:35.926    8 Sep 2021 23:21:59.989          1164.063
                      24    8 Sep 2021 23:55:07.514    9 Sep 2021 00:14:31.578          1164.064
                      25    9 Sep 2021 00:47:39.104    9 Sep 2021 01:07:03.165          1164.061
                      26    9 Sep 2021 01:40:10.692    9 Sep 2021 01:59:34.754          1164.062
                      27    9 Sep 2021 02:32:42.280    9 Sep 2021 02:52:06.344          1164.064
                      28    9 Sep 2021 03:25:13.869    9 Sep 2021 03:44:37.932          1164.063

Min Duration           1    8 Sep 2021 04:00:00.000    8 Sep 2021 04:06:25.044           385.044
Max Duration          15    8 Sep 2021 16:02:23.219    8 Sep 2021 16:21:47.286          1164.067
Mean Duration                                                                           1136.242
Total Duration                                                                         31814.762


Satellite609-To-Satellite109
----------------------------
                  Access       Start Time (UTCG)           Stop Time (UTCG)       Duration (sec)
                  ------    -----------------------    -----------------------    --------------
                       1    8 Sep 2021 04:40:28.622    8 Sep 2021 04:47:30.265           421.643
                       2    8 Sep 2021 05:33:00.210    8 Sep 2021 05:40:01.853           421.643
                       3    8 Sep 2021 06:25:31.801    8 Sep 2021 06:32:33.441           421.641
                       4    8 Sep 2021 07:18:03.386    8 Sep 2021 07:25:05.030           421.644
                       5    8 Sep 2021 08:10:34.977    8 Sep 2021 08:17:36.618           421.641
                       6    8 Sep 2021 09:03:06.563    8 Sep 2021 09:10:08.207           421.644
                       7    8 Sep 2021 09:55:38.156    8 Sep 2021 10:02:39.795           421.639
                       8    8 Sep 2021 10:48:09.740    8 Sep 2021 10:55:11.380           421.641
                       9    8 Sep 2021 11:40:41.332    8 Sep 2021 11:47:42.971           421.640
                      10    8 Sep 2021 12:33:12.916    8 Sep 2021 12:40:14.560           421.644
                      11    8 Sep 2021 13:25:44.508    8 Sep 2021 13:32:46.148           421.641
                      12    8 Sep 2021 14:18:16.093    8 Sep 2021 14:25:17.737           421.644
                      13    8 Sep 2021 15:10:47.684    8 Sep 2021 15:17:49.325           421.641
                      14    8 Sep 2021 16:03:19.270    8 Sep 2021 16:10:20.914           421.644
                      15    8 Sep 2021 16:55:50.860    8 Sep 2021 17:02:52.502           421.643
                      16    8 Sep 2021 17:48:22.448    8 Sep 2021 17:55:24.091           421.643
                      17    8 Sep 2021 18:40:54.036    8 Sep 2021 18:47:55.679           421.644
                      18    8 Sep 2021 19:33:25.627    8 Sep 2021 19:40:27.267           421.641
                      19    8 Sep 2021 20:25:57.212    8 Sep 2021 20:32:58.856           421.644
                      20    8 Sep 2021 21:18:28.803    8 Sep 2021 21:25:30.444           421.641
                      21    8 Sep 2021 22:11:00.389    8 Sep 2021 22:18:02.033           421.644
                      22    8 Sep 2021 23:03:31.982    8 Sep 2021 23:10:33.621           421.639
                      23    8 Sep 2021 23:56:03.565    9 Sep 2021 00:03:05.206           421.641
                      24    9 Sep 2021 00:48:35.158    9 Sep 2021 00:55:36.797           421.640
                      25    9 Sep 2021 01:41:06.742    9 Sep 2021 01:48:08.386           421.644
                      26    9 Sep 2021 02:33:38.334    9 Sep 2021 02:40:39.974           421.641
                      27    9 Sep 2021 03:26:09.919    9 Sep 2021 03:33:11.563           421.644

Min Duration           7    8 Sep 2021 09:55:38.156    8 Sep 2021 10:02:39.795           421.639
Max Duration          21    8 Sep 2021 22:11:00.389    8 Sep 2021 22:18:02.033           421.644
Mean Duration                                                                            421.642
Total Duration                                                                         11384.337


Satellite609-To-Satellite202
----------------------------
                  Access       Start Time (UTCG)           Stop Time (UTCG)       Duration (sec)
                  ------    -----------------------    -----------------------    --------------
                       1    8 Sep 2021 04:22:03.929    8 Sep 2021 04:33:05.212           661.283
                       2    8 Sep 2021 05:14:35.521    8 Sep 2021 05:25:36.800           661.280
                       3    8 Sep 2021 06:07:07.110    8 Sep 2021 06:18:08.388           661.278
                       4    8 Sep 2021 06:59:38.699    8 Sep 2021 07:10:39.974           661.276
                       5    8 Sep 2021 07:52:10.286    8 Sep 2021 08:03:11.564           661.278
                       6    8 Sep 2021 08:44:41.874    8 Sep 2021 08:55:43.156           661.282
                       7    8 Sep 2021 09:37:13.461    8 Sep 2021 09:48:14.744           661.283
                       8    8 Sep 2021 10:29:45.048    8 Sep 2021 10:40:46.332           661.284
                       9    8 Sep 2021 11:22:16.636    8 Sep 2021 11:33:17.920           661.283
                      10    8 Sep 2021 12:14:48.226    8 Sep 2021 12:25:49.507           661.281
                      11    8 Sep 2021 13:07:19.818    8 Sep 2021 13:18:21.095           661.278
                      12    8 Sep 2021 13:59:51.405    8 Sep 2021 14:10:52.684           661.278
                      13    8 Sep 2021 14:52:22.994    8 Sep 2021 15:03:24.270           661.276
                      14    8 Sep 2021 15:44:54.581    8 Sep 2021 15:55:55.861           661.280
                      15    8 Sep 2021 16:37:26.169    8 Sep 2021 16:48:27.451           661.283
                      16    8 Sep 2021 17:29:57.756    8 Sep 2021 17:40:59.039           661.284
                      17    8 Sep 2021 18:22:29.343    8 Sep 2021 18:33:30.627           661.284
                      18    8 Sep 2021 19:15:00.936    8 Sep 2021 19:26:02.215           661.279
                      19    8 Sep 2021 20:07:32.525    8 Sep 2021 20:18:33.803           661.278
                      20    8 Sep 2021 21:00:04.113    8 Sep 2021 21:11:05.391           661.278
                      21    8 Sep 2021 21:52:35.701    8 Sep 2021 22:03:36.977           661.276
                      22    8 Sep 2021 22:45:07.288    8 Sep 2021 22:56:08.566           661.278
                      23    8 Sep 2021 23:37:38.876    8 Sep 2021 23:48:40.159           661.283
                      24    9 Sep 2021 00:30:10.463    9 Sep 2021 00:41:11.747           661.284
                      25    9 Sep 2021 01:22:42.051    9 Sep 2021 01:33:43.334           661.284
                      26    9 Sep 2021 02:15:13.642    9 Sep 2021 02:26:14.922           661.280
                      27    9 Sep 2021 03:07:45.232    9 Sep 2021 03:18:46.510           661.278

Min Duration           4    8 Sep 2021 06:59:38.699    8 Sep 2021 07:10:39.974           661.276
Max Duration           8    8 Sep 2021 10:29:45.048    8 Sep 2021 10:40:46.332           661.284
Mean Duration                                                                            661.280
Total Duration                                                                         17854.568


Satellite609-To-Satellite203
----------------------------
                  Access       Start Time (UTCG)           Stop Time (UTCG)       Duration (sec)
                  ------    -----------------------    -----------------------    --------------
                       1    8 Sep 2021 04:12:57.668    8 Sep 2021 04:31:41.158          1123.491
                       2    8 Sep 2021 05:05:29.256    8 Sep 2021 05:24:12.746          1123.490
                       3    8 Sep 2021 05:58:00.843    8 Sep 2021 06:16:44.336          1123.493
                       4    8 Sep 2021 06:50:32.429    8 Sep 2021 07:09:15.927          1123.498
                       5    8 Sep 2021 07:43:04.017    8 Sep 2021 08:01:47.514          1123.497
                       6    8 Sep 2021 08:35:35.610    8 Sep 2021 08:54:19.101          1123.491
                       7    8 Sep 2021 09:28:07.198    8 Sep 2021 09:46:50.688          1123.490
                       8    8 Sep 2021 10:20:38.784    8 Sep 2021 10:39:22.278          1123.494
                       9    8 Sep 2021 11:13:10.371    8 Sep 2021 11:31:53.869          1123.499
                      10    8 Sep 2021 12:05:41.959    8 Sep 2021 12:24:25.456          1123.497
                      11    8 Sep 2021 12:58:13.552    8 Sep 2021 13:16:57.043          1123.491
                      12    8 Sep 2021 13:50:45.140    8 Sep 2021 14:09:28.630          1123.490
                      13    8 Sep 2021 14:43:16.726    8 Sep 2021 15:02:00.220          1123.494
                      14    8 Sep 2021 15:35:48.312    8 Sep 2021 15:54:31.811          1123.499
                      15    8 Sep 2021 16:28:19.901    8 Sep 2021 16:47:03.397          1123.497
                      16    8 Sep 2021 17:20:51.494    8 Sep 2021 17:39:34.985          1123.491
                      17    8 Sep 2021 18:13:23.082    8 Sep 2021 18:32:06.572          1123.490
                      18    8 Sep 2021 19:05:54.668    8 Sep 2021 19:24:38.162          1123.494
                      19    8 Sep 2021 19:58:26.254    8 Sep 2021 20:17:09.753          1123.499
                      20    8 Sep 2021 20:50:57.843    8 Sep 2021 21:09:41.339          1123.497
                      21    8 Sep 2021 21:43:29.436    8 Sep 2021 22:02:12.927          1123.491
                      22    8 Sep 2021 22:36:01.024    8 Sep 2021 22:54:44.514          1123.490
                      23    8 Sep 2021 23:28:32.610    8 Sep 2021 23:47:16.104          1123.494
                      24    9 Sep 2021 00:21:04.196    9 Sep 2021 00:39:47.695          1123.499
                      25    9 Sep 2021 01:13:35.785    9 Sep 2021 01:32:19.281          1123.497
                      26    9 Sep 2021 02:06:07.378    9 Sep 2021 02:24:50.869          1123.491
                      27    9 Sep 2021 02:58:38.966    9 Sep 2021 03:17:22.456          1123.490
                      28    9 Sep 2021 03:51:10.552    9 Sep 2021 04:00:00.000           529.448

Min Duration          28    9 Sep 2021 03:51:10.552    9 Sep 2021 04:00:00.000           529.448
Max Duration          24    9 Sep 2021 00:21:04.196    9 Sep 2021 00:39:47.695          1123.499
Mean Duration                                                                           1102.278
Total Duration                                                                         30863.780


Satellite609-To-Satellite204
----------------------------
                  Access       Start Time (UTCG)           Stop Time (UTCG)       Duration (sec)
                  ------    -----------------------    -----------------------    --------------
                       1    8 Sep 2021 04:05:45.446    8 Sep 2021 04:28:23.057          1357.610
                       2    8 Sep 2021 04:58:17.035    8 Sep 2021 05:20:54.645          1357.610
                       3    8 Sep 2021 05:50:48.624    8 Sep 2021 06:13:26.234          1357.610
                       4    8 Sep 2021 06:43:20.212    8 Sep 2021 07:05:57.823          1357.611
                       5    8 Sep 2021 07:35:51.804    8 Sep 2021 07:58:29.414          1357.610
                       6    8 Sep 2021 08:28:23.392    8 Sep 2021 08:51:01.003          1357.610
                       7    8 Sep 2021 09:20:54.981    8 Sep 2021 09:43:32.591          1357.610
                       8    8 Sep 2021 10:13:26.569    8 Sep 2021 10:36:04.179          1357.610
                       9    8 Sep 2021 11:05:58.158    8 Sep 2021 11:28:35.768          1357.610
                      10    8 Sep 2021 11:58:29.746    8 Sep 2021 12:21:07.356          1357.610
                      11    8 Sep 2021 12:51:01.334    8 Sep 2021 13:13:38.945          1357.610
                      12    8 Sep 2021 13:43:32.923    8 Sep 2021 14:06:10.533          1357.610
                      13    8 Sep 2021 14:36:04.511    8 Sep 2021 14:58:42.121          1357.610
                      14    8 Sep 2021 15:28:36.100    8 Sep 2021 15:51:13.710          1357.610
                      15    8 Sep 2021 16:21:07.688    8 Sep 2021 16:43:45.298          1357.610
                      16    8 Sep 2021 17:13:39.276    8 Sep 2021 17:36:16.887          1357.610
                      17    8 Sep 2021 18:06:10.865    8 Sep 2021 18:28:48.475          1357.610
                      18    8 Sep 2021 18:58:42.453    8 Sep 2021 19:21:20.063          1357.610
                      19    8 Sep 2021 19:51:14.042    8 Sep 2021 20:13:51.652          1357.610
                      20    8 Sep 2021 20:43:45.630    8 Sep 2021 21:06:23.240          1357.610
                      21    8 Sep 2021 21:36:17.218    8 Sep 2021 21:58:54.828          1357.610
                      22    8 Sep 2021 22:28:48.807    8 Sep 2021 22:51:26.417          1357.610
                      23    8 Sep 2021 23:21:20.395    8 Sep 2021 23:43:58.005          1357.610
                      24    9 Sep 2021 00:13:51.984    9 Sep 2021 00:36:29.594          1357.610
                      25    9 Sep 2021 01:06:23.572    9 Sep 2021 01:29:01.182          1357.610
                      26    9 Sep 2021 01:58:55.160    9 Sep 2021 02:21:32.770          1357.610
                      27    9 Sep 2021 02:51:26.749    9 Sep 2021 03:14:04.359          1357.610
                      28    9 Sep 2021 03:43:58.337    9 Sep 2021 04:00:00.000           961.663

Min Duration          28    9 Sep 2021 03:43:58.337    9 Sep 2021 04:00:00.000           961.663
Max Duration           4    8 Sep 2021 06:43:20.212    8 Sep 2021 07:05:57.823          1357.611
Mean Duration                                                                           1343.469
Total Duration                                                                         37617.138


Satellite609-To-Satellite205
----------------------------
                  Access       Start Time (UTCG)           Stop Time (UTCG)       Duration (sec)
                  ------    -----------------------    -----------------------    --------------
                       1    8 Sep 2021 04:00:30.286    8 Sep 2021 04:23:07.902          1357.617
                       2    8 Sep 2021 04:53:01.871    8 Sep 2021 05:15:39.491          1357.620
                       3    8 Sep 2021 05:45:33.460    8 Sep 2021 06:08:11.080          1357.620
                       4    8 Sep 2021 06:38:05.048    8 Sep 2021 07:00:42.668          1357.620
                       5    8 Sep 2021 07:30:36.637    8 Sep 2021 07:53:14.257          1357.620
                       6    8 Sep 2021 08:23:08.229    8 Sep 2021 08:45:45.848          1357.620
                       7    8 Sep 2021 09:15:39.817    8 Sep 2021 09:38:17.437          1357.620
                       8    8 Sep 2021 10:08:11.406    8 Sep 2021 10:30:49.025          1357.620
                       9    8 Sep 2021 11:00:42.994    8 Sep 2021 11:23:20.614          1357.620
                      10    8 Sep 2021 11:53:14.582    8 Sep 2021 12:15:52.202          1357.620
                      11    8 Sep 2021 12:45:46.171    8 Sep 2021 13:08:23.790          1357.620
                      12    8 Sep 2021 13:38:17.759    8 Sep 2021 14:00:55.379          1357.620
                      13    8 Sep 2021 14:30:49.348    8 Sep 2021 14:53:26.967          1357.620
                      14    8 Sep 2021 15:23:20.936    8 Sep 2021 15:45:58.556          1357.620
                      15    8 Sep 2021 16:15:52.524    8 Sep 2021 16:38:30.144          1357.620
                      16    8 Sep 2021 17:08:24.113    8 Sep 2021 17:31:01.732          1357.620
                      17    8 Sep 2021 18:00:55.701    8 Sep 2021 18:23:33.321          1357.620
                      18    8 Sep 2021 18:53:27.290    8 Sep 2021 19:16:04.909          1357.620
                      19    8 Sep 2021 19:45:58.878    8 Sep 2021 20:08:36.498          1357.620
                      20    8 Sep 2021 20:38:30.466    8 Sep 2021 21:01:08.086          1357.620
                      21    8 Sep 2021 21:31:02.055    8 Sep 2021 21:53:39.674          1357.620
                      22    8 Sep 2021 22:23:33.643    8 Sep 2021 22:46:11.263          1357.620
                      23    8 Sep 2021 23:16:05.232    8 Sep 2021 23:38:42.851          1357.620
                      24    9 Sep 2021 00:08:36.820    9 Sep 2021 00:31:14.440          1357.620
                      25    9 Sep 2021 01:01:08.408    9 Sep 2021 01:23:46.028          1357.620
                      26    9 Sep 2021 01:53:39.997    9 Sep 2021 02:16:17.616          1357.620
                      27    9 Sep 2021 02:46:11.585    9 Sep 2021 03:08:49.205          1357.620
                      28    9 Sep 2021 03:38:43.174    9 Sep 2021 04:00:00.000          1276.826

Min Duration          28    9 Sep 2021 03:38:43.174    9 Sep 2021 04:00:00.000          1276.826
Max Duration           4    8 Sep 2021 06:38:05.048    8 Sep 2021 07:00:42.668          1357.620
Mean Duration                                                                           1354.734
Total Duration                                                                         37932.554


Satellite609-To-Satellite206
----------------------------
                  Access       Start Time (UTCG)           Stop Time (UTCG)       Duration (sec)
                  ------    -----------------------    -----------------------    --------------
                       1    8 Sep 2021 04:00:00.000    8 Sep 2021 04:15:55.695           955.695
                       2    8 Sep 2021 04:49:43.765    8 Sep 2021 05:08:27.287          1123.522
                       3    8 Sep 2021 05:42:15.351    8 Sep 2021 06:00:58.875          1123.524
                       4    8 Sep 2021 06:34:46.943    8 Sep 2021 06:53:30.461          1123.518
                       5    8 Sep 2021 07:27:18.531    8 Sep 2021 07:46:02.048          1123.517
                       6    8 Sep 2021 08:19:50.118    8 Sep 2021 08:38:33.638          1123.520
                       7    8 Sep 2021 09:12:21.705    8 Sep 2021 09:31:05.230          1123.525
                       8    8 Sep 2021 10:04:53.292    8 Sep 2021 10:23:36.816          1123.524
                       9    8 Sep 2021 10:57:24.885    8 Sep 2021 11:16:08.403          1123.518
                      10    8 Sep 2021 11:49:56.473    8 Sep 2021 12:08:39.990          1123.517
                      11    8 Sep 2021 12:42:28.060    8 Sep 2021 13:01:11.580          1123.521
                      12    8 Sep 2021 13:34:59.646    8 Sep 2021 13:53:43.172          1123.526
                      13    8 Sep 2021 14:27:31.234    8 Sep 2021 14:46:14.758          1123.524
                      14    8 Sep 2021 15:20:02.827    8 Sep 2021 15:38:46.345          1123.518
                      15    8 Sep 2021 16:12:34.415    8 Sep 2021 16:31:17.932          1123.517
                      16    8 Sep 2021 17:05:06.002    8 Sep 2021 17:23:49.522          1123.521
                      17    8 Sep 2021 17:57:37.588    8 Sep 2021 18:16:21.114          1123.526
                      18    8 Sep 2021 18:50:09.176    8 Sep 2021 19:08:52.700          1123.524
                      19    8 Sep 2021 19:42:40.769    8 Sep 2021 20:01:24.287          1123.518
                      20    8 Sep 2021 20:35:12.357    8 Sep 2021 20:53:55.874          1123.517
                      21    8 Sep 2021 21:27:43.944    8 Sep 2021 21:46:27.464          1123.521
                      22    8 Sep 2021 22:20:15.529    8 Sep 2021 22:38:59.056          1123.526
                      23    8 Sep 2021 23:12:47.118    8 Sep 2021 23:31:30.642          1123.524
                      24    9 Sep 2021 00:05:18.711    9 Sep 2021 00:24:02.229          1123.518
                      25    9 Sep 2021 00:57:50.299    9 Sep 2021 01:16:33.816          1123.517
                      26    9 Sep 2021 01:50:21.885    9 Sep 2021 02:09:05.406          1123.521
                      27    9 Sep 2021 02:42:53.471    9 Sep 2021 03:01:36.997          1123.526
                      28    9 Sep 2021 03:35:25.060    9 Sep 2021 03:54:08.584          1123.524

Min Duration           1    8 Sep 2021 04:00:00.000    8 Sep 2021 04:15:55.695           955.695
Max Duration          27    9 Sep 2021 02:42:53.471    9 Sep 2021 03:01:36.997          1123.526
Mean Duration                                                                           1117.527
Total Duration                                                                         31290.764


Satellite609-To-Satellite207
----------------------------
                  Access       Start Time (UTCG)           Stop Time (UTCG)       Duration (sec)
                  ------    -----------------------    -----------------------    --------------
                       1    8 Sep 2021 04:00:00.000    8 Sep 2021 04:06:49.443           409.443
                       2    8 Sep 2021 04:48:19.699    8 Sep 2021 04:59:21.031           661.332
                       3    8 Sep 2021 05:40:51.291    8 Sep 2021 05:51:52.619           661.328
                       4    8 Sep 2021 06:33:22.880    8 Sep 2021 06:44:24.207           661.327
                       5    8 Sep 2021 07:25:54.468    8 Sep 2021 07:36:55.793           661.325
                       6    8 Sep 2021 08:18:26.056    8 Sep 2021 08:29:27.383           661.327
                       7    8 Sep 2021 09:10:57.644    8 Sep 2021 09:21:58.975           661.331
                       8    8 Sep 2021 10:03:29.231    8 Sep 2021 10:14:30.563           661.332
                       9    8 Sep 2021 10:56:00.818    8 Sep 2021 11:07:02.150           661.332
                      10    8 Sep 2021 11:48:32.406    8 Sep 2021 11:59:33.738           661.332
                      11    8 Sep 2021 12:41:03.997    8 Sep 2021 12:52:05.326           661.329
                      12    8 Sep 2021 13:33:35.587    8 Sep 2021 13:44:36.914           661.327
                      13    8 Sep 2021 14:26:07.175    8 Sep 2021 14:37:08.502           661.326
                      14    8 Sep 2021 15:18:38.764    8 Sep 2021 15:29:40.089           661.325
                      15    8 Sep 2021 16:11:10.351    8 Sep 2021 16:22:11.681           661.331
                      16    8 Sep 2021 17:03:41.938    8 Sep 2021 17:14:43.270           661.332
                      17    8 Sep 2021 17:56:13.525    8 Sep 2021 18:07:14.858           661.332
                      18    8 Sep 2021 18:48:45.113    8 Sep 2021 18:59:46.445           661.332
                      19    8 Sep 2021 19:41:16.706    8 Sep 2021 19:52:18.033           661.327
                      20    8 Sep 2021 20:33:48.295    8 Sep 2021 20:44:49.621           661.327
                      21    8 Sep 2021 21:26:19.883    8 Sep 2021 21:37:21.209           661.327
                      22    8 Sep 2021 22:18:51.471    8 Sep 2021 22:29:52.796           661.325
                      23    8 Sep 2021 23:11:23.058    8 Sep 2021 23:22:24.385           661.327
                      24    9 Sep 2021 00:03:54.646    9 Sep 2021 00:14:55.977           661.331
                      25    9 Sep 2021 00:56:26.233    9 Sep 2021 01:07:27.565           661.332
                      26    9 Sep 2021 01:48:57.820    9 Sep 2021 01:59:59.153           661.332
                      27    9 Sep 2021 02:41:29.412    9 Sep 2021 02:52:30.741           661.328
                      28    9 Sep 2021 03:34:01.002    9 Sep 2021 03:45:02.329           661.327

Min Duration           1    8 Sep 2021 04:00:00.000    8 Sep 2021 04:06:49.443           409.443
Max Duration           9    8 Sep 2021 10:56:00.818    8 Sep 2021 11:07:02.150           661.332
Mean Duration                                                                            652.333
Total Duration                                                                         18265.327


Satellite609-To-Satellite301
----------------------------
                  Access       Start Time (UTCG)           Stop Time (UTCG)       Duration (sec)
                  ------    -----------------------    -----------------------    --------------
                       1    8 Sep 2021 04:22:28.322    8 Sep 2021 04:41:52.349          1164.027
                       2    8 Sep 2021 05:14:59.912    8 Sep 2021 05:34:23.937          1164.024
                       3    8 Sep 2021 06:07:31.499    8 Sep 2021 06:26:55.525          1164.026
                       4    8 Sep 2021 07:00:03.088    8 Sep 2021 07:19:27.113          1164.025
                       5    8 Sep 2021 07:52:34.676    8 Sep 2021 08:11:58.702          1164.026
                       6    8 Sep 2021 08:45:06.266    8 Sep 2021 09:04:30.289          1164.023
                       7    8 Sep 2021 09:37:37.853    8 Sep 2021 09:57:01.882          1164.029
                       8    8 Sep 2021 10:30:09.442    8 Sep 2021 10:49:33.468          1164.026
                       9    8 Sep 2021 11:22:41.031    8 Sep 2021 11:42:05.056          1164.024
                      10    8 Sep 2021 12:15:12.617    8 Sep 2021 12:34:36.643          1164.026
                      11    8 Sep 2021 13:07:44.207    8 Sep 2021 13:27:08.231          1164.025
                      12    8 Sep 2021 14:00:15.795    8 Sep 2021 14:19:39.822          1164.027
                      13    8 Sep 2021 14:52:47.385    8 Sep 2021 15:12:11.409          1164.024
                      14    8 Sep 2021 15:45:18.972    8 Sep 2021 16:04:42.997          1164.026
                      15    8 Sep 2021 16:37:50.560    8 Sep 2021 16:57:14.585          1164.025
                      16    8 Sep 2021 17:30:22.148    8 Sep 2021 17:49:46.174          1164.026
                      17    8 Sep 2021 18:22:53.738    8 Sep 2021 18:42:17.761          1164.023
                      18    8 Sep 2021 19:15:25.326    8 Sep 2021 19:34:49.350          1164.024
                      19    8 Sep 2021 20:07:56.914    8 Sep 2021 20:27:20.940          1164.026
                      20    8 Sep 2021 21:00:28.504    8 Sep 2021 21:19:52.528          1164.024
                      21    8 Sep 2021 21:53:00.089    8 Sep 2021 22:12:24.116          1164.026
                      22    8 Sep 2021 22:45:31.679    8 Sep 2021 23:04:55.704          1164.025
                      23    8 Sep 2021 23:38:03.267    8 Sep 2021 23:57:27.294          1164.027
                      24    9 Sep 2021 00:30:34.857    9 Sep 2021 00:49:58.881          1164.024
                      25    9 Sep 2021 01:23:06.444    9 Sep 2021 01:42:30.470          1164.026
                      26    9 Sep 2021 02:15:38.032    9 Sep 2021 02:35:02.058          1164.025
                      27    9 Sep 2021 03:08:09.620    9 Sep 2021 03:27:33.646          1164.026

Min Duration           6    8 Sep 2021 08:45:06.266    8 Sep 2021 09:04:30.289          1164.023
Max Duration           7    8 Sep 2021 09:37:37.853    8 Sep 2021 09:57:01.882          1164.029
Mean Duration                                                                           1164.025
Total Duration                                                                         31428.684


Satellite609-To-Satellite302
----------------------------
                  Access       Start Time (UTCG)           Stop Time (UTCG)       Duration (sec)
                  ------    -----------------------    -----------------------    --------------
                       1    8 Sep 2021 04:14:29.568    8 Sep 2021 04:39:20.789          1491.221
                       2    8 Sep 2021 05:07:01.153    8 Sep 2021 05:31:52.374          1491.221
                       3    8 Sep 2021 05:59:32.745    8 Sep 2021 06:24:23.966          1491.221
                       4    8 Sep 2021 06:52:04.329    8 Sep 2021 07:16:55.550          1491.221
                       5    8 Sep 2021 07:44:35.922    8 Sep 2021 08:09:27.143          1491.221
                       6    8 Sep 2021 08:37:07.506    8 Sep 2021 09:01:58.727          1491.221
                       7    8 Sep 2021 09:29:39.098    8 Sep 2021 09:54:30.319          1491.221
                       8    8 Sep 2021 10:22:10.683    8 Sep 2021 10:47:01.904          1491.221
                       9    8 Sep 2021 11:14:42.275    8 Sep 2021 11:39:33.496          1491.221
                      10    8 Sep 2021 12:07:13.860    8 Sep 2021 12:32:05.081          1491.221
                      11    8 Sep 2021 12:59:45.452    8 Sep 2021 13:24:36.673          1491.221
                      12    8 Sep 2021 13:52:17.037    8 Sep 2021 14:17:08.257          1491.221
                      13    8 Sep 2021 14:44:48.629    8 Sep 2021 15:09:39.850          1491.221
                      14    8 Sep 2021 15:37:20.213    8 Sep 2021 16:02:11.434          1491.221
                      15    8 Sep 2021 16:29:51.806    8 Sep 2021 16:54:43.027          1491.221
                      16    8 Sep 2021 17:22:23.390    8 Sep 2021 17:47:14.611          1491.221
                      17    8 Sep 2021 18:14:54.982    8 Sep 2021 18:39:46.203          1491.221
                      18    8 Sep 2021 19:07:26.567    8 Sep 2021 19:32:17.788          1491.221
                      19    8 Sep 2021 19:59:58.159    8 Sep 2021 20:24:49.380          1491.221
                      20    8 Sep 2021 20:52:29.744    8 Sep 2021 21:17:20.965          1491.221
                      21    8 Sep 2021 21:45:01.336    8 Sep 2021 22:09:52.557          1491.221
                      22    8 Sep 2021 22:37:32.921    8 Sep 2021 23:02:24.141          1491.221
                      23    8 Sep 2021 23:30:04.513    8 Sep 2021 23:54:55.734          1491.221
                      24    9 Sep 2021 00:22:36.097    9 Sep 2021 00:47:27.318          1491.221
                      25    9 Sep 2021 01:15:07.690    9 Sep 2021 01:39:58.911          1491.221
                      26    9 Sep 2021 02:07:39.274    9 Sep 2021 02:32:30.495          1491.221
                      27    9 Sep 2021 03:00:10.866    9 Sep 2021 03:25:02.087          1491.221
                      28    9 Sep 2021 03:52:42.451    9 Sep 2021 04:00:00.000           437.549

Min Duration          28    9 Sep 2021 03:52:42.451    9 Sep 2021 04:00:00.000           437.549
Max Duration           1    8 Sep 2021 04:14:29.568    8 Sep 2021 04:39:20.789          1491.221
Mean Duration                                                                           1453.590
Total Duration                                                                         40700.514


Satellite609-To-Satellite303
----------------------------
                  Access       Start Time (UTCG)           Stop Time (UTCG)       Duration (sec)
                  ------    -----------------------    -----------------------    --------------
                       1    8 Sep 2021 04:09:17.380    8 Sep 2021 04:34:02.656          1485.276
                       2    8 Sep 2021 05:01:48.971    8 Sep 2021 05:26:34.240          1485.270
                       3    8 Sep 2021 05:54:20.559    8 Sep 2021 06:19:05.833          1485.274
                       4    8 Sep 2021 06:46:52.147    8 Sep 2021 07:11:37.417          1485.271
                       5    8 Sep 2021 07:39:23.735    8 Sep 2021 08:04:09.009          1485.274
                       6    8 Sep 2021 08:31:55.326    8 Sep 2021 08:56:40.594          1485.268
                       7    8 Sep 2021 09:24:26.912    8 Sep 2021 09:49:12.186          1485.274
                       8    8 Sep 2021 10:16:58.503    8 Sep 2021 10:41:43.771          1485.268
                       9    8 Sep 2021 11:09:30.089    8 Sep 2021 11:34:15.363          1485.274
                      10    8 Sep 2021 12:02:01.679    8 Sep 2021 12:26:46.948          1485.268
                      11    8 Sep 2021 12:54:33.266    8 Sep 2021 13:19:18.540          1485.274
                      12    8 Sep 2021 13:47:04.856    8 Sep 2021 14:11:50.124          1485.268
                      13    8 Sep 2021 14:39:36.443    8 Sep 2021 15:04:21.716          1485.274
                      14    8 Sep 2021 15:32:08.033    8 Sep 2021 15:56:53.301          1485.268
                      15    8 Sep 2021 16:24:39.619    8 Sep 2021 16:49:24.893          1485.274
                      16    8 Sep 2021 17:17:11.210    8 Sep 2021 17:41:56.478          1485.268
                      17    8 Sep 2021 18:09:42.796    8 Sep 2021 18:34:28.070          1485.274
                      18    8 Sep 2021 19:02:14.387    8 Sep 2021 19:26:59.655          1485.268
                      19    8 Sep 2021 19:54:45.973    8 Sep 2021 20:19:31.247          1485.274
                      20    8 Sep 2021 20:47:17.563    8 Sep 2021 21:12:02.832          1485.268
                      21    8 Sep 2021 21:39:49.150    8 Sep 2021 22:04:34.424          1485.274
                      22    8 Sep 2021 22:32:20.740    8 Sep 2021 22:57:06.008          1485.268
                      23    8 Sep 2021 23:24:52.327    8 Sep 2021 23:49:37.600          1485.274
                      24    9 Sep 2021 00:17:23.917    9 Sep 2021 00:42:09.185          1485.268
                      25    9 Sep 2021 01:09:55.503    9 Sep 2021 01:34:40.777          1485.274
                      26    9 Sep 2021 02:02:27.094    9 Sep 2021 02:27:12.362          1485.268
                      27    9 Sep 2021 02:54:58.680    9 Sep 2021 03:19:43.954          1485.274
                      28    9 Sep 2021 03:47:30.270    9 Sep 2021 04:00:00.000           749.730

Min Duration          28    9 Sep 2021 03:47:30.270    9 Sep 2021 04:00:00.000           749.730
Max Duration           1    8 Sep 2021 04:09:17.380    8 Sep 2021 04:34:02.656          1485.276
Mean Duration                                                                           1459.002
Total Duration                                                                         40852.058


Satellite609-To-Satellite304
----------------------------
                  Access       Start Time (UTCG)           Stop Time (UTCG)       Duration (sec)
                  ------    -----------------------    -----------------------    --------------
                       1    8 Sep 2021 04:06:52.377    8 Sep 2021 04:25:57.343          1144.966
                       2    8 Sep 2021 04:59:23.961    8 Sep 2021 05:18:28.931          1144.970
                       3    8 Sep 2021 05:51:55.550    8 Sep 2021 06:11:00.520          1144.969
                       4    8 Sep 2021 06:44:27.139    8 Sep 2021 07:03:32.108          1144.969
                       5    8 Sep 2021 07:36:58.728    8 Sep 2021 07:56:03.696          1144.969
                       6    8 Sep 2021 08:29:30.316    8 Sep 2021 08:48:35.285          1144.969
                       7    8 Sep 2021 09:22:01.905    8 Sep 2021 09:41:06.873          1144.968
                       8    8 Sep 2021 10:14:33.493    8 Sep 2021 10:33:38.462          1144.968
                       9    8 Sep 2021 11:07:05.082    8 Sep 2021 11:26:10.050          1144.968
                      10    8 Sep 2021 11:59:36.670    8 Sep 2021 12:18:41.638          1144.968
                      11    8 Sep 2021 12:52:08.259    8 Sep 2021 13:11:13.227          1144.968
                      12    8 Sep 2021 13:44:39.847    8 Sep 2021 14:03:44.815          1144.968
                      13    8 Sep 2021 14:37:11.435    8 Sep 2021 14:56:16.404          1144.968
                      14    8 Sep 2021 15:29:43.024    8 Sep 2021 15:48:47.992          1144.968
                      15    8 Sep 2021 16:22:14.612    8 Sep 2021 16:41:19.580          1144.968
                      16    8 Sep 2021 17:14:46.201    8 Sep 2021 17:33:51.169          1144.968
                      17    8 Sep 2021 18:07:17.789    8 Sep 2021 18:26:22.757          1144.968
                      18    8 Sep 2021 18:59:49.377    8 Sep 2021 19:18:54.346          1144.968
                      19    8 Sep 2021 19:52:20.966    8 Sep 2021 20:11:25.934          1144.968
                      20    8 Sep 2021 20:44:52.554    8 Sep 2021 21:03:57.522          1144.968
                      21    8 Sep 2021 21:37:24.143    8 Sep 2021 21:56:29.111          1144.968
                      22    8 Sep 2021 22:29:55.731    8 Sep 2021 22:49:00.699          1144.968
                      23    8 Sep 2021 23:22:27.319    8 Sep 2021 23:41:32.288          1144.968
                      24    9 Sep 2021 00:14:58.908    9 Sep 2021 00:34:03.876          1144.968
                      25    9 Sep 2021 01:07:30.496    9 Sep 2021 01:26:35.464          1144.968
                      26    9 Sep 2021 02:00:02.084    9 Sep 2021 02:19:07.053          1144.968
                      27    9 Sep 2021 02:52:33.673    9 Sep 2021 03:11:38.641          1144.968
                      28    9 Sep 2021 03:45:05.261    9 Sep 2021 04:00:00.000           894.739

Min Duration          28    9 Sep 2021 03:45:05.261    9 Sep 2021 04:00:00.000           894.739
Max Duration           2    8 Sep 2021 04:59:23.961    8 Sep 2021 05:18:28.931          1144.970
Mean Duration                                                                           1136.032
Total Duration                                                                         31808.884


Satellite609-To-Satellite305
----------------------------
                  Access       Start Time (UTCG)           Stop Time (UTCG)       Duration (sec)
                  ------    -----------------------    -----------------------    --------------
                       1    8 Sep 2021 04:08:12.443    8 Sep 2021 04:14:06.953           354.510
                       2    8 Sep 2021 05:00:44.035    8 Sep 2021 05:06:38.545           354.510
                       3    8 Sep 2021 05:53:15.624    8 Sep 2021 05:59:10.134           354.510
                       4    8 Sep 2021 06:45:47.210    8 Sep 2021 06:51:41.722           354.512
                       5    8 Sep 2021 07:38:18.797    8 Sep 2021 07:44:13.308           354.511
                       6    8 Sep 2021 08:30:50.388    8 Sep 2021 08:36:44.899           354.511
                       7    8 Sep 2021 09:23:21.973    8 Sep 2021 09:29:16.488           354.515
                       8    8 Sep 2021 10:15:53.562    8 Sep 2021 10:21:48.071           354.510
                       9    8 Sep 2021 11:08:25.153    8 Sep 2021 11:14:19.663           354.511
                      10    8 Sep 2021 12:00:56.742    8 Sep 2021 12:06:51.253           354.511
                      11    8 Sep 2021 12:53:28.328    8 Sep 2021 12:59:22.841           354.514
                      12    8 Sep 2021 13:45:59.916    8 Sep 2021 13:51:54.427           354.511
                      13    8 Sep 2021 14:38:31.507    8 Sep 2021 14:44:26.018           354.511
                      14    8 Sep 2021 15:31:03.092    8 Sep 2021 15:36:57.607           354.515
                      15    8 Sep 2021 16:23:34.680    8 Sep 2021 16:29:29.190           354.510
                      16    8 Sep 2021 17:16:06.272    8 Sep 2021 17:22:00.782           354.511
                      17    8 Sep 2021 18:08:37.861    8 Sep 2021 18:14:32.372           354.511
                      18    8 Sep 2021 19:01:09.448    8 Sep 2021 19:07:03.960           354.512
                      19    8 Sep 2021 19:53:41.034    8 Sep 2021 19:59:35.545           354.511
                      20    8 Sep 2021 20:46:12.626    8 Sep 2021 20:52:07.136           354.511
                      21    8 Sep 2021 21:38:44.211    8 Sep 2021 21:44:38.725           354.515
                      22    8 Sep 2021 22:31:15.799    8 Sep 2021 22:37:10.311           354.512
                      23    8 Sep 2021 23:23:47.390    8 Sep 2021 23:29:41.901           354.511
                      24    9 Sep 2021 00:16:18.980    9 Sep 2021 00:22:13.491           354.511
                      25    9 Sep 2021 01:08:50.566    9 Sep 2021 01:14:45.079           354.513
                      26    9 Sep 2021 02:01:22.153    9 Sep 2021 02:07:16.664           354.511
                      27    9 Sep 2021 02:53:53.744    9 Sep 2021 02:59:48.255           354.511
                      28    9 Sep 2021 03:46:25.329    9 Sep 2021 03:52:19.844           354.515

Min Duration          15    8 Sep 2021 16:23:34.680    8 Sep 2021 16:29:29.190           354.510
Max Duration           7    8 Sep 2021 09:23:21.973    8 Sep 2021 09:29:16.488           354.515
Mean Duration                                                                            354.512
Total Duration                                                                          9926.324


Satellite609-To-Satellite310
----------------------------
                  Access       Start Time (UTCG)           Stop Time (UTCG)       Duration (sec)
                  ------    -----------------------    -----------------------    --------------
                       1    8 Sep 2021 04:33:54.726    8 Sep 2021 04:40:56.263           421.537
                       2    8 Sep 2021 05:26:26.319    8 Sep 2021 05:33:27.851           421.532
                       3    8 Sep 2021 06:18:57.903    8 Sep 2021 06:25:59.437           421.534
                       4    8 Sep 2021 07:11:29.495    8 Sep 2021 07:18:31.027           421.533
                       5    8 Sep 2021 08:04:01.079    8 Sep 2021 08:11:02.616           421.537
                       6    8 Sep 2021 08:56:32.671    8 Sep 2021 09:03:34.204           421.533
                       7    8 Sep 2021 09:49:04.256    8 Sep 2021 09:56:05.793           421.537
                       8    8 Sep 2021 10:41:35.847    8 Sep 2021 10:48:37.381           421.534
                       9    8 Sep 2021 11:34:07.433    8 Sep 2021 11:41:08.970           421.537
                      10    8 Sep 2021 12:26:39.023    8 Sep 2021 12:33:40.558           421.536
                      11    8 Sep 2021 13:19:10.611    8 Sep 2021 13:26:12.147           421.536
                      12    8 Sep 2021 14:11:42.199    8 Sep 2021 14:18:43.735           421.536
                      13    8 Sep 2021 15:04:13.790    8 Sep 2021 15:11:15.323           421.534
                      14    8 Sep 2021 15:56:45.375    8 Sep 2021 16:03:46.912           421.537
                      15    8 Sep 2021 16:49:16.966    8 Sep 2021 16:56:18.500           421.534
                      16    8 Sep 2021 17:41:48.552    8 Sep 2021 17:48:50.089           421.537
                      17    8 Sep 2021 18:34:20.145    8 Sep 2021 18:41:21.677           421.532
                      18    8 Sep 2021 19:26:51.728    8 Sep 2021 19:33:53.263           421.534
                      19    8 Sep 2021 20:19:23.321    8 Sep 2021 20:26:24.853           421.533
                      20    8 Sep 2021 21:11:54.905    8 Sep 2021 21:18:56.442           421.537
                      21    8 Sep 2021 22:04:26.497    8 Sep 2021 22:11:28.030           421.533
                      22    8 Sep 2021 22:56:58.082    8 Sep 2021 23:03:59.619           421.537
                      23    8 Sep 2021 23:49:29.673    8 Sep 2021 23:56:31.207           421.534
                      24    9 Sep 2021 00:42:01.259    9 Sep 2021 00:49:02.796           421.537
                      25    9 Sep 2021 01:34:32.849    9 Sep 2021 01:41:34.384           421.536
                      26    9 Sep 2021 02:27:04.436    9 Sep 2021 02:34:05.973           421.536
                      27    9 Sep 2021 03:19:36.025    9 Sep 2021 03:26:37.561           421.536

Min Duration          17    8 Sep 2021 18:34:20.145    8 Sep 2021 18:41:21.677           421.532
Max Duration           1    8 Sep 2021 04:33:54.726    8 Sep 2021 04:40:56.263           421.537
Mean Duration                                                                            421.535
