routing/visibility/v704.txt

Satellite704-To-Satellite101
----------------------------
                  Access       Start Time (UTCG)           Stop Time (UTCG)       Duration (sec)
                  ------    -----------------------    -----------------------    --------------
                       1    8 Sep 2021 04:02:41.217    8 Sep 2021 04:10:26.656           465.438
                       2    8 Sep 2021 04:55:12.804    8 Sep 2021 05:02:58.245           465.441
                       3    8 Sep 2021 05:47:44.392    8 Sep 2021 05:55:29.834           465.441
                       4    8 Sep 2021 06:40:15.984    8 Sep 2021 06:48:01.417           465.433
                       5    8 Sep 2021 07:32:47.569    8 Sep 2021 07:40:33.008           465.439
                       6    8 Sep 2021 08:25:19.158    8 Sep 2021 08:33:04.599           465.441
                       7    8 Sep 2021 09:17:50.749    8 Sep 2021 09:25:36.187           465.438
                       8    8 Sep 2021 10:10:22.339    8 Sep 2021 10:18:07.775           465.437
                       9    8 Sep 2021 11:02:53.924    8 Sep 2021 11:10:39.363           465.438
                      10    8 Sep 2021 11:55:25.511    8 Sep 2021 12:03:10.952           465.441
                      11    8 Sep 2021 12:47:57.099    8 Sep 2021 12:55:42.541           465.441
                      12    8 Sep 2021 13:40:28.688    8 Sep 2021 13:48:14.124           465.436
                      13    8 Sep 2021 14:33:00.276    8 Sep 2021 14:40:45.715           465.438
                      14    8 Sep 2021 15:25:31.865    8 Sep 2021 15:33:17.306           465.441
                      15    8 Sep 2021 16:18:03.456    8 Sep 2021 16:25:48.894           465.438
                      16    8 Sep 2021 17:10:35.046    8 Sep 2021 17:18:20.482           465.437
                      17    8 Sep 2021 18:03:06.631    8 Sep 2021 18:10:52.070           465.438
                      18    8 Sep 2021 18:55:38.218    8 Sep 2021 19:03:23.659           465.441
                      19    8 Sep 2021 19:48:09.807    8 Sep 2021 19:55:55.248           465.441
                      20    8 Sep 2021 20:40:41.398    8 Sep 2021 20:48:26.836           465.438
                      21    8 Sep 2021 21:33:12.983    8 Sep 2021 21:40:58.421           465.438
                      22    8 Sep 2021 22:25:44.572    8 Sep 2021 22:33:30.013           465.441
                      23    8 Sep 2021 23:18:16.163    8 Sep 2021 23:26:01.601           465.438
                      24    9 Sep 2021 00:10:47.753    9 Sep 2021 00:18:33.189           465.437
                      25    9 Sep 2021 01:03:19.338    9 Sep 2021 01:11:04.777           465.439
                      26    9 Sep 2021 01:55:50.926    9 Sep 2021 02:03:36.367           465.441
                      27    9 Sep 2021 02:48:22.514    9 Sep 2021 02:56:07.955           465.441
                      28    9 Sep 2021 03:40:54.107    9 Sep 2021 03:48:39.539           465.432

Min Duration          28    9 Sep 2021 03:40:54.107    9 Sep 2021 03:48:39.539           465.432
Max Duration           3    8 Sep 2021 05:47:44.392    8 Sep 2021 05:55:29.834           465.441
Mean Duration                                                                            465.439
Total Duration                                                                         13032.284


Satellite704-To-Satellite102
----------------------------
                  Access       Start Time (UTCG)           Stop Time (UTCG)       Duration (sec)
                  ------    -----------------------    -----------------------    --------------
                       1    8 Sep 2021 04:00:00.000    8 Sep 2021 04:16:14.586           974.586
                       2    8 Sep 2021 04:38:54.556    8 Sep 2021 05:08:46.177          1791.622
                       3    8 Sep 2021 05:31:26.144    8 Sep 2021 06:01:17.765          1791.621
                       4    8 Sep 2021 06:23:57.732    8 Sep 2021 06:53:49.354          1791.621
                       5    8 Sep 2021 07:16:29.320    8 Sep 2021 07:46:20.942          1791.621
                       6    8 Sep 2021 08:09:00.908    8 Sep 2021 08:38:52.530          1791.621
                       7    8 Sep 2021 09:01:32.497    8 Sep 2021 09:31:24.118          1791.621
                       8    8 Sep 2021 09:54:04.085    8 Sep 2021 10:23:55.706          1791.621
                       9    8 Sep 2021 10:46:35.673    8 Sep 2021 11:16:27.294          1791.621
                      10    8 Sep 2021 11:39:07.261    8 Sep 2021 12:08:58.883          1791.621
                      11    8 Sep 2021 12:31:38.849    8 Sep 2021 13:01:30.471          1791.621
                      12    8 Sep 2021 13:24:10.438    8 Sep 2021 13:54:02.059          1791.621
                      13    8 Sep 2021 14:16:42.026    8 Sep 2021 14:46:33.646          1791.620
                      14    8 Sep 2021 15:09:13.618    8 Sep 2021 15:39:05.234          1791.617
                      15    8 Sep 2021 16:01:45.206    8 Sep 2021 16:31:36.823          1791.617
                      16    8 Sep 2021 16:54:16.794    8 Sep 2021 17:24:08.416          1791.621
                      17    8 Sep 2021 17:46:48.383    8 Sep 2021 18:16:40.004          1791.621
                      18    8 Sep 2021 18:39:19.971    8 Sep 2021 19:09:11.592          1791.621
                      19    8 Sep 2021 19:31:51.559    8 Sep 2021 20:01:43.180          1791.621
                      20    8 Sep 2021 20:24:23.147    8 Sep 2021 20:54:14.768          1791.621
                      21    8 Sep 2021 21:16:54.735    8 Sep 2021 21:46:46.356          1791.621
                      22    8 Sep 2021 22:09:26.323    8 Sep 2021 22:39:17.944          1791.621
                      23    8 Sep 2021 23:01:57.911    8 Sep 2021 23:31:49.533          1791.621
                      24    8 Sep 2021 23:54:29.499    9 Sep 2021 00:24:21.121          1791.621
                      25    9 Sep 2021 00:47:01.088    9 Sep 2021 01:16:52.709          1791.621
                      26    9 Sep 2021 01:39:32.676    9 Sep 2021 02:09:24.297          1791.621
                      27    9 Sep 2021 02:32:04.264    9 Sep 2021 03:01:55.885          1791.621
                      28    9 Sep 2021 03:24:35.852    9 Sep 2021 03:54:27.474          1791.621

Min Duration           1    8 Sep 2021 04:00:00.000    8 Sep 2021 04:16:14.586           974.586
Max Duration           2    8 Sep 2021 04:38:54.556    8 Sep 2021 05:08:46.177          1791.622
Mean Duration                                                                           1762.441
Total Duration                                                                         49348.351


Satellite704-To-Satellite103
----------------------------
                  Access       Start Time (UTCG)           Stop Time (UTCG)       Duration (sec)
                  ------    -----------------------    -----------------------    --------------
                       1    8 Sep 2021 04:00:00.000    8 Sep 2021 04:14:54.269           894.269
                       2    8 Sep 2021 04:29:44.552    8 Sep 2021 05:07:25.859          2261.307
                       3    8 Sep 2021 05:22:16.145    8 Sep 2021 05:59:57.447          2261.302
                       4    8 Sep 2021 06:14:47.733    8 Sep 2021 06:52:29.035          2261.302
                       5    8 Sep 2021 07:07:19.322    8 Sep 2021 07:45:00.624          2261.302
                       6    8 Sep 2021 07:59:50.910    8 Sep 2021 08:37:32.212          2261.302
                       7    8 Sep 2021 08:52:22.499    8 Sep 2021 09:30:03.800          2261.302
                       8    8 Sep 2021 09:44:54.087    8 Sep 2021 10:22:35.389          2261.302
                       9    8 Sep 2021 10:37:25.675    8 Sep 2021 11:15:06.977          2261.302
                      10    8 Sep 2021 11:29:57.264    8 Sep 2021 12:07:38.566          2261.302
                      11    8 Sep 2021 12:22:28.852    8 Sep 2021 13:00:10.154          2261.302
                      12    8 Sep 2021 13:15:00.441    8 Sep 2021 13:52:41.742          2261.302
                      13    8 Sep 2021 14:07:32.029    8 Sep 2021 14:45:13.331          2261.302
                      14    8 Sep 2021 15:00:03.617    8 Sep 2021 15:37:44.919          2261.302
                      15    8 Sep 2021 15:52:35.206    8 Sep 2021 16:30:16.507          2261.302
                      16    8 Sep 2021 16:45:06.794    8 Sep 2021 17:22:48.096          2261.302
                      17    8 Sep 2021 17:37:38.383    8 Sep 2021 18:15:19.684          2261.302
                      18    8 Sep 2021 18:30:09.971    8 Sep 2021 19:07:51.273          2261.302
                      19    8 Sep 2021 19:22:41.559    8 Sep 2021 20:00:22.861          2261.302
                      20    8 Sep 2021 20:15:13.148    8 Sep 2021 20:52:54.449          2261.302
                      21    8 Sep 2021 21:07:44.736    8 Sep 2021 21:45:26.038          2261.302
                      22    8 Sep 2021 22:00:16.325    8 Sep 2021 22:37:57.626          2261.302
                      23    8 Sep 2021 22:52:47.913    8 Sep 2021 23:30:29.215          2261.302
                      24    8 Sep 2021 23:45:19.501    9 Sep 2021 00:23:00.803          2261.302
                      25    9 Sep 2021 00:37:51.090    9 Sep 2021 01:15:32.391          2261.302
                      26    9 Sep 2021 01:30:22.678    9 Sep 2021 02:08:03.980          2261.302
                      27    9 Sep 2021 02:22:54.267    9 Sep 2021 03:00:35.568          2261.302
                      28    9 Sep 2021 03:15:25.855    9 Sep 2021 03:53:07.157          2261.302

Min Duration           1    8 Sep 2021 04:00:00.000    8 Sep 2021 04:14:54.269           894.269
Max Duration           2    8 Sep 2021 04:29:44.552    8 Sep 2021 05:07:25.859          2261.307
Mean Duration                                                                           2212.479
Total Duration                                                                         61949.419


Satellite704-To-Satellite104
----------------------------
                  Access       Start Time (UTCG)           Stop Time (UTCG)       Duration (sec)
                  ------    -----------------------    -----------------------    --------------
                       1    8 Sep 2021 04:00:00.000    8 Sep 2021 04:05:41.632           341.632
                       2    8 Sep 2021 04:28:26.875    8 Sep 2021 04:58:13.219          1786.344
                       3    8 Sep 2021 05:20:58.467    8 Sep 2021 05:50:44.806          1786.339
                       4    8 Sep 2021 06:13:30.052    8 Sep 2021 06:43:16.398          1786.347
                       5    8 Sep 2021 07:06:01.643    8 Sep 2021 07:35:47.987          1786.344
                       6    8 Sep 2021 07:58:33.228    8 Sep 2021 08:28:19.575          1786.347
                       7    8 Sep 2021 08:51:04.820    8 Sep 2021 09:20:51.164          1786.344
                       8    8 Sep 2021 09:43:36.405    8 Sep 2021 10:13:22.752          1786.347
                       9    8 Sep 2021 10:36:07.997    8 Sep 2021 11:05:54.340          1786.344
                      10    8 Sep 2021 11:28:39.582    8 Sep 2021 11:58:25.928          1786.347
                      11    8 Sep 2021 12:21:11.173    8 Sep 2021 12:50:57.517          1786.344
                      12    8 Sep 2021 13:13:42.758    8 Sep 2021 13:43:29.105          1786.347
                      13    8 Sep 2021 14:06:14.350    8 Sep 2021 14:36:00.694          1786.344
                      14    8 Sep 2021 14:58:45.935    8 Sep 2021 15:28:32.282          1786.347
                      15    8 Sep 2021 15:51:17.527    8 Sep 2021 16:21:03.871          1786.344
                      16    8 Sep 2021 16:43:49.112    8 Sep 2021 17:13:35.459          1786.347
                      17    8 Sep 2021 17:36:20.704    8 Sep 2021 18:06:07.048          1786.344
                      18    8 Sep 2021 18:28:52.289    8 Sep 2021 18:58:38.635          1786.347
                      19    8 Sep 2021 19:21:23.880    8 Sep 2021 19:51:10.224          1786.344
                      20    8 Sep 2021 20:13:55.466    8 Sep 2021 20:43:41.812          1786.347
                      21    8 Sep 2021 21:06:27.057    8 Sep 2021 21:36:13.401          1786.344
                      22    8 Sep 2021 21:58:58.642    8 Sep 2021 22:28:44.989          1786.347
                      23    8 Sep 2021 22:51:30.234    8 Sep 2021 23:21:16.578          1786.344
                      24    8 Sep 2021 23:44:01.819    9 Sep 2021 00:13:48.166          1786.347
                      25    9 Sep 2021 00:36:33.411    9 Sep 2021 01:06:19.755          1786.344
                      26    9 Sep 2021 01:29:04.996    9 Sep 2021 01:58:51.343          1786.347
                      27    9 Sep 2021 02:21:36.588    9 Sep 2021 02:51:22.932          1786.344
                      28    9 Sep 2021 03:14:08.173    9 Sep 2021 03:43:54.519          1786.347

Min Duration           1    8 Sep 2021 04:00:00.000    8 Sep 2021 04:05:41.632           341.632
Max Duration           6    8 Sep 2021 07:58:33.228    8 Sep 2021 08:28:19.575          1786.347
Mean Duration                                                                           1734.748
Total Duration                                                                         48572.949


Satellite704-To-Satellite105
----------------------------
                  Access       Start Time (UTCG)           Stop Time (UTCG)       Duration (sec)
                  ------    -----------------------    -----------------------    --------------
                       1    8 Sep 2021 04:34:07.569    8 Sep 2021 04:42:02.209           474.639
                       2    8 Sep 2021 05:26:39.159    8 Sep 2021 05:34:33.796           474.637
                       3    8 Sep 2021 06:19:10.750    8 Sep 2021 06:27:05.385           474.635
                       4    8 Sep 2021 07:11:42.339    8 Sep 2021 07:19:36.974           474.635
                       5    8 Sep 2021 08:04:13.923    8 Sep 2021 08:12:08.563           474.639
                       6    8 Sep 2021 08:56:45.514    8 Sep 2021 09:04:40.148           474.634
                       7    8 Sep 2021 09:49:17.100    8 Sep 2021 09:57:11.737           474.637
                       8    8 Sep 2021 10:41:48.688    8 Sep 2021 10:49:43.328           474.640
                       9    8 Sep 2021 11:34:20.277    8 Sep 2021 11:42:14.916           474.639
                      10    8 Sep 2021 12:26:51.866    8 Sep 2021 12:34:46.503           474.637
                      11    8 Sep 2021 13:19:23.458    8 Sep 2021 13:27:18.092           474.634
                      12    8 Sep 2021 14:11:55.047    8 Sep 2021 14:19:49.681           474.635
                      13    8 Sep 2021 15:04:26.630    8 Sep 2021 15:12:21.267           474.637
                      14    8 Sep 2021 15:56:58.223    8 Sep 2021 16:04:52.853           474.631
                      15    8 Sep 2021 16:49:29.808    8 Sep 2021 16:57:24.446           474.639
                      16    8 Sep 2021 17:42:01.395    8 Sep 2021 17:49:56.035           474.640
                      17    8 Sep 2021 18:34:32.984    8 Sep 2021 18:42:27.623           474.639
                      18    8 Sep 2021 19:27:04.574    8 Sep 2021 19:34:59.210           474.636
                      19    8 Sep 2021 20:19:36.163    8 Sep 2021 20:27:30.800           474.636
                      20    8 Sep 2021 21:12:07.750    8 Sep 2021 21:20:02.388           474.638
                      21    8 Sep 2021 22:04:39.337    8 Sep 2021 22:12:33.976           474.639
                      22    8 Sep 2021 22:57:10.930    8 Sep 2021 23:05:05.561           474.630
                      23    8 Sep 2021 23:49:42.517    8 Sep 2021 23:57:37.154           474.637
                      24    9 Sep 2021 00:42:14.102    9 Sep 2021 00:50:08.742           474.639
                      25    9 Sep 2021 01:34:45.691    9 Sep 2021 01:42:40.330           474.639
                      26    9 Sep 2021 02:27:17.282    9 Sep 2021 02:35:11.918           474.636
                      27    9 Sep 2021 03:19:48.871    9 Sep 2021 03:27:43.507           474.636

Min Duration          22    8 Sep 2021 22:57:10.930    8 Sep 2021 23:05:05.561           474.630
Max Duration           8    8 Sep 2021 10:41:48.688    8 Sep 2021 10:49:43.328           474.640
Mean Duration                                                                            474.637
Total Duration                                                                         12815.194


Satellite704-To-Satellite201
----------------------------
                  Access       Start Time (UTCG)           Stop Time (UTCG)       Duration (sec)
                  ------    -----------------------    -----------------------    --------------
                       1    8 Sep 2021 04:00:00.000    8 Sep 2021 04:18:17.169          1097.169
                       2    8 Sep 2021 04:46:03.501    8 Sep 2021 05:10:48.761          1485.260
                       3    8 Sep 2021 05:38:35.090    8 Sep 2021 06:03:20.345          1485.256
                       4    8 Sep 2021 06:31:06.678    8 Sep 2021 06:55:51.937          1485.260
                       5    8 Sep 2021 07:23:38.267    8 Sep 2021 07:48:23.522          1485.255
                       6    8 Sep 2021 08:16:09.854    8 Sep 2021 08:40:55.114          1485.260
                       7    8 Sep 2021 09:08:41.445    8 Sep 2021 09:33:26.699          1485.254
                       8    8 Sep 2021 10:01:13.031    8 Sep 2021 10:25:58.291          1485.260
                       9    8 Sep 2021 10:53:44.621    8 Sep 2021 11:18:29.876          1485.254
                      10    8 Sep 2021 11:46:16.208    8 Sep 2021 12:11:01.468          1485.260
                      11    8 Sep 2021 12:38:47.798    8 Sep 2021 13:03:33.053          1485.254
                      12    8 Sep 2021 13:31:19.385    8 Sep 2021 13:56:04.645          1485.260
                      13    8 Sep 2021 14:23:50.975    8 Sep 2021 14:48:36.229          1485.254
                      14    8 Sep 2021 15:16:22.561    8 Sep 2021 15:41:07.821          1485.260
                      15    8 Sep 2021 16:08:54.152    8 Sep 2021 16:33:39.406          1485.254
                      16    8 Sep 2021 17:01:25.738    8 Sep 2021 17:26:10.998          1485.260
                      17    8 Sep 2021 17:53:57.329    8 Sep 2021 18:18:42.583          1485.254
                      18    8 Sep 2021 18:46:28.915    8 Sep 2021 19:11:14.175          1485.260
                      19    8 Sep 2021 19:39:00.505    8 Sep 2021 20:03:45.760          1485.254
                      20    8 Sep 2021 20:31:32.092    8 Sep 2021 20:56:17.352          1485.260
                      21    8 Sep 2021 21:24:03.682    8 Sep 2021 21:48:48.936          1485.254
                      22    8 Sep 2021 22:16:35.269    8 Sep 2021 22:41:20.529          1485.260
                      23    8 Sep 2021 23:09:06.859    8 Sep 2021 23:33:52.113          1485.254
                      24    9 Sep 2021 00:01:38.445    9 Sep 2021 00:26:23.705          1485.260
                      25    9 Sep 2021 00:54:10.036    9 Sep 2021 01:18:55.290          1485.254
                      26    9 Sep 2021 01:46:41.622    9 Sep 2021 02:11:26.882          1485.260
                      27    9 Sep 2021 02:39:13.213    9 Sep 2021 03:03:58.467          1485.254
                      28    9 Sep 2021 03:31:44.799    9 Sep 2021 03:56:30.059          1485.260

Min Duration           1    8 Sep 2021 04:00:00.000    8 Sep 2021 04:18:17.169          1097.169
Max Duration          24    9 Sep 2021 00:01:38.445    9 Sep 2021 00:26:23.705          1485.260
Mean Duration                                                                           1471.397
Total Duration                                                                         41199.114


Satellite704-To-Satellite202
----------------------------
                  Access       Start Time (UTCG)           Stop Time (UTCG)       Duration (sec)
                  ------    -----------------------    -----------------------    --------------
                       1    8 Sep 2021 04:00:00.000    8 Sep 2021 04:13:05.001           785.001
                       2    8 Sep 2021 04:40:45.352    8 Sep 2021 05:05:36.586          1491.234
                       3    8 Sep 2021 05:33:16.944    8 Sep 2021 05:58:08.178          1491.234
                       4    8 Sep 2021 06:25:48.529    8 Sep 2021 06:50:39.763          1491.234
                       5    8 Sep 2021 07:18:20.121    8 Sep 2021 07:43:11.355          1491.234
                       6    8 Sep 2021 08:10:51.706    8 Sep 2021 08:35:42.939          1491.234
                       7    8 Sep 2021 09:03:23.298    8 Sep 2021 09:28:14.532          1491.234
                       8    8 Sep 2021 09:55:54.882    8 Sep 2021 10:20:46.116          1491.234
                       9    8 Sep 2021 10:48:26.475    8 Sep 2021 11:13:17.709          1491.234
                      10    8 Sep 2021 11:40:58.059    8 Sep 2021 12:05:49.293          1491.234
                      11    8 Sep 2021 12:33:29.651    8 Sep 2021 12:58:20.885          1491.234
                      12    8 Sep 2021 13:26:01.236    8 Sep 2021 13:50:52.470          1491.234
                      13    8 Sep 2021 14:18:32.828    8 Sep 2021 14:43:24.062          1491.234
                      14    8 Sep 2021 15:11:04.413    8 Sep 2021 15:35:55.647          1491.234
                      15    8 Sep 2021 16:03:36.005    8 Sep 2021 16:28:27.239          1491.234
                      16    8 Sep 2021 16:56:07.589    8 Sep 2021 17:20:58.823          1491.234
                      17    8 Sep 2021 17:48:39.182    8 Sep 2021 18:13:30.416          1491.234
                      18    8 Sep 2021 18:41:10.766    8 Sep 2021 19:06:02.000          1491.234
                      19    8 Sep 2021 19:33:42.358    8 Sep 2021 19:58:33.593          1491.234
                      20    8 Sep 2021 20:26:13.943    8 Sep 2021 20:51:05.177          1491.234
                      21    8 Sep 2021 21:18:45.535    8 Sep 2021 21:43:36.769          1491.234
                      22    8 Sep 2021 22:11:17.120    8 Sep 2021 22:36:08.354          1491.234
                      23    8 Sep 2021 23:03:48.712    8 Sep 2021 23:28:39.946          1491.234
                      24    8 Sep 2021 23:56:20.297    9 Sep 2021 00:21:11.531          1491.234
                      25    9 Sep 2021 00:48:51.889    9 Sep 2021 01:13:43.123          1491.234
                      26    9 Sep 2021 01:41:23.473    9 Sep 2021 02:06:14.707          1491.234
                      27    9 Sep 2021 02:33:55.066    9 Sep 2021 02:58:46.300          1491.234
                      28    9 Sep 2021 03:26:26.650    9 Sep 2021 03:51:17.884          1491.234

Min Duration           1    8 Sep 2021 04:00:00.000    8 Sep 2021 04:13:05.001           785.001
Max Duration          25    9 Sep 2021 00:48:51.889    9 Sep 2021 01:13:43.123          1491.234
Mean Duration                                                                           1466.011
Total Duration                                                                         41048.319


Satellite704-To-Satellite203
----------------------------
                  Access       Start Time (UTCG)           Stop Time (UTCG)       Duration (sec)
                  ------    -----------------------    -----------------------    --------------
                       1    8 Sep 2021 04:00:00.000    8 Sep 2021 04:05:06.256           306.256
                       2    8 Sep 2021 04:38:13.782    8 Sep 2021 04:57:37.846          1164.064
                       3    8 Sep 2021 05:30:45.370    8 Sep 2021 05:50:09.432          1164.062
                       4    8 Sep 2021 06:23:16.958    8 Sep 2021 06:42:41.021          1164.063
                       5    8 Sep 2021 07:15:48.547    8 Sep 2021 07:35:12.608          1164.061
                       6    8 Sep 2021 08:08:20.134    8 Sep 2021 08:27:44.196          1164.062
                       7    8 Sep 2021 09:00:51.723    8 Sep 2021 09:20:15.787          1164.063
                       8    8 Sep 2021 09:53:23.312    8 Sep 2021 10:12:47.374          1164.062
                       9    8 Sep 2021 10:45:54.898    8 Sep 2021 11:05:18.962          1164.064
                      10    8 Sep 2021 11:38:26.487    8 Sep 2021 11:57:50.550          1164.063
                      11    8 Sep 2021 12:30:58.076    8 Sep 2021 12:50:22.140          1164.063
                      12    8 Sep 2021 13:23:29.665    8 Sep 2021 13:42:53.729          1164.063
                      13    8 Sep 2021 14:16:01.253    8 Sep 2021 14:35:25.319          1164.067
                      14    8 Sep 2021 15:08:32.841    8 Sep 2021 15:27:56.905          1164.064
                      15    8 Sep 2021 16:01:04.431    8 Sep 2021 16:20:28.493          1164.063
                      16    8 Sep 2021 16:53:36.016    8 Sep 2021 17:13:00.081          1164.065
                      17    8 Sep 2021 17:46:07.606    8 Sep 2021 18:05:31.669          1164.063
                      18    8 Sep 2021 18:38:39.194    8 Sep 2021 18:58:03.259          1164.065
                      19    8 Sep 2021 19:31:10.784    8 Sep 2021 19:50:34.847          1164.062
                      20    8 Sep 2021 20:23:42.371    8 Sep 2021 20:43:06.435          1164.064
                      21    8 Sep 2021 21:16:13.959    8 Sep 2021 21:35:38.023          1164.063
                      22    8 Sep 2021 22:08:45.548    8 Sep 2021 22:28:09.612          1164.064
                      23    8 Sep 2021 23:01:17.138    8 Sep 2021 23:20:41.199          1164.061
                      24    8 Sep 2021 23:53:48.725    9 Sep 2021 00:13:12.792          1164.067
                      25    9 Sep 2021 00:46:20.313    9 Sep 2021 01:05:44.378          1164.064
                      26    9 Sep 2021 01:38:51.903    9 Sep 2021 01:58:15.965          1164.063
                      27    9 Sep 2021 02:31:23.489    9 Sep 2021 02:50:47.553          1164.064
                      28    9 Sep 2021 03:23:55.078    9 Sep 2021 03:43:19.141          1164.063

Min Duration           1    8 Sep 2021 04:00:00.000    8 Sep 2021 04:05:06.256           306.256
Max Duration          24    8 Sep 2021 23:53:48.725    9 Sep 2021 00:13:12.792          1164.067
Mean Duration                                                                           1133.427
Total Duration                                                                         31735.970


Satellite704-To-Satellite204
----------------------------
                  Access       Start Time (UTCG)           Stop Time (UTCG)       Duration (sec)
                  ------    -----------------------    -----------------------    --------------
                       1    8 Sep 2021 04:39:09.831    8 Sep 2021 04:46:11.475           421.644
                       2    8 Sep 2021 05:31:41.422    8 Sep 2021 05:38:43.063           421.641
                       3    8 Sep 2021 06:24:13.008    8 Sep 2021 06:31:14.652           421.644
                       4    8 Sep 2021 07:16:44.599    8 Sep 2021 07:23:46.240           421.641
                       5    8 Sep 2021 08:09:16.185    8 Sep 2021 08:16:17.827           421.642
                       6    8 Sep 2021 09:01:47.777    8 Sep 2021 09:08:49.417           421.639
                       7    8 Sep 2021 09:54:19.361    8 Sep 2021 10:01:21.006           421.644
                       8    8 Sep 2021 10:46:50.953    8 Sep 2021 10:53:52.593           421.640
                       9    8 Sep 2021 11:39:22.538    8 Sep 2021 11:46:24.182           421.644
                      10    8 Sep 2021 12:31:54.129    8 Sep 2021 12:38:55.770           421.641
                      11    8 Sep 2021 13:24:25.715    8 Sep 2021 13:31:27.359           421.644
                      12    8 Sep 2021 14:16:57.305    8 Sep 2021 14:23:58.947           421.642
                      13    8 Sep 2021 15:09:28.892    8 Sep 2021 15:16:30.536           421.643
                      14    8 Sep 2021 16:02:00.481    8 Sep 2021 16:09:02.124           421.643
                      15    8 Sep 2021 16:54:32.072    8 Sep 2021 17:01:33.713           421.641
                      16    8 Sep 2021 17:47:03.657    8 Sep 2021 17:54:05.301           421.644
                      17    8 Sep 2021 18:39:35.248    8 Sep 2021 18:46:36.889           421.641
                      18    8 Sep 2021 19:32:06.834    8 Sep 2021 19:39:08.478           421.644
                      19    8 Sep 2021 20:24:38.425    8 Sep 2021 20:31:40.066           421.641
                      20    8 Sep 2021 21:17:10.011    8 Sep 2021 21:24:11.653           421.642
                      21    8 Sep 2021 22:09:41.603    8 Sep 2021 22:16:43.243           421.639
                      22    8 Sep 2021 23:02:13.187    8 Sep 2021 23:09:14.831           421.644
                      23    8 Sep 2021 23:54:44.779    9 Sep 2021 00:01:46.419           421.640
                      24    9 Sep 2021 00:47:16.364    9 Sep 2021 00:54:18.008           421.644
                      25    9 Sep 2021 01:39:47.955    9 Sep 2021 01:46:49.596           421.641
                      26    9 Sep 2021 02:32:19.541    9 Sep 2021 02:39:21.185           421.644
                      27    9 Sep 2021 03:24:51.131    9 Sep 2021 03:31:52.773           421.642

Min Duration           6    8 Sep 2021 09:01:47.777    8 Sep 2021 09:08:49.417           421.639
Max Duration           7    8 Sep 2021 09:54:19.361    8 Sep 2021 10:01:21.006           421.644
Mean Duration                                                                            421.642
Total Duration                                                                         11384.341


Satellite704-To-Satellite209
----------------------------
                  Access       Start Time (UTCG)           Stop Time (UTCG)       Duration (sec)
                  ------    -----------------------    -----------------------    --------------
                       1    8 Sep 2021 04:13:27.666    8 Sep 2021 04:19:22.051           354.385
                       2    8 Sep 2021 05:05:59.258    8 Sep 2021 05:11:53.641           354.384
                       3    8 Sep 2021 05:58:30.843    8 Sep 2021 06:04:25.230           354.388
                       4    8 Sep 2021 06:51:02.430    8 Sep 2021 06:56:56.814           354.384
                       5    8 Sep 2021 07:43:34.022    8 Sep 2021 07:49:28.406           354.384
                       6    8 Sep 2021 08:36:05.611    8 Sep 2021 08:41:59.995           354.384
                       7    8 Sep 2021 09:28:37.195    8 Sep 2021 09:34:31.583           354.388
                       8    8 Sep 2021 10:21:08.784    8 Sep 2021 10:27:03.169           354.385
                       9    8 Sep 2021 11:13:40.376    8 Sep 2021 11:19:34.760           354.384
                      10    8 Sep 2021 12:06:11.960    8 Sep 2021 12:12:06.349           354.388
                      11    8 Sep 2021 12:58:43.549    8 Sep 2021 13:04:37.932           354.384
                      12    8 Sep 2021 13:51:15.140    8 Sep 2021 13:57:09.525           354.384
                      13    8 Sep 2021 14:43:46.730    8 Sep 2021 14:49:41.114           354.384
                      14    8 Sep 2021 15:36:18.318    8 Sep 2021 15:42:12.702           354.384
                      15    8 Sep 2021 16:28:49.903    8 Sep 2021 16:34:44.288           354.385
                      16    8 Sep 2021 17:21:21.494    8 Sep 2021 17:27:15.879           354.385
                      17    8 Sep 2021 18:13:53.079    8 Sep 2021 18:19:47.468           354.389
                      18    8 Sep 2021 19:06:24.667    8 Sep 2021 19:12:19.051           354.384
                      19    8 Sep 2021 19:58:56.259    8 Sep 2021 20:04:50.643           354.384
                      20    8 Sep 2021 20:51:27.848    8 Sep 2021 20:57:22.233           354.385
                      21    8 Sep 2021 21:43:59.436    8 Sep 2021 21:49:53.821           354.384
                      22    8 Sep 2021 22:36:31.021    8 Sep 2021 22:42:25.406           354.385
                      23    8 Sep 2021 23:29:02.613    8 Sep 2021 23:34:56.997           354.385
                      24    9 Sep 2021 00:21:34.198    9 Sep 2021 00:27:28.586           354.389
                      25    9 Sep 2021 01:14:05.786    9 Sep 2021 01:20:00.172           354.386
                      26    9 Sep 2021 02:06:37.377    9 Sep 2021 02:12:31.762           354.385
                      27    9 Sep 2021 02:59:08.967    9 Sep 2021 03:05:03.351           354.385
                      28    9 Sep 2021 03:51:40.552    9 Sep 2021 03:57:34.940           354.388

Min Duration          18    8 Sep 2021 19:06:24.667    8 Sep 2021 19:12:19.051           354.384
Max Duration          17    8 Sep 2021 18:13:53.079    8 Sep 2021 18:19:47.468           354.389
Mean Duration                                                                            354.385
Total Duration                                                                          9922.788


Satellite704-To-Satellite210
----------------------------
                  Access       Start Time (UTCG)           Stop Time (UTCG)       Duration (sec)
                  ------    -----------------------    -----------------------    --------------
                       1    8 Sep 2021 04:01:37.238    8 Sep 2021 04:20:42.164          1144.927
                       2    8 Sep 2021 04:54:08.826    8 Sep 2021 05:13:13.751          1144.925
                       3    8 Sep 2021 05:46:40.414    8 Sep 2021 06:05:45.342          1144.927
                       4    8 Sep 2021 06:39:12.003    8 Sep 2021 06:58:16.930          1144.927
                       5    8 Sep 2021 07:31:43.587    8 Sep 2021 07:50:48.518          1144.931
                       6    8 Sep 2021 08:24:15.176    8 Sep 2021 08:43:20.106          1144.930
                       7    8 Sep 2021 09:16:46.765    8 Sep 2021 09:35:51.695          1144.930
                       8    8 Sep 2021 10:09:18.354    8 Sep 2021 10:28:23.283          1144.929
                       9    8 Sep 2021 11:01:49.942    8 Sep 2021 11:20:54.872          1144.929
                      10    8 Sep 2021 11:54:21.531    8 Sep 2021 12:13:26.460          1144.929
                      11    8 Sep 2021 12:46:53.119    8 Sep 2021 13:05:58.048          1144.929
                      12    8 Sep 2021 13:39:24.708    8 Sep 2021 13:58:29.637          1144.929
                      13    8 Sep 2021 14:31:56.296    8 Sep 2021 14:51:01.225          1144.929
                      14    8 Sep 2021 15:24:27.885    8 Sep 2021 15:43:32.814          1144.929
                      15    8 Sep 2021 16:16:59.473    8 Sep 2021 16:36:04.402          1144.929
                      16    8 Sep 2021 17:09:31.061    8 Sep 2021 17:28:35.990          1144.929
                      17    8 Sep 2021 18:02:02.650    8 Sep 2021 18:21:07.579          1144.929
                      18    8 Sep 2021 18:54:34.238    8 Sep 2021 19:13:39.167          1144.929
                      19    8 Sep 2021 19:47:05.827    8 Sep 2021 20:06:10.756          1144.929
                      20    8 Sep 2021 20:39:37.415    8 Sep 2021 20:58:42.344          1144.929
                      21    8 Sep 2021 21:32:09.003    8 Sep 2021 21:51:13.932          1144.929
                      22    8 Sep 2021 22:24:40.592    8 Sep 2021 22:43:45.521          1144.929
                      23    8 Sep 2021 23:17:12.180    8 Sep 2021 23:36:17.109          1144.929
                      24    9 Sep 2021 00:09:43.768    9 Sep 2021 00:28:48.697          1144.929
                      25    9 Sep 2021 01:02:15.357    9 Sep 2021 01:21:20.286          1144.929
                      26    9 Sep 2021 01:54:46.945    9 Sep 2021 02:13:51.874          1144.929
                      27    9 Sep 2021 02:47:18.534    9 Sep 2021 03:06:23.463          1144.929
                      28    9 Sep 2021 03:39:50.122    9 Sep 2021 03:58:55.050          1144.928

Min Duration           2    8 Sep 2021 04:54:08.826    8 Sep 2021 05:13:13.751          1144.925
Max Duration           5    8 Sep 2021 07:31:43.587    8 Sep 2021 07:50:48.518          1144.931
Mean Duration                                                                           1144.929
Total Duration                                                                         32058.005


Satellite704-To-Satellite301
----------------------------
                  Access       Start Time (UTCG)           Stop Time (UTCG)       Duration (sec)
                  ------    -----------------------    -----------------------    --------------
                       1    8 Sep 2021 04:00:00.000    8 Sep 2021 04:14:36.906           876.906
                       2    8 Sep 2021 04:48:24.977    8 Sep 2021 05:07:08.493          1123.517
                       3    8 Sep 2021 05:40:56.565    8 Sep 2021 05:59:40.084          1123.519
                       4    8 Sep 2021 06:33:28.153    8 Sep 2021 06:52:11.675          1123.522
                       5    8 Sep 2021 07:25:59.737    8 Sep 2021 07:44:43.261          1123.524
                       6    8 Sep 2021 08:18:31.330    8 Sep 2021 08:37:14.848          1123.518
                       7    8 Sep 2021 09:11:02.918    8 Sep 2021 09:29:46.435          1123.517
                       8    8 Sep 2021 10:03:34.507    8 Sep 2021 10:22:18.025          1123.518
                       9    8 Sep 2021 10:56:06.095    8 Sep 2021 11:14:49.617          1123.521
                      10    8 Sep 2021 11:48:37.679    8 Sep 2021 12:07:21.203          1123.524
                      11    8 Sep 2021 12:41:09.272    8 Sep 2021 12:59:52.790          1123.518
                      12    8 Sep 2021 13:33:40.860    8 Sep 2021 13:52:24.377          1123.517
                      13    8 Sep 2021 14:26:12.447    8 Sep 2021 14:44:55.967          1123.521
                      14    8 Sep 2021 15:18:44.033    8 Sep 2021 15:37:27.559          1123.526
                      15    8 Sep 2021 16:11:15.621    8 Sep 2021 16:29:59.145          1123.524
                      16    8 Sep 2021 17:03:47.214    8 Sep 2021 17:22:30.732          1123.518
                      17    8 Sep 2021 17:56:18.802    8 Sep 2021 18:15:02.319          1123.517
                      18    8 Sep 2021 18:48:50.389    8 Sep 2021 19:07:33.909          1123.521
                      19    8 Sep 2021 19:41:21.975    8 Sep 2021 20:00:05.501          1123.526
                      20    8 Sep 2021 20:33:53.563    8 Sep 2021 20:52:37.087          1123.524
                      21    8 Sep 2021 21:26:25.156    8 Sep 2021 21:45:08.674          1123.518
                      22    8 Sep 2021 22:18:56.744    8 Sep 2021 22:37:40.261          1123.517
                      23    8 Sep 2021 23:11:28.331    8 Sep 2021 23:30:11.851          1123.521
                      24    9 Sep 2021 00:03:59.917    9 Sep 2021 00:22:43.443          1123.526
                      25    9 Sep 2021 00:56:31.505    9 Sep 2021 01:15:15.029          1123.524
                      26    9 Sep 2021 01:49:03.098    9 Sep 2021 02:07:46.616          1123.518
                      27    9 Sep 2021 02:41:34.686    9 Sep 2021 03:00:18.203          1123.517
                      28    9 Sep 2021 03:34:06.273    9 Sep 2021 03:52:49.793          1123.521

Min Duration           1    8 Sep 2021 04:00:00.000    8 Sep 2021 04:14:36.906           876.906
Max Duration          14    8 Sep 2021 15:18:44.033    8 Sep 2021 15:37:27.559          1123.526
Mean Duration                                                                           1114.713
Total Duration                                                                         31211.956


Satellite704-To-Satellite302
----------------------------
                  Access       Start Time (UTCG)           Stop Time (UTCG)       Duration (sec)
                  ------    -----------------------    -----------------------    --------------
                       1    8 Sep 2021 04:00:00.000    8 Sep 2021 04:05:30.650           330.650
                       2    8 Sep 2021 04:47:00.913    8 Sep 2021 04:58:02.239           661.326
                       3    8 Sep 2021 05:39:32.500    8 Sep 2021 05:50:33.831           661.331
                       4    8 Sep 2021 06:32:04.088    8 Sep 2021 06:43:05.419           661.332
                       5    8 Sep 2021 07:24:35.675    8 Sep 2021 07:35:37.007           661.332
                       6    8 Sep 2021 08:17:07.263    8 Sep 2021 08:28:08.595           661.332
                       7    8 Sep 2021 09:09:38.852    8 Sep 2021 09:20:40.183           661.331
                       8    8 Sep 2021 10:02:10.444    8 Sep 2021 10:13:11.771           661.327
                       9    8 Sep 2021 10:54:42.032    8 Sep 2021 11:05:43.359           661.327
                      10    8 Sep 2021 11:47:13.620    8 Sep 2021 11:58:14.945           661.325
                      11    8 Sep 2021 12:39:45.208    8 Sep 2021 12:50:46.537           661.329
                      12    8 Sep 2021 13:32:16.795    8 Sep 2021 13:43:18.127           661.332
                      13    8 Sep 2021 14:24:48.382    8 Sep 2021 14:35:49.715           661.332
                      14    8 Sep 2021 15:17:19.970    8 Sep 2021 15:28:21.302           661.332
                      15    8 Sep 2021 16:09:51.563    8 Sep 2021 16:20:52.890           661.327
                      16    8 Sep 2021 17:02:23.151    8 Sep 2021 17:13:24.478           661.327
                      17    8 Sep 2021 17:54:54.739    8 Sep 2021 18:05:56.066           661.327
                      18    8 Sep 2021 18:47:26.328    8 Sep 2021 18:58:27.652           661.325
                      19    8 Sep 2021 19:39:57.915    8 Sep 2021 19:50:59.241           661.327
                      20    8 Sep 2021 20:32:29.502    8 Sep 2021 20:43:30.834           661.331
                      21    8 Sep 2021 21:25:01.090    8 Sep 2021 21:36:02.422           661.332
                      22    8 Sep 2021 22:17:32.677    8 Sep 2021 22:28:34.010           661.332
                      23    8 Sep 2021 23:10:04.268    8 Sep 2021 23:21:05.597           661.329
                      24    9 Sep 2021 00:02:35.858    9 Sep 2021 00:13:37.185           661.327
                      25    9 Sep 2021 00:55:07.447    9 Sep 2021 01:06:08.773           661.327
                      26    9 Sep 2021 01:47:39.035    9 Sep 2021 01:58:40.360           661.325
                      27    9 Sep 2021 02:40:10.622    9 Sep 2021 02:51:11.949           661.327
                      28    9 Sep 2021 03:32:42.210    9 Sep 2021 03:43:43.541           661.331

Min Duration           1    8 Sep 2021 04:00:00.000    8 Sep 2021 04:05:30.650           330.650
Max Duration           5    8 Sep 2021 07:24:35.675    8 Sep 2021 07:35:37.007           661.332
Mean Duration                                                                            649.519
Total Duration                                                                         18186.533


Satellite704-To-Satellite307
----------------------------
                  Access       Start Time (UTCG)           Stop Time (UTCG)       Duration (sec)
                  ------    -----------------------    -----------------------    --------------
                       1    8 Sep 2021 04:20:45.141    8 Sep 2021 04:31:46.424           661.283
                       2    8 Sep 2021 05:13:16.728    8 Sep 2021 05:24:18.012           661.284
                       3    8 Sep 2021 06:05:48.316    8 Sep 2021 06:16:49.599           661.283
                       4    8 Sep 2021 06:58:19.908    8 Sep 2021 07:09:21.187           661.280
                       5    8 Sep 2021 07:50:51.497    8 Sep 2021 08:01:52.775           661.278
                       6    8 Sep 2021 08:43:23.086    8 Sep 2021 08:54:24.362           661.276
                       7    8 Sep 2021 09:35:54.673    8 Sep 2021 09:46:55.951           661.277
                       8    8 Sep 2021 10:28:26.261    8 Sep 2021 10:39:27.543           661.282
                       9    8 Sep 2021 11:20:57.848    8 Sep 2021 11:31:59.131           661.283
                      10    8 Sep 2021 12:13:29.435    8 Sep 2021 12:24:30.719           661.284
                      11    8 Sep 2021 13:06:01.023    8 Sep 2021 13:17:02.307           661.283
                      12    8 Sep 2021 13:58:32.616    8 Sep 2021 14:09:33.895           661.278
                      13    8 Sep 2021 14:51:04.205    8 Sep 2021 15:02:05.483           661.278
                      14    8 Sep 2021 15:43:35.792    8 Sep 2021 15:54:37.070           661.278
                      15    8 Sep 2021 16:36:07.381    8 Sep 2021 16:47:08.657           661.276
                      16    8 Sep 2021 17:28:38.968    8 Sep 2021 17:39:40.250           661.281
                      17    8 Sep 2021 18:21:10.556    8 Sep 2021 18:32:11.838           661.283
                      18    8 Sep 2021 19:13:42.143    8 Sep 2021 19:24:43.426           661.284
                      19    8 Sep 2021 20:06:13.730    8 Sep 2021 20:17:15.014           661.284
                      20    8 Sep 2021 20:58:45.323    8 Sep 2021 21:09:46.602           661.278
                      21    8 Sep 2021 21:51:16.912    8 Sep 2021 22:02:18.190           661.278
                      22    8 Sep 2021 22:43:48.500    8 Sep 2021 22:54:49.778           661.278
                      23    8 Sep 2021 23:36:20.088    8 Sep 2021 23:47:21.364           661.276
                      24    9 Sep 2021 00:28:51.675    9 Sep 2021 00:39:52.954           661.278
                      25    9 Sep 2021 01:21:23.263    9 Sep 2021 01:32:24.546           661.283
                      26    9 Sep 2021 02:13:54.850    9 Sep 2021 02:24:56.134           661.284
                      27    9 Sep 2021 03:06:26.438    9 Sep 2021 03:17:27.721           661.284
                      28    9 Sep 2021 03:58:58.029    9 Sep 2021 04:00:00.000            61.971

Min Duration          28    9 Sep 2021 03:58:58.029    9 Sep 2021 04:00:00.000            61.971
Max Duration          10    8 Sep 2021 12:13:29.435    8 Sep 2021 12:24:30.719           661.284
Mean Duration                                                                            639.877
Total Duration                                                                         17916.545


Satellite704-To-Satellite308
----------------------------
                  Access       Start Time (UTCG)           Stop Time (UTCG)       Duration (sec)
                  ------    -----------------------    -----------------------    --------------
                       1    8 Sep 2021 04:11:38.876    8 Sep 2021 04:30:22.369          1123.493
                       2    8 Sep 2021 05:04:10.466    8 Sep 2021 05:22:53.958          1123.491
                       3    8 Sep 2021 05:56:42.054    8 Sep 2021 06:15:25.545          1123.490
                       4    8 Sep 2021 06:49:13.641    8 Sep 2021 07:07:57.137          1123.495
                       5    8 Sep 2021 07:41:45.229    8 Sep 2021 08:00:28.725          1123.496
                       6    8 Sep 2021 08:34:16.820    8 Sep 2021 08:53:00.311          1123.491
                       7    8 Sep 2021 09:26:48.408    8 Sep 2021 09:45:31.899          1123.490
                       8    8 Sep 2021 10:19:19.995    8 Sep 2021 10:38:03.488          1123.493
                       9    8 Sep 2021 11:11:51.582    8 Sep 2021 11:30:35.080          1123.498
                      10    8 Sep 2021 12:04:23.169    8 Sep 2021 12:23:06.666          1123.497
                      11    8 Sep 2021 12:56:54.762    8 Sep 2021 13:15:38.253          1123.491
                      12    8 Sep 2021 13:49:26.350    8 Sep 2021 14:08:09.840          1123.490
                      13    8 Sep 2021 14:41:57.937    8 Sep 2021 15:00:41.430          1123.494
                      14    8 Sep 2021 15:34:29.523    8 Sep 2021 15:53:13.022          1123.499
                      15    8 Sep 2021 16:27:01.111    8 Sep 2021 16:45:44.608          1123.497
                      16    8 Sep 2021 17:19:32.704    8 Sep 2021 17:38:16.195          1123.491
                      17    8 Sep 2021 18:12:04.292    8 Sep 2021 18:30:47.782          1123.490
                      18    8 Sep 2021 19:04:35.879    8 Sep 2021 19:23:19.372          1123.494
                      19    8 Sep 2021 19:57:07.465    8 Sep 2021 20:15:50.964          1123.499
                      20    8 Sep 2021 20:49:39.053    8 Sep 2021 21:08:22.550          1123.497
                      21    8 Sep 2021 21:42:10.646    8 Sep 2021 22:00:54.137          1123.491
                      22    8 Sep 2021 22:34:42.234    8 Sep 2021 22:53:25.724          1123.490
                      23    8 Sep 2021 23:27:13.821    8 Sep 2021 23:45:57.314          1123.494
                      24    9 Sep 2021 00:19:45.407    9 Sep 2021 00:38:28.906          1123.499
                      25    9 Sep 2021 01:12:16.995    9 Sep 2021 01:31:00.492          1123.497
                      26    9 Sep 2021 02:04:48.588    9 Sep 2021 02:23:32.079          1123.491
                      27    9 Sep 2021 02:57:20.176    9 Sep 2021 03:16:03.666          1123.490
                      28    9 Sep 2021 03:49:51.763    9 Sep 2021 04:00:00.000           608.237

Min Duration          28    9 Sep 2021 03:49:51.763    9 Sep 2021 04:00:00.000           608.237
Max Duration          24    9 Sep 2021 00:19:45.407    9 Sep 2021 00:38:28.906          1123.499
Mean Duration                                                                           1105.092
Total Duration                                                                         30942.564


Satellite704-To-Satellite309
----------------------------
                  Access       Start Time (UTCG)           Stop Time (UTCG)       Duration (sec)
                  ------    -----------------------    -----------------------    --------------
                       1    8 Sep 2021 04:04:26.657    8 Sep 2021 04:27:04.267          1357.610
                       2    8 Sep 2021 04:56:58.246    8 Sep 2021 05:19:35.856          1357.610
                       3    8 Sep 2021 05:49:29.837    8 Sep 2021 06:12:07.445          1357.607
                       4    8 Sep 2021 06:42:01.426    8 Sep 2021 07:04:39.036          1357.610
                       5    8 Sep 2021 07:34:33.014    8 Sep 2021 07:57:10.624          1357.610
                       6    8 Sep 2021 08:27:04.603    8 Sep 2021 08:49:42.213          1357.610
                       7    8 Sep 2021 09:19:36.191    8 Sep 2021 09:42:13.801          1357.610
                       8    8 Sep 2021 10:12:07.779    8 Sep 2021 10:34:45.390          1357.610
                       9    8 Sep 2021 11:04:39.368    8 Sep 2021 11:27:16.978          1357.610
                      10    8 Sep 2021 11:57:10.956    8 Sep 2021 12:19:48.566          1357.610
                      11    8 Sep 2021 12:49:42.545    8 Sep 2021 13:12:20.155          1357.610
                      12    8 Sep 2021 13:42:14.133    8 Sep 2021 14:04:51.743          1357.610
                      13    8 Sep 2021 14:34:45.721    8 Sep 2021 14:57:23.332          1357.610
                      14    8 Sep 2021 15:27:17.310    8 Sep 2021 15:49:54.920          1357.610
                      15    8 Sep 2021 16:19:48.898    8 Sep 2021 16:42:26.508          1357.610
                      16    8 Sep 2021 17:12:20.487    8 Sep 2021 17:34:58.097          1357.610
                      17    8 Sep 2021 18:04:52.075    8 Sep 2021 18:27:29.685          1357.610
                      18    8 Sep 2021 18:57:23.663    8 Sep 2021 19:20:01.274          1357.610
                      19    8 Sep 2021 19:49:55.252    8 Sep 2021 20:12:32.862          1357.610
                      20    8 Sep 2021 20:42:26.840    8 Sep 2021 21:05:04.450          1357.610
                      21    8 Sep 2021 21:34:58.429    8 Sep 2021 21:57:36.039          1357.610
                      22    8 Sep 2021 22:27:30.017    8 Sep 2021 22:50:07.627          1357.610
                      23    8 Sep 2021 23:20:01.605    8 Sep 2021 23:42:39.216          1357.610
                      24    9 Sep 2021 00:12:33.194    9 Sep 2021 00:35:10.804          1357.610
                      25    9 Sep 2021 01:05:04.782    9 Sep 2021 01:27:42.392          1357.610
                      26    9 Sep 2021 01:57:36.371    9 Sep 2021 02:20:13.981          1357.610
                      27    9 Sep 2021 02:50:07.959    9 Sep 2021 03:12:45.569          1357.610
                      28    9 Sep 2021 03:42:39.547    9 Sep 2021 04:00:00.000          1040.453

Min Duration          28    9 Sep 2021 03:42:39.547    9 Sep 2021 04:00:00.000          1040.453
Max Duration           2    8 Sep 2021 04:56:58.246    8 Sep 2021 05:19:35.856          1357.610
Mean Duration                                                                           1346.283
Total Duration                                                                         37695.924


Satellite704-To-Satellite310
----------------------------
                  Access       Start Time (UTCG)           Stop Time (UTCG)       Duration (sec)
                  ------    -----------------------    -----------------------    --------------
                       1    8 Sep 2021 04:00:00.000    8 Sep 2021 04:21:49.113          1309.113
                       2    8 Sep 2021 04:51:43.082    8 Sep 2021 05:14:20.702          1357.620
                       3    8 Sep 2021 05:44:14.670    8 Sep 2021 06:06:52.290          1357.620
                       4    8 Sep 2021 06:36:46.262    8 Sep 2021 06:59:23.879          1357.617
                       5    8 Sep 2021 07:29:17.851    8 Sep 2021 07:51:55.470          1357.620
                       6    8 Sep 2021 08:21:49.439    8 Sep 2021 08:44:27.059          1357.620
                       7    8 Sep 2021 09:14:21.028    8 Sep 2021 09:36:58.647          1357.620
                       8    8 Sep 2021 10:06:52.616    8 Sep 2021 10:29:30.236          1357.620
                       9    8 Sep 2021 10:59:24.204    8 Sep 2021 11:22:01.824          1357.620
                      10    8 Sep 2021 11:51:55.793    8 Sep 2021 12:14:33.412          1357.620
                      11    8 Sep 2021 12:44:27.381    8 Sep 2021 13:07:05.001          1357.620
                      12    8 Sep 2021 13:36:58.969    8 Sep 2021 13:59:36.589          1357.620
                      13    8 Sep 2021 14:29:30.558    8 Sep 2021 14:52:08.178          1357.620
                      14    8 Sep 2021 15:22:02.146    8 Sep 2021 15:44:39.766          1357.620
                      15    8 Sep 2021 16:14:33.735    8 Sep 2021 16:37:11.354          1357.620
                      16    8 Sep 2021 17:07:05.323    8 Sep 2021 17:29:42.943          1357.620
                      17    8 Sep 2021 17:59:36.911    8 Sep 2021 18:22:14.531          1357.620
                      18    8 Sep 2021 18:52:08.500    8 Sep 2021 19:14:46.119          1357.620
                      19    8 Sep 2021 19:44:40.088    8 Sep 2021 20:07:17.708          1357.620
                      20    8 Sep 2021 20:37:11.677    8 Sep 2021 20:59:49.296          1357.620
                      21    8 Sep 2021 21:29:43.265    8 Sep 2021 21:52:20.885          1357.620
                      22    8 Sep 2021 22:22:14.853    8 Sep 2021 22:44:52.473          1357.620
                      23    8 Sep 2021 23:14:46.442    8 Sep 2021 23:37:24.061          1357.620
                      24    9 Sep 2021 00:07:18.030    9 Sep 2021 00:29:55.650          1357.620
                      25    9 Sep 2021 00:59:49.619    9 Sep 2021 01:22:27.238          1357.620
                      26    9 Sep 2021 01:52:21.207    9 Sep 2021 02:14:58.827          1357.620
                      27    9 Sep 2021 02:44:52.795    9 Sep 2021 03:07:30.415          1357.620
                      28    9 Sep 2021 03:37:24.384    9 Sep 2021 04:00:00.000          1355.616

Min Duration           1    8 Sep 2021 04:00:00.000    8 Sep 2021 04:21:49.113          1309.113
Max Duration           3    8 Sep 2021 05:44:14.670    8 Sep 2021 06:06:52.290          1357.620
Mean Duration                                                                           1355.816
Total Duration                                                                         37962.837


Satellite704-To-Satellite405
----------------------------
                  Access       Start Time (UTCG)           Stop Time (UTCG)       Duration (sec)
                  ------    -----------------------    -----------------------    --------------
                       1    8 Sep 2021 04:32:35.885    8 Sep 2021 04:39:37.526           421.641
                       2    8 Sep 2021 05:25:07.471    8 Sep 2021 05:32:09.115           421.644
                       3    8 Sep 2021 06:17:39.061    8 Sep 2021 06:24:40.703           421.643
                       4    8 Sep 2021 07:10:10.648    8 Sep 2021 07:17:12.292           421.643
                       5    8 Sep 2021 08:02:42.237    8 Sep 2021 08:09:43.880           421.643
                       6    8 Sep 2021 08:55:13.828    8 Sep 2021 09:02:15.468           421.641
                       7    8 Sep 2021 09:47:45.413    8 Sep 2021 09:54:47.057           421.644
                       8    8 Sep 2021 10:40:17.004    8 Sep 2021 10:47:18.645           421.641
                       9    8 Sep 2021 11:32:48.590    8 Sep 2021 11:39:50.234           421.644
                      10    8 Sep 2021 12:25:20.183    8 Sep 2021 12:32:21.822           421.639
                      11    8 Sep 2021 13:17:51.766    8 Sep 2021 13:24:53.408           421.641
                      12    8 Sep 2021 14:10:23.359    8 Sep 2021 14:17:24.998           421.640
                      13    8 Sep 2021 15:02:54.943    8 Sep 2021 15:09:56.587           421.644
                      14    8 Sep 2021 15:55:26.535    8 Sep 2021 16:02:28.175           421.640
                      15    8 Sep 2021 16:47:58.120    8 Sep 2021 16:54:59.764           421.644
                      16    8 Sep 2021 17:40:29.711    8 Sep 2021 17:47:31.352           421.641
                      17    8 Sep 2021 18:33:01.297    8 Sep 2021 18:40:02.941           421.644
                      18    8 Sep 2021 19:25:32.887    8 Sep 2021 19:32:34.529           421.643
                      19    8 Sep 2021 20:18:04.474    8 Sep 2021 20:25:06.118           421.643
                      20    8 Sep 2021 21:10:36.063    8 Sep 2021 21:17:37.706           421.643
                      21    8 Sep 2021 22:03:07.654    8 Sep 2021 22:10:09.294           421.641
                      22    8 Sep 2021 22:55:39.239    8 Sep 2021 23:02:40.883           421.644
                      23    8 Sep 2021 23:48:10.830    8 Sep 2021 23:55:12.471           421.641
                      24    9 Sep 2021 00:40:42.416    9 Sep 2021 00:47:44.060           421.644
                      25    9 Sep 2021 01:33:14.009    9 Sep 2021 01:40:15.648           421.639
                      26    9 Sep 2021 02:25:45.592    9 Sep 2021 02:32:47.234           421.641
                      27    9 Sep 2021 03:18:17.185    9 Sep 2021 03:25:18.824           421.640

Min Duration          10    8 Sep 2021 12:25:20.183    8 Sep 2021 12:32:21.822           421.639
Max Duration          13    8 Sep 2021 15:02:54.943    8 Sep 2021 15:09:56.587           421.644
