routing/visibility/v706.txt

Satellite706-To-Satellite103
----------------------------
                  Access       Start Time (UTCG)           Stop Time (UTCG)       Duration (sec)
                  ------    -----------------------    -----------------------    --------------
                       1    8 Sep 2021 04:34:12.169    8 Sep 2021 04:41:57.610           465.441
                       2    8 Sep 2021 05:26:43.761    8 Sep 2021 05:34:29.194           465.433
                       3    8 Sep 2021 06:19:15.345    8 Sep 2021 06:27:00.784           465.439
                       4    8 Sep 2021 07:11:46.934    8 Sep 2021 07:19:32.375           465.441
                       5    8 Sep 2021 08:04:18.525    8 Sep 2021 08:12:03.963           465.438
                       6    8 Sep 2021 08:56:50.115    8 Sep 2021 09:04:35.551           465.437
                       7    8 Sep 2021 09:49:21.701    8 Sep 2021 09:57:07.139           465.438
                       8    8 Sep 2021 10:41:53.288    8 Sep 2021 10:49:38.728           465.441
                       9    8 Sep 2021 11:34:24.876    8 Sep 2021 11:42:10.317           465.441
                      10    8 Sep 2021 12:26:56.465    8 Sep 2021 12:34:41.901           465.436
                      11    8 Sep 2021 13:19:28.053    8 Sep 2021 13:27:13.491           465.438
                      12    8 Sep 2021 14:11:59.641    8 Sep 2021 14:19:45.082           465.441
                      13    8 Sep 2021 15:04:31.232    8 Sep 2021 15:12:16.670           465.438
                      14    8 Sep 2021 15:57:02.822    8 Sep 2021 16:04:48.258           465.437
                      15    8 Sep 2021 16:49:34.408    8 Sep 2021 16:57:19.846           465.438
                      16    8 Sep 2021 17:42:05.995    8 Sep 2021 17:49:51.436           465.441
                      17    8 Sep 2021 18:34:37.583    8 Sep 2021 18:42:23.024           465.441
                      18    8 Sep 2021 19:27:09.174    8 Sep 2021 19:34:54.612           465.438
                      19    8 Sep 2021 20:19:40.760    8 Sep 2021 20:27:26.198           465.438
                      20    8 Sep 2021 21:12:12.348    8 Sep 2021 21:19:57.789           465.441
                      21    8 Sep 2021 22:04:43.939    8 Sep 2021 22:12:29.378           465.438
                      22    8 Sep 2021 22:57:15.529    8 Sep 2021 23:05:00.966           465.437
                      23    8 Sep 2021 23:49:47.115    8 Sep 2021 23:57:32.553           465.439
                      24    9 Sep 2021 00:42:18.702    9 Sep 2021 00:50:04.143           465.441
                      25    9 Sep 2021 01:34:50.290    9 Sep 2021 01:42:35.731           465.441
                      26    9 Sep 2021 02:27:21.883    9 Sep 2021 02:35:07.315           465.432
                      27    9 Sep 2021 03:19:53.467    9 Sep 2021 03:27:38.904           465.437

Min Duration          26    9 Sep 2021 02:27:21.883    9 Sep 2021 02:35:07.315           465.432
Max Duration           1    8 Sep 2021 04:34:12.169    8 Sep 2021 04:41:57.610           465.441
Mean Duration                                                                            465.439
Total Duration                                                                         12566.843


Satellite706-To-Satellite104
----------------------------
                  Access       Start Time (UTCG)           Stop Time (UTCG)       Duration (sec)
                  ------    -----------------------    -----------------------    --------------
                       1    8 Sep 2021 04:17:53.918    8 Sep 2021 04:47:45.539          1791.621
                       2    8 Sep 2021 05:10:25.507    8 Sep 2021 05:40:17.128          1791.621
                       3    8 Sep 2021 06:02:57.095    8 Sep 2021 06:32:48.715          1791.620
                       4    8 Sep 2021 06:55:28.687    8 Sep 2021 07:25:20.303          1791.617
                       5    8 Sep 2021 07:48:00.275    8 Sep 2021 08:17:51.896          1791.621
                       6    8 Sep 2021 08:40:31.863    8 Sep 2021 09:10:23.485          1791.621
                       7    8 Sep 2021 09:33:03.452    8 Sep 2021 10:02:55.073          1791.621
                       8    8 Sep 2021 10:25:35.040    8 Sep 2021 10:55:26.661          1791.621
                       9    8 Sep 2021 11:18:06.628    8 Sep 2021 11:47:58.249          1791.621
                      10    8 Sep 2021 12:10:38.216    8 Sep 2021 12:40:29.837          1791.621
                      11    8 Sep 2021 13:03:09.804    8 Sep 2021 13:33:01.425          1791.621
                      12    8 Sep 2021 13:55:41.392    8 Sep 2021 14:25:33.013          1791.621
                      13    8 Sep 2021 14:48:12.980    8 Sep 2021 15:18:04.602          1791.621
                      14    8 Sep 2021 15:40:44.568    8 Sep 2021 16:10:36.190          1791.621
                      15    8 Sep 2021 16:33:16.157    8 Sep 2021 17:03:07.778          1791.621
                      16    8 Sep 2021 17:25:47.745    8 Sep 2021 17:55:39.366          1791.621
                      17    8 Sep 2021 18:18:19.333    8 Sep 2021 18:48:10.954          1791.621
                      18    8 Sep 2021 19:10:50.921    8 Sep 2021 19:40:42.543          1791.621
                      19    8 Sep 2021 20:03:22.509    8 Sep 2021 20:33:14.131          1791.621
                      20    8 Sep 2021 20:55:54.098    8 Sep 2021 21:25:45.718          1791.620
                      21    8 Sep 2021 21:48:25.690    8 Sep 2021 22:18:17.306          1791.617
                      22    8 Sep 2021 22:40:57.278    8 Sep 2021 23:10:48.894          1791.617
                      23    8 Sep 2021 23:33:28.866    9 Sep 2021 00:03:20.487          1791.621
                      24    9 Sep 2021 00:26:00.454    9 Sep 2021 00:55:52.076          1791.621
                      25    9 Sep 2021 01:18:32.043    9 Sep 2021 01:48:23.664          1791.621
                      26    9 Sep 2021 02:11:03.631    9 Sep 2021 02:40:55.252          1791.621
                      27    9 Sep 2021 03:03:35.219    9 Sep 2021 03:33:26.840          1791.621
                      28    9 Sep 2021 03:56:06.807    9 Sep 2021 04:00:00.000           233.193

Min Duration          28    9 Sep 2021 03:56:06.807    9 Sep 2021 04:00:00.000           233.193
Max Duration          19    8 Sep 2021 20:03:22.509    8 Sep 2021 20:33:14.131          1791.621
Mean Duration                                                                           1735.963
Total Duration                                                                         48606.952


Satellite706-To-Satellite105
----------------------------
                  Access       Start Time (UTCG)           Stop Time (UTCG)       Duration (sec)
                  ------    -----------------------    -----------------------    --------------
                       1    8 Sep 2021 04:08:43.921    8 Sep 2021 04:46:25.223          2261.302
                       2    8 Sep 2021 05:01:15.510    8 Sep 2021 05:38:56.811          2261.302
                       3    8 Sep 2021 05:53:47.098    8 Sep 2021 06:31:28.400          2261.302
                       4    8 Sep 2021 06:46:18.687    8 Sep 2021 07:23:59.988          2261.302
                       5    8 Sep 2021 07:38:50.275    8 Sep 2021 08:16:31.577          2261.302
                       6    8 Sep 2021 08:31:21.863    8 Sep 2021 09:09:03.165          2261.302
                       7    8 Sep 2021 09:23:53.452    8 Sep 2021 10:01:34.753          2261.302
                       8    8 Sep 2021 10:16:25.040    8 Sep 2021 10:54:06.342          2261.302
                       9    8 Sep 2021 11:08:56.629    8 Sep 2021 11:46:37.930          2261.302
                      10    8 Sep 2021 12:01:28.217    8 Sep 2021 12:39:09.519          2261.302
                      11    8 Sep 2021 12:53:59.805    8 Sep 2021 13:31:41.107          2261.302
                      12    8 Sep 2021 13:46:31.394    8 Sep 2021 14:24:12.695          2261.302
                      13    8 Sep 2021 14:39:02.982    8 Sep 2021 15:16:44.284          2261.302
                      14    8 Sep 2021 15:31:34.570    8 Sep 2021 16:09:15.872          2261.302
                      15    8 Sep 2021 16:24:06.159    8 Sep 2021 17:01:47.461          2261.302
                      16    8 Sep 2021 17:16:37.747    8 Sep 2021 17:54:19.049          2261.302
                      17    8 Sep 2021 18:09:09.336    8 Sep 2021 18:46:50.637          2261.302
                      18    8 Sep 2021 19:01:40.924    8 Sep 2021 19:39:22.226          2261.302
                      19    8 Sep 2021 19:54:12.512    8 Sep 2021 20:31:53.814          2261.302
                      20    8 Sep 2021 20:46:44.101    8 Sep 2021 21:24:25.402          2261.302
                      21    8 Sep 2021 21:39:15.689    8 Sep 2021 22:16:56.991          2261.302
                      22    8 Sep 2021 22:31:47.278    8 Sep 2021 23:09:28.579          2261.302
                      23    8 Sep 2021 23:24:18.866    9 Sep 2021 00:02:00.168          2261.302
                      24    9 Sep 2021 00:16:50.454    9 Sep 2021 00:54:31.756          2261.302
                      25    9 Sep 2021 01:09:22.043    9 Sep 2021 01:47:03.344          2261.302
                      26    9 Sep 2021 02:01:53.631    9 Sep 2021 02:39:34.933          2261.302
                      27    9 Sep 2021 02:54:25.220    9 Sep 2021 03:32:06.521          2261.302
                      28    9 Sep 2021 03:46:56.808    9 Sep 2021 04:00:00.000           783.192

Min Duration          28    9 Sep 2021 03:46:56.808    9 Sep 2021 04:00:00.000           783.192
Max Duration           1    8 Sep 2021 04:08:43.921    8 Sep 2021 04:46:25.223          2261.302
Mean Duration                                                                           2208.512
Total Duration                                                                         61838.336


Satellite706-To-Satellite106
----------------------------
                  Access       Start Time (UTCG)           Stop Time (UTCG)       Duration (sec)
                  ------    -----------------------    -----------------------    --------------
                       1    8 Sep 2021 04:07:26.243    8 Sep 2021 04:37:12.586          1786.343
                       2    8 Sep 2021 04:59:57.827    8 Sep 2021 05:29:44.173          1786.346
                       3    8 Sep 2021 05:52:29.418    8 Sep 2021 06:22:15.763          1786.345
                       4    8 Sep 2021 06:45:01.004    8 Sep 2021 07:14:47.350          1786.346
                       5    8 Sep 2021 07:37:32.595    8 Sep 2021 08:07:18.940          1786.345
                       6    8 Sep 2021 08:30:04.181    8 Sep 2021 08:59:50.527          1786.346
                       7    8 Sep 2021 09:22:35.772    8 Sep 2021 09:52:22.117          1786.344
                       8    8 Sep 2021 10:15:07.358    8 Sep 2021 10:44:53.704          1786.346
                       9    8 Sep 2021 11:07:38.949    8 Sep 2021 11:37:25.294          1786.344
                      10    8 Sep 2021 12:00:10.535    8 Sep 2021 12:29:56.881          1786.347
                      11    8 Sep 2021 12:52:42.126    8 Sep 2021 13:22:28.470          1786.344
                      12    8 Sep 2021 13:45:13.711    8 Sep 2021 14:15:00.058          1786.347
                      13    8 Sep 2021 14:37:45.303    8 Sep 2021 15:07:31.647          1786.344
                      14    8 Sep 2021 15:30:16.888    8 Sep 2021 16:00:03.235          1786.347
                      15    8 Sep 2021 16:22:48.480    8 Sep 2021 16:52:34.824          1786.344
                      16    8 Sep 2021 17:15:20.065    8 Sep 2021 17:45:06.412          1786.347
                      17    8 Sep 2021 18:07:51.657    8 Sep 2021 18:37:38.001          1786.344
                      18    8 Sep 2021 19:00:23.242    8 Sep 2021 19:30:09.588          1786.347
                      19    8 Sep 2021 19:52:54.833    8 Sep 2021 20:22:41.177          1786.344
                      20    8 Sep 2021 20:45:26.419    8 Sep 2021 21:15:12.765          1786.347
                      21    8 Sep 2021 21:37:58.010    8 Sep 2021 22:07:44.354          1786.344
                      22    8 Sep 2021 22:30:29.595    8 Sep 2021 23:00:15.942          1786.347
                      23    8 Sep 2021 23:23:01.187    8 Sep 2021 23:52:47.531          1786.344
                      24    9 Sep 2021 00:15:32.772    9 Sep 2021 00:45:19.119          1786.347
                      25    9 Sep 2021 01:08:04.364    9 Sep 2021 01:37:50.708          1786.344
                      26    9 Sep 2021 02:00:35.949    9 Sep 2021 02:30:22.296          1786.347
                      27    9 Sep 2021 02:53:07.541    9 Sep 2021 03:22:53.885          1786.344
                      28    9 Sep 2021 03:45:39.126    9 Sep 2021 04:00:00.000           860.874

Min Duration          28    9 Sep 2021 03:45:39.126    9 Sep 2021 04:00:00.000           860.874
Max Duration          26    9 Sep 2021 02:00:35.949    9 Sep 2021 02:30:22.296          1786.347
Mean Duration                                                                           1753.293
Total Duration                                                                         49092.197


Satellite706-To-Satellite107
----------------------------
                  Access       Start Time (UTCG)           Stop Time (UTCG)       Duration (sec)
                  ------    -----------------------    -----------------------    --------------
                       1    8 Sep 2021 04:13:06.934    8 Sep 2021 04:21:01.574           474.639
                       2    8 Sep 2021 05:05:38.523    8 Sep 2021 05:13:33.162           474.639
                       3    8 Sep 2021 05:58:10.111    8 Sep 2021 06:06:04.747           474.637
                       4    8 Sep 2021 06:50:41.699    8 Sep 2021 06:58:36.339           474.640
                       5    8 Sep 2021 07:43:13.288    8 Sep 2021 07:51:07.927           474.639
                       6    8 Sep 2021 08:35:44.877    8 Sep 2021 08:43:39.514           474.637
                       7    8 Sep 2021 09:28:16.468    8 Sep 2021 09:36:11.103           474.635
                       8    8 Sep 2021 10:20:48.057    8 Sep 2021 10:28:42.692           474.635
                       9    8 Sep 2021 11:13:19.641    8 Sep 2021 11:21:14.277           474.636
                      10    8 Sep 2021 12:05:51.233    8 Sep 2021 12:13:45.867           474.634
                      11    8 Sep 2021 12:58:22.818    8 Sep 2021 13:06:17.456           474.638
                      12    8 Sep 2021 13:50:54.406    8 Sep 2021 13:58:49.046           474.640
                      13    8 Sep 2021 14:43:25.995    8 Sep 2021 14:51:20.634           474.639
                      14    8 Sep 2021 15:35:57.585    8 Sep 2021 15:43:52.221           474.637
                      15    8 Sep 2021 16:28:29.174    8 Sep 2021 16:36:23.811           474.636
                      16    8 Sep 2021 17:21:00.761    8 Sep 2021 17:28:55.400           474.638
                      17    8 Sep 2021 18:13:32.348    8 Sep 2021 18:21:26.986           474.638
                      18    8 Sep 2021 19:06:03.941    8 Sep 2021 19:13:58.572           474.630
                      19    8 Sep 2021 19:58:35.527    8 Sep 2021 20:06:30.165           474.638
                      20    8 Sep 2021 20:51:07.113    8 Sep 2021 20:59:01.753           474.640
                      21    8 Sep 2021 21:43:38.702    8 Sep 2021 21:51:33.341           474.639
                      22    8 Sep 2021 22:36:10.292    8 Sep 2021 22:44:04.929           474.636
                      23    8 Sep 2021 23:28:41.882    8 Sep 2021 23:36:36.518           474.636
                      24    9 Sep 2021 00:21:13.468    9 Sep 2021 00:29:08.107           474.639
                      25    9 Sep 2021 01:13:45.055    9 Sep 2021 01:21:39.695           474.639
                      26    9 Sep 2021 02:06:16.644    9 Sep 2021 02:14:11.279           474.635
                      27    9 Sep 2021 02:58:48.236    9 Sep 2021 03:06:42.872           474.635
                      28    9 Sep 2021 03:51:19.821    9 Sep 2021 03:59:14.460           474.640

Min Duration          18    8 Sep 2021 19:06:03.941    8 Sep 2021 19:13:58.572           474.630
Max Duration           4    8 Sep 2021 06:50:41.699    8 Sep 2021 06:58:36.339           474.640
Mean Duration                                                                            474.637
Total Duration                                                                         13289.843


Satellite706-To-Satellite201
----------------------------
                  Access       Start Time (UTCG)           Stop Time (UTCG)       Duration (sec)
                  ------    -----------------------    -----------------------    --------------
                       1    8 Sep 2021 04:44:58.622    8 Sep 2021 04:50:53.006           354.384
                       2    8 Sep 2021 05:37:30.206    8 Sep 2021 05:43:24.595           354.389
                       3    8 Sep 2021 06:30:01.795    8 Sep 2021 06:35:56.178           354.384
                       4    8 Sep 2021 07:22:33.386    8 Sep 2021 07:28:27.770           354.384
                       5    8 Sep 2021 08:15:04.976    8 Sep 2021 08:20:59.360           354.384
                       6    8 Sep 2021 09:07:36.562    8 Sep 2021 09:13:30.948           354.386
                       7    8 Sep 2021 10:00:08.149    8 Sep 2021 10:06:02.534           354.385
                       8    8 Sep 2021 10:52:39.740    8 Sep 2021 10:58:34.125           354.385
                       9    8 Sep 2021 11:45:11.325    8 Sep 2021 11:51:05.713           354.388
                      10    8 Sep 2021 12:37:42.913    8 Sep 2021 12:43:37.297           354.384
                      11    8 Sep 2021 13:30:14.505    8 Sep 2021 13:36:08.889           354.384
                      12    8 Sep 2021 14:22:46.094    8 Sep 2021 14:28:40.479           354.384
                      13    8 Sep 2021 15:15:17.679    8 Sep 2021 15:21:12.067           354.387
                      14    8 Sep 2021 16:07:49.267    8 Sep 2021 16:13:43.652           354.385
                      15    8 Sep 2021 17:00:20.859    8 Sep 2021 17:06:15.243           354.385
                      16    8 Sep 2021 17:52:52.444    8 Sep 2021 17:58:46.832           354.389
                      17    8 Sep 2021 18:45:24.032    8 Sep 2021 18:51:18.416           354.384
                      18    8 Sep 2021 19:37:55.623    8 Sep 2021 19:43:50.008           354.385
                      19    8 Sep 2021 20:30:27.213    8 Sep 2021 20:36:21.597           354.385
                      20    8 Sep 2021 21:22:58.799    8 Sep 2021 21:28:53.186           354.386
                      21    8 Sep 2021 22:15:30.386    8 Sep 2021 22:21:24.771           354.385
                      22    8 Sep 2021 23:08:01.977    8 Sep 2021 23:13:56.362           354.385
                      23    9 Sep 2021 00:00:33.562    9 Sep 2021 00:06:27.951           354.389
                      24    9 Sep 2021 00:53:05.151    9 Sep 2021 00:58:59.537           354.386
                      25    9 Sep 2021 01:45:36.742    9 Sep 2021 01:51:31.127           354.385
                      26    9 Sep 2021 02:38:08.331    9 Sep 2021 02:44:02.716           354.385
                      27    9 Sep 2021 03:30:39.918    9 Sep 2021 03:36:34.304           354.387

Min Duration          17    8 Sep 2021 18:45:24.032    8 Sep 2021 18:51:18.416           354.384
Max Duration          16    8 Sep 2021 17:52:52.444    8 Sep 2021 17:58:46.832           354.389
Mean Duration                                                                            354.385
Total Duration                                                                          9568.406


Satellite706-To-Satellite202
----------------------------
                  Access       Start Time (UTCG)           Stop Time (UTCG)       Duration (sec)
                  ------    -----------------------    -----------------------    --------------
                       1    8 Sep 2021 04:33:08.189    8 Sep 2021 04:52:13.119          1144.930
                       2    8 Sep 2021 05:25:39.779    8 Sep 2021 05:44:44.705          1144.926
                       3    8 Sep 2021 06:18:11.368    8 Sep 2021 06:37:16.294          1144.926
                       4    8 Sep 2021 07:10:42.956    8 Sep 2021 07:29:47.881          1144.925
                       5    8 Sep 2021 08:03:14.544    8 Sep 2021 08:22:19.471          1144.927
                       6    8 Sep 2021 08:55:46.128    8 Sep 2021 09:14:51.060          1144.931
                       7    8 Sep 2021 09:48:17.717    8 Sep 2021 10:07:22.648          1144.930
                       8    8 Sep 2021 10:40:49.306    8 Sep 2021 10:59:54.236          1144.930
                       9    8 Sep 2021 11:33:20.895    8 Sep 2021 11:52:25.825          1144.930
                      10    8 Sep 2021 12:25:52.484    8 Sep 2021 12:44:57.413          1144.929
                      11    8 Sep 2021 13:18:24.072    8 Sep 2021 13:37:29.001          1144.929
                      12    8 Sep 2021 14:10:55.661    8 Sep 2021 14:30:00.590          1144.929
                      13    8 Sep 2021 15:03:27.249    8 Sep 2021 15:22:32.178          1144.929
                      14    8 Sep 2021 15:55:58.837    8 Sep 2021 16:15:03.767          1144.929
                      15    8 Sep 2021 16:48:30.426    8 Sep 2021 17:07:35.355          1144.929
                      16    8 Sep 2021 17:41:02.014    8 Sep 2021 18:00:06.943          1144.929
                      17    8 Sep 2021 18:33:33.603    8 Sep 2021 18:52:38.532          1144.929
                      18    8 Sep 2021 19:26:05.191    8 Sep 2021 19:45:10.120          1144.929
                      19    8 Sep 2021 20:18:36.780    8 Sep 2021 20:37:41.709          1144.929
                      20    8 Sep 2021 21:11:08.368    8 Sep 2021 21:30:13.297          1144.929
                      21    8 Sep 2021 22:03:39.956    8 Sep 2021 22:22:44.885          1144.929
                      22    8 Sep 2021 22:56:11.545    8 Sep 2021 23:15:16.474          1144.929
                      23    8 Sep 2021 23:48:43.133    9 Sep 2021 00:07:48.062          1144.929
                      24    9 Sep 2021 00:41:14.722    9 Sep 2021 01:00:19.651          1144.929
                      25    9 Sep 2021 01:33:46.310    9 Sep 2021 01:52:51.239          1144.929
                      26    9 Sep 2021 02:26:17.898    9 Sep 2021 02:45:22.827          1144.929
                      27    9 Sep 2021 03:18:49.487    9 Sep 2021 03:37:54.416          1144.929

Min Duration           4    8 Sep 2021 07:10:42.956    8 Sep 2021 07:29:47.881          1144.925
Max Duration           6    8 Sep 2021 08:55:46.128    8 Sep 2021 09:14:51.060          1144.931
Mean Duration                                                                           1144.929
Total Duration                                                                         30913.079


Satellite706-To-Satellite203
----------------------------
                  Access       Start Time (UTCG)           Stop Time (UTCG)       Duration (sec)
                  ------    -----------------------    -----------------------    --------------
                       1    8 Sep 2021 04:25:02.867    8 Sep 2021 04:49:48.126          1485.259
                       2    8 Sep 2021 05:17:34.451    8 Sep 2021 05:42:19.710          1485.259
                       3    8 Sep 2021 06:10:06.043    8 Sep 2021 06:34:51.302          1485.260
                       4    8 Sep 2021 07:02:37.630    8 Sep 2021 07:27:22.887          1485.257
                       5    8 Sep 2021 07:55:09.219    8 Sep 2021 08:19:54.479          1485.260
                       6    8 Sep 2021 08:47:40.809    8 Sep 2021 09:12:26.064          1485.255
                       7    8 Sep 2021 09:40:12.396    8 Sep 2021 10:04:57.656          1485.260
                       8    8 Sep 2021 10:32:43.986    8 Sep 2021 10:57:29.240          1485.254
                       9    8 Sep 2021 11:25:15.573    8 Sep 2021 11:50:00.832          1485.260
                      10    8 Sep 2021 12:17:47.163    8 Sep 2021 12:42:32.417          1485.254
                      11    8 Sep 2021 13:10:18.749    8 Sep 2021 13:35:04.009          1485.260
                      12    8 Sep 2021 14:02:50.340    8 Sep 2021 14:27:35.594          1485.254
                      13    8 Sep 2021 14:55:21.926    8 Sep 2021 15:20:07.186          1485.260
                      14    8 Sep 2021 15:47:53.517    8 Sep 2021 16:12:38.771          1485.254
                      15    8 Sep 2021 16:40:25.103    8 Sep 2021 17:05:10.363          1485.260
                      16    8 Sep 2021 17:32:56.693    8 Sep 2021 17:57:41.948          1485.254
                      17    8 Sep 2021 18:25:28.280    8 Sep 2021 18:50:13.540          1485.260
                      18    8 Sep 2021 19:17:59.870    8 Sep 2021 19:42:45.124          1485.254
                      19    8 Sep 2021 20:10:31.456    8 Sep 2021 20:35:16.716          1485.260
                      20    8 Sep 2021 21:03:03.047    8 Sep 2021 21:27:48.301          1485.254
                      21    8 Sep 2021 21:55:34.633    8 Sep 2021 22:20:19.893          1485.260
                      22    8 Sep 2021 22:48:06.224    8 Sep 2021 23:12:51.478          1485.254
                      23    8 Sep 2021 23:40:37.810    9 Sep 2021 00:05:23.070          1485.260
                      24    9 Sep 2021 00:33:09.400    9 Sep 2021 00:57:54.655          1485.254
                      25    9 Sep 2021 01:25:40.987    9 Sep 2021 01:50:26.247          1485.260
                      26    9 Sep 2021 02:18:12.577    9 Sep 2021 02:42:57.831          1485.254
                      27    9 Sep 2021 03:10:44.164    9 Sep 2021 03:35:29.424          1485.260

Min Duration          18    8 Sep 2021 19:17:59.870    8 Sep 2021 19:42:45.124          1485.254
Max Duration          25    9 Sep 2021 01:25:40.987    9 Sep 2021 01:50:26.247          1485.260
Mean Duration                                                                           1485.257
Total Duration                                                                         40101.951


Satellite706-To-Satellite204
----------------------------
                  Access       Start Time (UTCG)           Stop Time (UTCG)       Duration (sec)
                  ------    -----------------------    -----------------------    --------------
                       1    8 Sep 2021 04:19:44.721    8 Sep 2021 04:44:35.954          1491.234
                       2    8 Sep 2021 05:12:16.305    8 Sep 2021 05:37:07.539          1491.234
                       3    8 Sep 2021 06:04:47.897    8 Sep 2021 06:29:39.131          1491.234
                       4    8 Sep 2021 06:57:19.482    8 Sep 2021 07:22:10.716          1491.234
                       5    8 Sep 2021 07:49:51.074    8 Sep 2021 08:14:42.308          1491.234
                       6    8 Sep 2021 08:42:22.659    8 Sep 2021 09:07:13.892          1491.234
                       7    8 Sep 2021 09:34:54.251    8 Sep 2021 09:59:45.485          1491.234
                       8    8 Sep 2021 10:27:25.835    8 Sep 2021 10:52:17.069          1491.234
                       9    8 Sep 2021 11:19:57.428    8 Sep 2021 11:44:48.662          1491.234
                      10    8 Sep 2021 12:12:29.012    8 Sep 2021 12:37:20.246          1491.234
                      11    8 Sep 2021 13:05:00.604    8 Sep 2021 13:29:51.838          1491.234
                      12    8 Sep 2021 13:57:32.189    8 Sep 2021 14:22:23.423          1491.234
                      13    8 Sep 2021 14:50:03.781    8 Sep 2021 15:14:55.015          1491.234
                      14    8 Sep 2021 15:42:35.366    8 Sep 2021 16:07:26.600          1491.234
                      15    8 Sep 2021 16:35:06.958    8 Sep 2021 16:59:58.192          1491.234
                      16    8 Sep 2021 17:27:38.543    8 Sep 2021 17:52:29.776          1491.234
                      17    8 Sep 2021 18:20:10.135    8 Sep 2021 18:45:01.369          1491.234
                      18    8 Sep 2021 19:12:41.719    8 Sep 2021 19:37:32.953          1491.234
                      19    8 Sep 2021 20:05:13.312    8 Sep 2021 20:30:04.546          1491.234
                      20    8 Sep 2021 20:57:44.896    8 Sep 2021 21:22:36.130          1491.234
                      21    8 Sep 2021 21:50:16.488    8 Sep 2021 22:15:07.722          1491.234
                      22    8 Sep 2021 22:42:48.073    8 Sep 2021 23:07:39.307          1491.234
                      23    8 Sep 2021 23:35:19.665    9 Sep 2021 00:00:10.899          1491.234
                      24    9 Sep 2021 00:27:51.250    9 Sep 2021 00:52:42.484          1491.234
                      25    9 Sep 2021 01:20:22.842    9 Sep 2021 01:45:14.076          1491.234
                      26    9 Sep 2021 02:12:54.426    9 Sep 2021 02:37:45.660          1491.234
                      27    9 Sep 2021 03:05:26.019    9 Sep 2021 03:30:17.253          1491.234
                      28    9 Sep 2021 03:57:57.603    9 Sep 2021 04:00:00.000           122.397

Min Duration          28    9 Sep 2021 03:57:57.603    9 Sep 2021 04:00:00.000           122.397
Max Duration          25    9 Sep 2021 01:20:22.842    9 Sep 2021 01:45:14.076          1491.234
Mean Duration                                                                           1442.347
Total Duration                                                                         40385.714


Satellite706-To-Satellite205
----------------------------
                  Access       Start Time (UTCG)           Stop Time (UTCG)       Duration (sec)
                  ------    -----------------------    -----------------------    --------------
                       1    8 Sep 2021 04:17:13.145    8 Sep 2021 04:36:37.208          1164.064
                       2    8 Sep 2021 05:09:44.730    8 Sep 2021 05:29:08.796          1164.066
                       3    8 Sep 2021 06:02:16.323    8 Sep 2021 06:21:40.384          1164.061
                       4    8 Sep 2021 06:54:47.910    8 Sep 2021 07:14:11.972          1164.062
                       5    8 Sep 2021 07:47:19.499    8 Sep 2021 08:06:43.563          1164.064
                       6    8 Sep 2021 08:39:51.088    8 Sep 2021 08:59:15.151          1164.062
                       7    8 Sep 2021 09:32:22.674    8 Sep 2021 09:51:46.738          1164.064
                       8    8 Sep 2021 10:24:54.263    8 Sep 2021 10:44:18.327          1164.063
                       9    8 Sep 2021 11:17:25.852    8 Sep 2021 11:36:49.917          1164.065
                      10    8 Sep 2021 12:09:57.442    8 Sep 2021 12:29:21.504          1164.062
                      11    8 Sep 2021 13:02:29.029    8 Sep 2021 13:21:53.092          1164.064
                      12    8 Sep 2021 13:55:00.617    8 Sep 2021 14:14:24.680          1164.063
                      13    8 Sep 2021 14:47:32.205    8 Sep 2021 15:06:56.269          1164.064
                      14    8 Sep 2021 15:40:03.795    8 Sep 2021 15:59:27.856          1164.061
                      15    8 Sep 2021 16:32:35.383    8 Sep 2021 16:51:59.445          1164.062
                      16    8 Sep 2021 17:25:06.971    8 Sep 2021 17:44:31.035          1164.064
                      17    8 Sep 2021 18:17:38.560    8 Sep 2021 18:37:02.623          1164.063
                      18    8 Sep 2021 19:10:10.146    8 Sep 2021 19:29:34.211          1164.064
                      19    8 Sep 2021 20:02:41.736    8 Sep 2021 20:22:05.799          1164.063
                      20    8 Sep 2021 20:55:13.324    8 Sep 2021 21:14:37.389          1164.065
                      21    8 Sep 2021 21:47:44.914    8 Sep 2021 22:07:08.976          1164.062
                      22    8 Sep 2021 22:40:16.501    8 Sep 2021 22:59:40.565          1164.064
                      23    8 Sep 2021 23:32:48.089    8 Sep 2021 23:52:12.153          1164.063
                      24    9 Sep 2021 00:25:19.677    9 Sep 2021 00:44:43.741          1164.064
                      25    9 Sep 2021 01:17:51.268    9 Sep 2021 01:37:15.328          1164.061
                      26    9 Sep 2021 02:10:22.855    9 Sep 2021 02:29:46.917          1164.062
                      27    9 Sep 2021 03:02:54.443    9 Sep 2021 03:22:18.507          1164.064
                      28    9 Sep 2021 03:55:26.033    9 Sep 2021 04:00:00.000           273.967

Min Duration          28    9 Sep 2021 03:55:26.033    9 Sep 2021 04:00:00.000           273.967
Max Duration           2    8 Sep 2021 05:09:44.730    8 Sep 2021 05:29:08.796          1164.066
Mean Duration                                                                           1132.274
Total Duration                                                                         31703.675


Satellite706-To-Satellite206
----------------------------
                  Access       Start Time (UTCG)           Stop Time (UTCG)       Duration (sec)
                  ------    -----------------------    -----------------------    --------------
                       1    8 Sep 2021 04:18:09.198    8 Sep 2021 04:25:10.839           421.641
                       2    8 Sep 2021 05:10:40.784    8 Sep 2021 05:17:42.427           421.643
                       3    8 Sep 2021 06:03:12.377    8 Sep 2021 06:10:14.016           421.639
                       4    8 Sep 2021 06:55:43.961    8 Sep 2021 07:02:45.605           421.644
                       5    8 Sep 2021 07:48:15.553    8 Sep 2021 07:55:17.193           421.640
                       6    8 Sep 2021 08:40:47.138    8 Sep 2021 08:47:48.782           421.644
                       7    8 Sep 2021 09:33:18.729    8 Sep 2021 09:40:20.369           421.641
                       8    8 Sep 2021 10:25:50.315    8 Sep 2021 10:32:51.959           421.644
                       9    8 Sep 2021 11:18:21.905    8 Sep 2021 11:25:23.547           421.642
                      10    8 Sep 2021 12:10:53.492    8 Sep 2021 12:17:55.135           421.643
                      11    8 Sep 2021 13:03:25.081    8 Sep 2021 13:10:26.724           421.643
                      12    8 Sep 2021 13:55:56.669    8 Sep 2021 14:02:58.312           421.643
                      13    8 Sep 2021 14:48:28.257    8 Sep 2021 14:55:29.901           421.644
                      14    8 Sep 2021 15:40:59.848    8 Sep 2021 15:48:01.489           421.641
                      15    8 Sep 2021 16:33:31.433    8 Sep 2021 16:40:33.077           421.644
                      16    8 Sep 2021 17:26:03.024    8 Sep 2021 17:33:04.665           421.641
                      17    8 Sep 2021 18:18:34.610    8 Sep 2021 18:25:36.253           421.643
                      18    8 Sep 2021 19:11:06.203    8 Sep 2021 19:18:07.842           421.639
                      19    8 Sep 2021 20:03:37.787    8 Sep 2021 20:10:39.431           421.644
                      20    8 Sep 2021 20:56:09.379    8 Sep 2021 21:03:11.019           421.640
                      21    8 Sep 2021 21:48:40.964    8 Sep 2021 21:55:42.608           421.644
                      22    8 Sep 2021 22:41:12.555    8 Sep 2021 22:48:14.195           421.641
                      23    8 Sep 2021 23:33:44.141    8 Sep 2021 23:40:45.784           421.644
                      24    9 Sep 2021 00:26:15.730    9 Sep 2021 00:33:17.373           421.642
                      25    9 Sep 2021 01:18:47.318    9 Sep 2021 01:25:48.961           421.643
                      26    9 Sep 2021 02:11:18.906    9 Sep 2021 02:18:20.550           421.643
                      27    9 Sep 2021 03:03:50.497    9 Sep 2021 03:10:52.138           421.641
                      28    9 Sep 2021 03:56:22.083    9 Sep 2021 04:00:00.000           217.917

Min Duration          28    9 Sep 2021 03:56:22.083    9 Sep 2021 04:00:00.000           217.917
Max Duration           4    8 Sep 2021 06:55:43.961    8 Sep 2021 07:02:45.605           421.644
Mean Duration                                                                            414.366
Total Duration                                                                         11602.259


Satellite706-To-Satellite301
----------------------------
                  Access       Start Time (UTCG)           Stop Time (UTCG)       Duration (sec)
                  ------    -----------------------    -----------------------    --------------
                       1    8 Sep 2021 04:00:00.000    8 Sep 2021 04:06:03.636           363.636
                       2    8 Sep 2021 04:35:57.615    8 Sep 2021 04:58:35.224          1357.610
                       3    8 Sep 2021 05:28:29.203    8 Sep 2021 05:51:06.812          1357.610
                       4    8 Sep 2021 06:21:00.791    8 Sep 2021 06:43:38.401          1357.610
                       5    8 Sep 2021 07:13:32.379    8 Sep 2021 07:36:09.989          1357.610
                       6    8 Sep 2021 08:06:03.967    8 Sep 2021 08:28:41.578          1357.610
                       7    8 Sep 2021 08:58:35.556    8 Sep 2021 09:21:13.166          1357.610
                       8    8 Sep 2021 09:51:07.144    8 Sep 2021 10:13:44.754          1357.610
                       9    8 Sep 2021 10:43:38.733    8 Sep 2021 11:06:16.343          1357.610
                      10    8 Sep 2021 11:36:10.321    8 Sep 2021 11:58:47.931          1357.610
                      11    8 Sep 2021 12:28:41.909    8 Sep 2021 12:51:19.519          1357.610
                      12    8 Sep 2021 13:21:13.498    8 Sep 2021 13:43:51.108          1357.610
                      13    8 Sep 2021 14:13:45.086    8 Sep 2021 14:36:22.696          1357.610
                      14    8 Sep 2021 15:06:16.675    8 Sep 2021 15:28:54.285          1357.610
                      15    8 Sep 2021 15:58:48.263    8 Sep 2021 16:21:25.873          1357.610
                      16    8 Sep 2021 16:51:19.851    8 Sep 2021 17:13:57.461          1357.610
                      17    8 Sep 2021 17:43:51.440    8 Sep 2021 18:06:29.050          1357.610
                      18    8 Sep 2021 18:36:23.028    8 Sep 2021 18:59:00.638          1357.610
                      19    8 Sep 2021 19:28:54.616    8 Sep 2021 19:51:32.227          1357.610
                      20    8 Sep 2021 20:21:26.205    8 Sep 2021 20:44:03.815          1357.610
                      21    8 Sep 2021 21:13:57.793    8 Sep 2021 21:36:35.403          1357.610
                      22    8 Sep 2021 22:06:29.382    8 Sep 2021 22:29:06.992          1357.610
                      23    8 Sep 2021 22:59:00.970    8 Sep 2021 23:21:38.580          1357.610
                      24    8 Sep 2021 23:51:32.558    9 Sep 2021 00:14:10.169          1357.610
                      25    9 Sep 2021 00:44:04.147    9 Sep 2021 01:06:41.757          1357.610
                      26    9 Sep 2021 01:36:35.735    9 Sep 2021 01:59:13.345          1357.610
                      27    9 Sep 2021 02:29:07.324    9 Sep 2021 02:51:44.934          1357.610
                      28    9 Sep 2021 03:21:38.912    9 Sep 2021 03:44:16.522          1357.610

Min Duration           1    8 Sep 2021 04:00:00.000    8 Sep 2021 04:06:03.636           363.636
Max Duration          12    8 Sep 2021 13:21:13.498    8 Sep 2021 13:43:51.108          1357.610
Mean Duration                                                                           1322.111
Total Duration                                                                         37019.109


Satellite706-To-Satellite302
----------------------------
                  Access       Start Time (UTCG)           Stop Time (UTCG)       Duration (sec)
                  ------    -----------------------    -----------------------    --------------
                       1    8 Sep 2021 04:00:00.000    8 Sep 2021 04:00:48.482            48.482
                       2    8 Sep 2021 04:30:42.451    8 Sep 2021 04:53:20.066          1357.615
                       3    8 Sep 2021 05:23:14.035    8 Sep 2021 05:45:51.654          1357.620
                       4    8 Sep 2021 06:15:45.623    8 Sep 2021 06:38:23.243          1357.620
                       5    8 Sep 2021 07:08:17.212    8 Sep 2021 07:30:54.832          1357.620
                       6    8 Sep 2021 08:00:48.800    8 Sep 2021 08:23:26.420          1357.620
                       7    8 Sep 2021 08:53:20.392    8 Sep 2021 09:15:58.012          1357.620
                       8    8 Sep 2021 09:45:51.981    8 Sep 2021 10:08:29.600          1357.620
                       9    8 Sep 2021 10:38:23.569    8 Sep 2021 11:01:01.189          1357.620
                      10    8 Sep 2021 11:30:55.157    8 Sep 2021 11:53:32.777          1357.620
                      11    8 Sep 2021 12:23:26.746    8 Sep 2021 12:46:04.365          1357.620
                      12    8 Sep 2021 13:15:58.334    8 Sep 2021 13:38:35.954          1357.620
                      13    8 Sep 2021 14:08:29.923    8 Sep 2021 14:31:07.542          1357.620
                      14    8 Sep 2021 15:01:01.511    8 Sep 2021 15:23:39.131          1357.620
                      15    8 Sep 2021 15:53:33.099    8 Sep 2021 16:16:10.719          1357.620
                      16    8 Sep 2021 16:46:04.688    8 Sep 2021 17:08:42.307          1357.620
                      17    8 Sep 2021 17:38:36.276    8 Sep 2021 18:01:13.896          1357.620
                      18    8 Sep 2021 18:31:07.865    8 Sep 2021 18:53:45.484          1357.620
                      19    8 Sep 2021 19:23:39.453    8 Sep 2021 19:46:17.073          1357.620
                      20    8 Sep 2021 20:16:11.041    8 Sep 2021 20:38:48.661          1357.620
                      21    8 Sep 2021 21:08:42.630    8 Sep 2021 21:31:20.249          1357.620
                      22    8 Sep 2021 22:01:14.218    8 Sep 2021 22:23:51.838          1357.620
                      23    8 Sep 2021 22:53:45.806    8 Sep 2021 23:16:23.426          1357.620
                      24    8 Sep 2021 23:46:17.395    9 Sep 2021 00:08:55.015          1357.620
                      25    9 Sep 2021 00:38:48.983    9 Sep 2021 01:01:26.603          1357.620
                      26    9 Sep 2021 01:31:20.572    9 Sep 2021 01:53:58.191          1357.620
                      27    9 Sep 2021 02:23:52.160    9 Sep 2021 02:46:29.780          1357.620
                      28    9 Sep 2021 03:16:23.748    9 Sep 2021 03:39:01.368          1357.620

Min Duration           1    8 Sep 2021 04:00:00.000    8 Sep 2021 04:00:48.482            48.482
Max Duration           5    8 Sep 2021 07:08:17.212    8 Sep 2021 07:30:54.832          1357.620
Mean Duration                                                                           1310.865
Total Duration                                                                         36704.209


Satellite706-To-Satellite303
----------------------------
                  Access       Start Time (UTCG)           Stop Time (UTCG)       Duration (sec)
                  ------    -----------------------    -----------------------    --------------
                       1    8 Sep 2021 04:27:24.340    8 Sep 2021 04:46:07.859          1123.519
                       2    8 Sep 2021 05:19:55.926    8 Sep 2021 05:38:39.451          1123.525
                       3    8 Sep 2021 06:12:27.513    8 Sep 2021 06:31:11.037          1123.524
                       4    8 Sep 2021 07:04:59.106    8 Sep 2021 07:23:42.624          1123.518
                       5    8 Sep 2021 07:57:30.695    8 Sep 2021 08:16:14.212          1123.517
                       6    8 Sep 2021 08:50:02.281    8 Sep 2021 09:08:45.802          1123.521
                       7    8 Sep 2021 09:42:33.867    8 Sep 2021 10:01:17.393          1123.526
                       8    8 Sep 2021 10:35:05.455    8 Sep 2021 10:53:48.979          1123.524
                       9    8 Sep 2021 11:27:37.048    8 Sep 2021 11:46:20.566          1123.518
                      10    8 Sep 2021 12:20:08.637    8 Sep 2021 12:38:52.153          1123.517
                      11    8 Sep 2021 13:12:40.223    8 Sep 2021 13:31:23.744          1123.521
                      12    8 Sep 2021 14:05:11.809    8 Sep 2021 14:23:55.335          1123.526
                      13    8 Sep 2021 14:57:43.397    8 Sep 2021 15:16:26.921          1123.524
                      14    8 Sep 2021 15:50:14.990    8 Sep 2021 16:08:58.508          1123.518
                      15    8 Sep 2021 16:42:46.579    8 Sep 2021 17:01:30.095          1123.517
                      16    8 Sep 2021 17:35:18.165    8 Sep 2021 17:54:01.686          1123.521
                      17    8 Sep 2021 18:27:49.751    8 Sep 2021 18:46:33.277          1123.526
                      18    8 Sep 2021 19:20:21.339    8 Sep 2021 19:39:04.863          1123.524
                      19    8 Sep 2021 20:12:52.932    8 Sep 2021 20:31:36.450          1123.518
                      20    8 Sep 2021 21:05:24.521    8 Sep 2021 21:24:08.037          1123.517
                      21    8 Sep 2021 21:57:56.107    8 Sep 2021 22:16:39.628          1123.521
                      22    8 Sep 2021 22:50:27.693    8 Sep 2021 23:09:11.219          1123.526
                      23    8 Sep 2021 23:42:59.281    9 Sep 2021 00:01:42.805          1123.524
                      24    9 Sep 2021 00:35:30.874    9 Sep 2021 00:54:14.392          1123.518
                      25    9 Sep 2021 01:28:02.463    9 Sep 2021 01:46:45.979          1123.517
                      26    9 Sep 2021 02:20:34.049    9 Sep 2021 02:39:17.570          1123.521
                      27    9 Sep 2021 03:13:05.635    9 Sep 2021 03:31:49.161          1123.526

Min Duration          25    9 Sep 2021 01:28:02.463    9 Sep 2021 01:46:45.979          1123.517
Max Duration          27    9 Sep 2021 03:13:05.635    9 Sep 2021 03:31:49.161          1123.526
Mean Duration                                                                           1123.521
Total Duration                                                                         30335.070


Satellite706-To-Satellite304
----------------------------
                  Access       Start Time (UTCG)           Stop Time (UTCG)       Duration (sec)
                  ------    -----------------------    -----------------------    --------------
                       1    8 Sep 2021 04:26:00.276    8 Sep 2021 04:37:01.607           661.331
                       2    8 Sep 2021 05:18:31.863    8 Sep 2021 05:29:33.196           661.332
                       3    8 Sep 2021 06:11:03.451    8 Sep 2021 06:22:04.783           661.332
                       4    8 Sep 2021 07:03:35.039    8 Sep 2021 07:14:36.371           661.332
                       5    8 Sep 2021 07:56:06.631    8 Sep 2021 08:07:07.959           661.328
                       6    8 Sep 2021 08:48:38.220    8 Sep 2021 08:59:39.547           661.327
                       7    8 Sep 2021 09:41:09.809    8 Sep 2021 09:52:11.133           661.325
                       8    8 Sep 2021 10:33:41.396    8 Sep 2021 10:44:42.723           661.326
                       9    8 Sep 2021 11:26:12.984    8 Sep 2021 11:37:14.315           661.331
                      10    8 Sep 2021 12:18:44.571    8 Sep 2021 12:29:45.903           661.332
                      11    8 Sep 2021 13:11:16.158    8 Sep 2021 13:22:17.491           661.332
                      12    8 Sep 2021 14:03:47.746    8 Sep 2021 14:14:49.078           661.332
                      13    8 Sep 2021 14:56:19.339    8 Sep 2021 15:07:20.666           661.327
                      14    8 Sep 2021 15:48:50.928    8 Sep 2021 15:59:52.254           661.327
                      15    8 Sep 2021 16:41:22.515    8 Sep 2021 16:52:23.842           661.326
                      16    8 Sep 2021 17:33:54.104    8 Sep 2021 17:44:55.429           661.325
                      17    8 Sep 2021 18:26:25.691    8 Sep 2021 18:37:27.021           661.330
                      18    8 Sep 2021 19:18:57.278    8 Sep 2021 19:29:58.610           661.332
                      19    8 Sep 2021 20:11:28.865    8 Sep 2021 20:22:30.198           661.332
                      20    8 Sep 2021 21:04:00.453    8 Sep 2021 21:15:01.786           661.332
                      21    8 Sep 2021 21:56:32.046    8 Sep 2021 22:07:33.373           661.327
                      22    8 Sep 2021 22:49:03.635    8 Sep 2021 23:00:04.961           661.327
                      23    8 Sep 2021 23:41:35.223    8 Sep 2021 23:52:36.550           661.327
                      24    9 Sep 2021 00:34:06.811    9 Sep 2021 00:45:08.136           661.325
                      25    9 Sep 2021 01:26:38.398    9 Sep 2021 01:37:39.725           661.327
                      26    9 Sep 2021 02:19:09.986    9 Sep 2021 02:30:11.317           661.331
                      27    9 Sep 2021 03:11:41.573    9 Sep 2021 03:22:42.905           661.332

Min Duration           7    8 Sep 2021 09:41:09.809    8 Sep 2021 09:52:11.133           661.325
Max Duration          11    8 Sep 2021 13:11:16.158    8 Sep 2021 13:22:17.491           661.332
Mean Duration                                                                            661.329
Total Duration                                                                         17855.890


Satellite706-To-Satellite309
----------------------------
                  Access       Start Time (UTCG)           Stop Time (UTCG)       Duration (sec)
                  ------    -----------------------    -----------------------    --------------
                       1    8 Sep 2021 04:00:00.000    8 Sep 2021 04:10:45.787           645.787
                       2    8 Sep 2021 04:52:16.094    8 Sep 2021 05:03:17.375           661.281
                       3    8 Sep 2021 05:44:47.685    8 Sep 2021 05:55:48.963           661.278
                       4    8 Sep 2021 06:37:19.273    8 Sep 2021 06:48:20.551           661.278
                       5    8 Sep 2021 07:29:50.862    8 Sep 2021 07:40:52.138           661.276
                       6    8 Sep 2021 08:22:22.449    8 Sep 2021 08:33:23.729           661.281
                       7    8 Sep 2021 09:14:54.036    8 Sep 2021 09:25:55.319           661.283
                       8    8 Sep 2021 10:07:25.623    8 Sep 2021 10:18:26.907           661.284
                       9    8 Sep 2021 10:59:57.211    8 Sep 2021 11:10:58.495           661.284
                      10    8 Sep 2021 11:52:28.804    8 Sep 2021 12:03:30.083           661.279
                      11    8 Sep 2021 12:45:00.393    8 Sep 2021 12:56:01.670           661.278
                      12    8 Sep 2021 13:37:31.981    8 Sep 2021 13:48:33.259           661.278
                      13    8 Sep 2021 14:30:03.569    8 Sep 2021 14:41:04.845           661.276
                      14    8 Sep 2021 15:22:35.156    8 Sep 2021 15:33:36.434           661.278
                      15    8 Sep 2021 16:15:06.744    8 Sep 2021 16:26:08.026           661.283
                      16    8 Sep 2021 17:07:38.331    8 Sep 2021 17:18:39.614           661.284
                      17    8 Sep 2021 18:00:09.918    8 Sep 2021 18:11:11.202           661.284
                      18    8 Sep 2021 18:52:41.510    8 Sep 2021 19:03:42.790           661.280
                      19    8 Sep 2021 19:45:13.100    8 Sep 2021 19:56:14.378           661.278
                      20    8 Sep 2021 20:37:44.688    8 Sep 2021 20:48:45.966           661.278
                      21    8 Sep 2021 21:30:16.276    8 Sep 2021 21:41:17.552           661.276
                      22    8 Sep 2021 22:22:47.864    8 Sep 2021 22:33:49.140           661.277
                      23    8 Sep 2021 23:15:19.451    8 Sep 2021 23:26:20.734           661.282
                      24    9 Sep 2021 00:07:51.038    9 Sep 2021 00:18:52.322           661.283
                      25    9 Sep 2021 01:00:22.626    9 Sep 2021 01:11:23.909           661.284
                      26    9 Sep 2021 01:52:54.214    9 Sep 2021 02:03:55.497           661.283
                      27    9 Sep 2021 02:45:25.807    9 Sep 2021 02:56:27.085           661.278
                      28    9 Sep 2021 03:37:57.395    9 Sep 2021 03:48:58.673           661.278

Min Duration           1    8 Sep 2021 04:00:00.000    8 Sep 2021 04:10:45.787           645.787
Max Duration          25    9 Sep 2021 01:00:22.626    9 Sep 2021 01:11:23.909           661.284
Mean Duration                                                                            660.727
Total Duration                                                                         18500.347


Satellite706-To-Satellite310
----------------------------
                  Access       Start Time (UTCG)           Stop Time (UTCG)       Duration (sec)
                  ------    -----------------------    -----------------------    --------------
                       1    8 Sep 2021 04:00:00.000    8 Sep 2021 04:09:21.733           561.733
                       2    8 Sep 2021 04:43:09.831    8 Sep 2021 05:01:53.322          1123.491
                       3    8 Sep 2021 05:35:41.419    8 Sep 2021 05:54:24.909          1123.490
                       4    8 Sep 2021 06:28:13.006    8 Sep 2021 06:46:56.501          1123.495
                       5    8 Sep 2021 07:20:44.594    8 Sep 2021 07:39:28.090          1123.496
                       6    8 Sep 2021 08:13:16.185    8 Sep 2021 08:31:59.675          1123.490
                       7    8 Sep 2021 09:05:47.773    8 Sep 2021 09:24:31.263          1123.490
                       8    8 Sep 2021 09:58:19.360    8 Sep 2021 10:17:02.852          1123.493
                       9    8 Sep 2021 10:50:50.947    8 Sep 2021 11:09:34.444          1123.497
                      10    8 Sep 2021 11:43:22.534    8 Sep 2021 12:02:06.031          1123.497
                      11    8 Sep 2021 12:35:54.127    8 Sep 2021 12:54:37.618          1123.491
                      12    8 Sep 2021 13:28:25.715    8 Sep 2021 13:47:09.205          1123.490
                      13    8 Sep 2021 14:20:57.301    8 Sep 2021 14:39:40.795          1123.494
                      14    8 Sep 2021 15:13:28.888    8 Sep 2021 15:32:12.386          1123.499
                      15    8 Sep 2021 16:06:00.476    8 Sep 2021 16:24:43.972          1123.497
                      16    8 Sep 2021 16:58:32.069    8 Sep 2021 17:17:15.560          1123.491
                      17    8 Sep 2021 17:51:03.657    8 Sep 2021 18:09:47.147          1123.490
                      18    8 Sep 2021 18:43:35.243    8 Sep 2021 19:02:18.737          1123.494
                      19    8 Sep 2021 19:36:06.829    8 Sep 2021 19:54:50.328          1123.499
                      20    8 Sep 2021 20:28:38.417    8 Sep 2021 20:47:21.914          1123.497
                      21    8 Sep 2021 21:21:10.011    8 Sep 2021 21:39:53.502          1123.491
                      22    8 Sep 2021 22:13:41.599    8 Sep 2021 22:32:25.089          1123.490
                      23    8 Sep 2021 23:06:13.185    8 Sep 2021 23:24:56.679          1123.494
                      24    8 Sep 2021 23:58:44.771    9 Sep 2021 00:17:28.270          1123.499
                      25    9 Sep 2021 00:51:16.359    9 Sep 2021 01:09:59.856          1123.497
                      26    9 Sep 2021 01:43:47.953    9 Sep 2021 02:02:31.444          1123.491
                      27    9 Sep 2021 02:36:19.541    9 Sep 2021 02:55:03.031          1123.490
                      28    9 Sep 2021 03:28:51.127    9 Sep 2021 03:47:34.621          1123.494

Min Duration           1    8 Sep 2021 04:00:00.000    8 Sep 2021 04:09:21.733           561.733
Max Duration          24    8 Sep 2021 23:58:44.771    9 Sep 2021 00:17:28.270          1123.499
Mean Duration                                                                           1103.431
Total Duration                                                                         30896.059


Satellite706-To-Satellite401
----------------------------
                  Access       Start Time (UTCG)           Stop Time (UTCG)       Duration (sec)
                  ------    -----------------------    -----------------------    --------------
                       1    8 Sep 2021 04:00:00.000    8 Sep 2021 04:03:37.916           217.916
                       2    8 Sep 2021 04:37:04.540    8 Sep 2021 04:56:09.508          1144.968
                       3    8 Sep 2021 05:29:36.129    8 Sep 2021 05:48:41.094          1144.966
                       4    8 Sep 2021 06:22:07.717    8 Sep 2021 06:41:12.683          1144.966
                       5    8 Sep 2021 07:14:39.305    8 Sep 2021 07:33:44.270          1144.965
                       6    8 Sep 2021 08:07:10.894    8 Sep 2021 08:26:15.860          1144.966
                       7    8 Sep 2021 08:59:42.477    8 Sep 2021 09:18:47.448          1144.971
                       8    8 Sep 2021 09:52:14.067    8 Sep 2021 10:11:19.037          1144.970
                       9    8 Sep 2021 10:44:45.656    8 Sep 2021 11:03:50.625          1144.969
                      10    8 Sep 2021 11:37:17.244    8 Sep 2021 11:56:22.213          1144.969
                      11    8 Sep 2021 12:29:48.833    8 Sep 2021 12:48:53.802          1144.969
                      12    8 Sep 2021 13:22:20.422    8 Sep 2021 13:41:25.390          1144.969
                      13    8 Sep 2021 14:14:52.010    8 Sep 2021 14:33:56.979          1144.968
                      14    8 Sep 2021 15:07:23.599    8 Sep 2021 15:26:28.567          1144.968
                      15    8 Sep 2021 15:59:55.187    8 Sep 2021 16:19:00.155          1144.968
                      16    8 Sep 2021 16:52:26.775    8 Sep 2021 17:11:31.744          1144.968
                      17    8 Sep 2021 17:44:58.364    8 Sep 2021 18:04:03.332          1144.968
                      18    8 Sep 2021 18:37:29.952    8 Sep 2021 18:56:34.921          1144.968
                      19    8 Sep 2021 19:30:01.541    8 Sep 2021 19:49:06.509          1144.968
                      20    8 Sep 2021 20:22:33.129    8 Sep 2021 20:41:38.097          1144.968
                      21    8 Sep 2021 21:15:04.717    8 Sep 2021 21:34:09.686          1144.968
                      22    8 Sep 2021 22:07:36.306    8 Sep 2021 22:26:41.274          1144.968
                      23    8 Sep 2021 23:00:07.894    8 Sep 2021 23:19:12.862          1144.968
                      24    8 Sep 2021 23:52:39.483    9 Sep 2021 00:11:44.451          1144.968
                      25    9 Sep 2021 00:45:11.071    9 Sep 2021 01:04:16.039          1144.968
                      26    9 Sep 2021 01:37:42.659    9 Sep 2021 01:56:47.628          1144.968
                      27    9 Sep 2021 02:30:14.248    9 Sep 2021 02:49:19.216          1144.968
                      28    9 Sep 2021 03:22:45.836    9 Sep 2021 03:41:50.804          1144.968

Min Duration           1    8 Sep 2021 04:00:00.000    8 Sep 2021 04:03:37.916           217.916
Max Duration           7    8 Sep 2021 08:59:42.477    8 Sep 2021 09:18:47.448          1144.971
Mean Duration                                                                           1111.859
Total Duration                                                                         31132.055


Satellite706-To-Satellite402
----------------------------
