routing/visibility/v707.txt

Satellite707-To-Satellite104
----------------------------
                  Access       Start Time (UTCG)           Stop Time (UTCG)       Duration (sec)
                  ------    -----------------------    -----------------------    --------------
                       1    8 Sep 2021 04:23:41.851    8 Sep 2021 04:31:27.291           465.440
                       2    8 Sep 2021 05:16:13.439    8 Sep 2021 05:23:58.881           465.441
                       3    8 Sep 2021 06:08:45.029    8 Sep 2021 06:16:30.469           465.440
                       4    8 Sep 2021 07:01:16.621    8 Sep 2021 07:09:02.057           465.436
                       5    8 Sep 2021 07:53:48.207    8 Sep 2021 08:01:33.645           465.438
                       6    8 Sep 2021 08:46:19.793    8 Sep 2021 08:54:05.234           465.441
                       7    8 Sep 2021 09:38:51.381    8 Sep 2021 09:46:36.823           465.441
                       8    8 Sep 2021 10:31:22.970    8 Sep 2021 10:39:08.406           465.437
                       9    8 Sep 2021 11:23:54.558    8 Sep 2021 11:31:39.998           465.440
                      10    8 Sep 2021 12:16:26.147    8 Sep 2021 12:24:11.588           465.441
                      11    8 Sep 2021 13:08:57.736    8 Sep 2021 13:16:43.176           465.440
                      12    8 Sep 2021 14:01:29.328    8 Sep 2021 14:09:14.764           465.436
                      13    8 Sep 2021 14:54:00.914    8 Sep 2021 15:01:46.352           465.438
                      14    8 Sep 2021 15:46:32.500    8 Sep 2021 15:54:17.941           465.441
                      15    8 Sep 2021 16:39:04.088    8 Sep 2021 16:46:49.530           465.441
                      16    8 Sep 2021 17:31:35.677    8 Sep 2021 17:39:21.113           465.437
                      17    8 Sep 2021 18:24:07.265    8 Sep 2021 18:31:52.705           465.440
                      18    8 Sep 2021 19:16:38.854    8 Sep 2021 19:24:24.295           465.441
                      19    8 Sep 2021 20:09:10.443    8 Sep 2021 20:16:55.883           465.440
                      20    8 Sep 2021 21:01:42.035    8 Sep 2021 21:09:27.471           465.436
                      21    8 Sep 2021 21:54:13.621    8 Sep 2021 22:01:59.059           465.438
                      22    8 Sep 2021 22:46:45.207    8 Sep 2021 22:54:30.648           465.441
                      23    8 Sep 2021 23:39:16.796    8 Sep 2021 23:47:02.237           465.441
                      24    9 Sep 2021 00:31:48.386    9 Sep 2021 00:39:33.821           465.435
                      25    9 Sep 2021 01:24:19.972    9 Sep 2021 01:32:05.412           465.439
                      26    9 Sep 2021 02:16:51.561    9 Sep 2021 02:24:37.002           465.441
                      27    9 Sep 2021 03:09:23.152    9 Sep 2021 03:17:08.590           465.438

Min Duration          24    9 Sep 2021 00:31:48.386    9 Sep 2021 00:39:33.821           465.435
Max Duration          23    8 Sep 2021 23:39:16.796    8 Sep 2021 23:47:02.237           465.441
Mean Duration                                                                            465.439
Total Duration                                                                         12566.858


Satellite707-To-Satellite105
----------------------------
                  Access       Start Time (UTCG)           Stop Time (UTCG)       Duration (sec)
                  ------    -----------------------    -----------------------    --------------
                       1    8 Sep 2021 04:07:23.604    8 Sep 2021 04:37:15.221          1791.616
                       2    8 Sep 2021 04:59:55.192    8 Sep 2021 05:29:46.809          1791.617
                       3    8 Sep 2021 05:52:26.781    8 Sep 2021 06:22:18.402          1791.621
                       4    8 Sep 2021 06:44:58.369    8 Sep 2021 07:14:49.990          1791.621
                       5    8 Sep 2021 07:37:29.957    8 Sep 2021 08:07:21.578          1791.621
                       6    8 Sep 2021 08:30:01.545    8 Sep 2021 08:59:53.167          1791.621
                       7    8 Sep 2021 09:22:33.133    8 Sep 2021 09:52:24.755          1791.621
                       8    8 Sep 2021 10:15:04.722    8 Sep 2021 10:44:56.343          1791.621
                       9    8 Sep 2021 11:07:36.310    8 Sep 2021 11:37:27.931          1791.621
                      10    8 Sep 2021 12:00:07.898    8 Sep 2021 12:29:59.519          1791.621
                      11    8 Sep 2021 12:52:39.486    8 Sep 2021 13:22:31.107          1791.621
                      12    8 Sep 2021 13:45:11.074    8 Sep 2021 14:15:02.695          1791.621
                      13    8 Sep 2021 14:37:42.662    8 Sep 2021 15:07:34.283          1791.621
                      14    8 Sep 2021 15:30:14.250    8 Sep 2021 16:00:05.872          1791.621
                      15    8 Sep 2021 16:22:45.838    8 Sep 2021 16:52:37.460          1791.621
                      16    8 Sep 2021 17:15:17.427    8 Sep 2021 17:45:09.048          1791.621
                      17    8 Sep 2021 18:07:49.015    8 Sep 2021 18:37:40.636          1791.621
                      18    8 Sep 2021 19:00:20.603    8 Sep 2021 19:30:12.223          1791.620
                      19    8 Sep 2021 19:52:52.195    8 Sep 2021 20:22:43.812          1791.617
                      20    8 Sep 2021 20:45:23.783    8 Sep 2021 21:15:15.400          1791.617
                      21    8 Sep 2021 21:37:55.372    8 Sep 2021 22:07:46.993          1791.621
                      22    8 Sep 2021 22:30:26.960    8 Sep 2021 23:00:18.581          1791.621
                      23    8 Sep 2021 23:22:58.548    8 Sep 2021 23:52:50.169          1791.621
                      24    9 Sep 2021 00:15:30.136    9 Sep 2021 00:45:21.758          1791.621
                      25    9 Sep 2021 01:08:01.724    9 Sep 2021 01:37:53.346          1791.621
                      26    9 Sep 2021 02:00:33.313    9 Sep 2021 02:30:24.934          1791.621
                      27    9 Sep 2021 02:53:04.901    9 Sep 2021 03:22:56.522          1791.621
                      28    9 Sep 2021 03:45:36.489    9 Sep 2021 04:00:00.000           863.511

Min Duration          28    9 Sep 2021 03:45:36.489    9 Sep 2021 04:00:00.000           863.511
Max Duration          17    8 Sep 2021 18:07:49.015    8 Sep 2021 18:37:40.636          1791.621
Mean Duration                                                                           1758.474
Total Duration                                                                         49237.267


Satellite707-To-Satellite106
----------------------------
                  Access       Start Time (UTCG)           Stop Time (UTCG)       Duration (sec)
                  ------    -----------------------    -----------------------    --------------
                       1    8 Sep 2021 04:00:00.000    8 Sep 2021 04:35:54.905          2154.905
                       2    8 Sep 2021 04:50:45.192    8 Sep 2021 05:28:26.494          2261.302
                       3    8 Sep 2021 05:43:16.780    8 Sep 2021 06:20:58.082          2261.302
                       4    8 Sep 2021 06:35:48.369    8 Sep 2021 07:13:29.670          2261.302
                       5    8 Sep 2021 07:28:19.957    8 Sep 2021 08:06:01.259          2261.302
                       6    8 Sep 2021 08:20:51.546    8 Sep 2021 08:58:32.847          2261.302
                       7    8 Sep 2021 09:13:23.134    8 Sep 2021 09:51:04.436          2261.302
                       8    8 Sep 2021 10:05:54.722    8 Sep 2021 10:43:36.024          2261.302
                       9    8 Sep 2021 10:58:26.311    8 Sep 2021 11:36:07.612          2261.302
                      10    8 Sep 2021 11:50:57.899    8 Sep 2021 12:28:39.201          2261.302
                      11    8 Sep 2021 12:43:29.488    8 Sep 2021 13:21:10.789          2261.302
                      12    8 Sep 2021 13:36:01.076    8 Sep 2021 14:13:42.378          2261.302
                      13    8 Sep 2021 14:28:32.664    8 Sep 2021 15:06:13.966          2261.302
                      14    8 Sep 2021 15:21:04.253    8 Sep 2021 15:58:45.554          2261.302
                      15    8 Sep 2021 16:13:35.841    8 Sep 2021 16:51:17.143          2261.302
                      16    8 Sep 2021 17:06:07.430    8 Sep 2021 17:43:48.731          2261.302
                      17    8 Sep 2021 17:58:39.018    8 Sep 2021 18:36:20.320          2261.302
                      18    8 Sep 2021 18:51:10.606    8 Sep 2021 19:28:51.908          2261.302
                      19    8 Sep 2021 19:43:42.195    8 Sep 2021 20:21:23.496          2261.302
                      20    8 Sep 2021 20:36:13.783    8 Sep 2021 21:13:55.085          2261.302
                      21    8 Sep 2021 21:28:45.372    8 Sep 2021 22:06:26.673          2261.302
                      22    8 Sep 2021 22:21:16.960    8 Sep 2021 22:58:58.262          2261.302
                      23    8 Sep 2021 23:13:48.548    8 Sep 2021 23:51:29.850          2261.302
                      24    9 Sep 2021 00:06:20.137    9 Sep 2021 00:44:01.438          2261.302
                      25    9 Sep 2021 00:58:51.725    9 Sep 2021 01:36:33.027          2261.302
                      26    9 Sep 2021 01:51:23.314    9 Sep 2021 02:29:04.615          2261.302
                      27    9 Sep 2021 02:43:54.902    9 Sep 2021 03:21:36.204          2261.302
                      28    9 Sep 2021 03:36:26.490    9 Sep 2021 04:00:00.000          1413.510

Min Duration          28    9 Sep 2021 03:36:26.490    9 Sep 2021 04:00:00.000          1413.510
Max Duration          21    8 Sep 2021 21:28:45.372    8 Sep 2021 22:06:26.673          2261.302
Mean Duration                                                                           2227.223
Total Duration                                                                         62362.258


Satellite707-To-Satellite107
----------------------------
                  Access       Start Time (UTCG)           Stop Time (UTCG)       Duration (sec)
                  ------    -----------------------    -----------------------    --------------
                       1    8 Sep 2021 04:00:00.000    8 Sep 2021 04:26:42.268          1602.268
                       2    8 Sep 2021 04:49:27.510    8 Sep 2021 05:19:13.855          1786.346
                       3    8 Sep 2021 05:41:59.100    8 Sep 2021 06:11:45.445          1786.345
                       4    8 Sep 2021 06:34:30.686    8 Sep 2021 07:04:17.033          1786.346
                       5    8 Sep 2021 07:27:02.278    8 Sep 2021 07:56:48.622          1786.345
                       6    8 Sep 2021 08:19:33.863    8 Sep 2021 08:49:20.210          1786.346
                       7    8 Sep 2021 09:12:05.455    8 Sep 2021 09:41:51.799          1786.344
                       8    8 Sep 2021 10:04:37.040    8 Sep 2021 10:34:23.387          1786.346
                       9    8 Sep 2021 10:57:08.632    8 Sep 2021 11:26:54.976          1786.344
                      10    8 Sep 2021 11:49:40.217    8 Sep 2021 12:19:26.563          1786.347
                      11    8 Sep 2021 12:42:11.808    8 Sep 2021 13:11:58.153          1786.344
                      12    8 Sep 2021 13:34:43.394    8 Sep 2021 14:04:29.740          1786.347
                      13    8 Sep 2021 14:27:14.985    8 Sep 2021 14:57:01.329          1786.344
                      14    8 Sep 2021 15:19:46.571    8 Sep 2021 15:49:32.917          1786.347
                      15    8 Sep 2021 16:12:18.162    8 Sep 2021 16:42:04.506          1786.344
                      16    8 Sep 2021 17:04:49.747    8 Sep 2021 17:34:36.094          1786.347
                      17    8 Sep 2021 17:57:21.339    8 Sep 2021 18:27:07.683          1786.344
                      18    8 Sep 2021 18:49:52.924    8 Sep 2021 19:19:39.271          1786.347
                      19    8 Sep 2021 19:42:24.516    8 Sep 2021 20:12:10.860          1786.344
                      20    8 Sep 2021 20:34:56.101    8 Sep 2021 21:04:42.448          1786.347
                      21    8 Sep 2021 21:27:27.692    8 Sep 2021 21:57:14.037          1786.344
                      22    8 Sep 2021 22:19:59.278    8 Sep 2021 22:49:45.624          1786.347
                      23    8 Sep 2021 23:12:30.869    8 Sep 2021 23:42:17.213          1786.344
                      24    9 Sep 2021 00:05:02.455    9 Sep 2021 00:34:48.801          1786.347
                      25    9 Sep 2021 00:57:34.046    9 Sep 2021 01:27:20.390          1786.344
                      26    9 Sep 2021 01:50:05.631    9 Sep 2021 02:19:51.978          1786.347
                      27    9 Sep 2021 02:42:37.223    9 Sep 2021 03:12:23.567          1786.344
                      28    9 Sep 2021 03:35:08.808    9 Sep 2021 04:00:00.000          1491.192

Min Duration          28    9 Sep 2021 03:35:08.808    9 Sep 2021 04:00:00.000          1491.192
Max Duration          26    9 Sep 2021 01:50:05.631    9 Sep 2021 02:19:51.978          1786.347
Mean Duration                                                                           1769.230
Total Duration                                                                         49538.439


Satellite707-To-Satellite108
----------------------------
                  Access       Start Time (UTCG)           Stop Time (UTCG)       Duration (sec)
                  ------    -----------------------    -----------------------    --------------
                       1    8 Sep 2021 04:02:36.621    8 Sep 2021 04:10:31.255           474.635
                       2    8 Sep 2021 04:55:08.209    8 Sep 2021 05:03:02.844           474.635
                       3    8 Sep 2021 05:47:39.793    8 Sep 2021 05:55:34.429           474.636
                       4    8 Sep 2021 06:40:11.385    8 Sep 2021 06:48:06.018           474.633
                       5    8 Sep 2021 07:32:42.971    8 Sep 2021 07:40:37.609           474.638
                       6    8 Sep 2021 08:25:14.558    8 Sep 2021 08:33:09.198           474.640
                       7    8 Sep 2021 09:17:46.147    8 Sep 2021 09:25:40.786           474.639
                       8    8 Sep 2021 10:10:17.737    8 Sep 2021 10:18:12.373           474.637
                       9    8 Sep 2021 11:02:49.326    8 Sep 2021 11:10:43.963           474.636
                      10    8 Sep 2021 11:55:20.913    8 Sep 2021 12:03:15.551           474.638
                      11    8 Sep 2021 12:47:52.500    8 Sep 2021 12:55:47.139           474.638
                      12    8 Sep 2021 13:40:24.093    8 Sep 2021 13:48:18.724           474.630
                      13    8 Sep 2021 14:32:55.679    8 Sep 2021 14:40:50.317           474.637
                      14    8 Sep 2021 15:25:27.265    8 Sep 2021 15:33:21.905           474.639
                      15    8 Sep 2021 16:17:58.854    8 Sep 2021 16:25:53.493           474.639
                      16    8 Sep 2021 17:10:30.444    8 Sep 2021 17:18:25.081           474.636
                      17    8 Sep 2021 18:03:02.034    8 Sep 2021 18:10:56.670           474.636
                      18    8 Sep 2021 18:55:33.620    8 Sep 2021 19:03:28.259           474.639
                      19    8 Sep 2021 19:48:05.207    8 Sep 2021 19:55:59.847           474.639
                      20    8 Sep 2021 20:40:36.798    8 Sep 2021 20:48:31.431           474.634
                      21    8 Sep 2021 21:33:08.384    8 Sep 2021 21:41:03.024           474.640
                      22    8 Sep 2021 22:25:39.973    8 Sep 2021 22:33:34.612           474.639
                      23    8 Sep 2021 23:18:11.562    8 Sep 2021 23:26:06.199           474.637
                      24    9 Sep 2021 00:10:43.152    9 Sep 2021 00:18:37.788           474.636
                      25    9 Sep 2021 01:03:14.742    9 Sep 2021 01:11:09.377           474.635
                      26    9 Sep 2021 01:55:46.327    9 Sep 2021 02:03:40.966           474.639
                      27    9 Sep 2021 02:48:17.914    9 Sep 2021 02:56:12.554           474.640
                      28    9 Sep 2021 03:40:49.503    9 Sep 2021 03:48:44.139           474.636

Min Duration          12    8 Sep 2021 13:40:24.093    8 Sep 2021 13:48:18.724           474.630
Max Duration          21    8 Sep 2021 21:33:08.384    8 Sep 2021 21:41:03.024           474.640
Mean Duration                                                                            474.637
Total Duration                                                                         13289.837


Satellite707-To-Satellite202
----------------------------
                  Access       Start Time (UTCG)           Stop Time (UTCG)       Duration (sec)
                  ------    -----------------------    -----------------------    --------------
                       1    8 Sep 2021 04:34:28.300    8 Sep 2021 04:40:22.688           354.388
                       2    8 Sep 2021 05:26:59.889    8 Sep 2021 05:32:54.274           354.385
                       3    8 Sep 2021 06:19:31.481    8 Sep 2021 06:25:25.865           354.384
                       4    8 Sep 2021 07:12:03.065    8 Sep 2021 07:17:57.454           354.389
                       5    8 Sep 2021 08:04:34.654    8 Sep 2021 08:10:29.038           354.384
                       6    8 Sep 2021 08:57:06.245    8 Sep 2021 09:03:00.630           354.384
                       7    8 Sep 2021 09:49:37.835    8 Sep 2021 09:55:32.219           354.384
                       8    8 Sep 2021 10:42:09.421    8 Sep 2021 10:48:03.807           354.386
                       9    8 Sep 2021 11:34:41.008    8 Sep 2021 11:40:35.393           354.385
                      10    8 Sep 2021 12:27:12.599    8 Sep 2021 12:33:06.984           354.385
                      11    8 Sep 2021 13:19:44.184    8 Sep 2021 13:25:38.573           354.388
                      12    8 Sep 2021 14:12:15.772    8 Sep 2021 14:18:10.156           354.384
                      13    8 Sep 2021 15:04:47.364    8 Sep 2021 15:10:41.748           354.384
                      14    8 Sep 2021 15:57:18.953    8 Sep 2021 16:03:13.338           354.384
                      15    8 Sep 2021 16:49:50.538    8 Sep 2021 16:55:44.926           354.387
                      16    8 Sep 2021 17:42:22.126    8 Sep 2021 17:48:16.511           354.385
                      17    8 Sep 2021 18:34:53.718    8 Sep 2021 18:40:48.102           354.385
                      18    8 Sep 2021 19:27:25.303    8 Sep 2021 19:33:19.691           354.389
                      19    8 Sep 2021 20:19:56.891    8 Sep 2021 20:25:51.275           354.384
                      20    8 Sep 2021 21:12:28.482    8 Sep 2021 21:18:22.867           354.385
                      21    8 Sep 2021 22:05:00.072    8 Sep 2021 22:10:54.456           354.385
                      22    8 Sep 2021 22:57:31.658    8 Sep 2021 23:03:26.045           354.386
                      23    8 Sep 2021 23:50:03.245    8 Sep 2021 23:55:57.630           354.385
                      24    9 Sep 2021 00:42:34.836    9 Sep 2021 00:48:29.221           354.385
                      25    9 Sep 2021 01:35:06.422    9 Sep 2021 01:41:00.810           354.389
                      26    9 Sep 2021 02:27:38.010    9 Sep 2021 02:33:32.396           354.386
                      27    9 Sep 2021 03:20:09.601    9 Sep 2021 03:26:03.986           354.385

Min Duration          19    8 Sep 2021 20:19:56.891    8 Sep 2021 20:25:51.275           354.384
Max Duration          18    8 Sep 2021 19:27:25.303    8 Sep 2021 19:33:19.691           354.389
Mean Duration                                                                            354.385
Total Duration                                                                          9568.408


Satellite707-To-Satellite203
----------------------------
                  Access       Start Time (UTCG)           Stop Time (UTCG)       Duration (sec)
                  ------    -----------------------    -----------------------    --------------
                       1    8 Sep 2021 04:22:37.872    8 Sep 2021 04:41:42.798          1144.926
                       2    8 Sep 2021 05:15:09.460    8 Sep 2021 05:34:14.390          1144.930
                       3    8 Sep 2021 06:07:41.050    8 Sep 2021 06:26:45.975          1144.925
                       4    8 Sep 2021 07:00:12.638    8 Sep 2021 07:19:17.565          1144.926
                       5    8 Sep 2021 07:52:44.227    8 Sep 2021 08:11:49.152          1144.925
                       6    8 Sep 2021 08:45:15.815    8 Sep 2021 09:04:20.742          1144.927
                       7    8 Sep 2021 09:37:47.399    8 Sep 2021 09:56:52.330          1144.931
                       8    8 Sep 2021 10:30:18.988    8 Sep 2021 10:49:23.919          1144.931
                       9    8 Sep 2021 11:22:50.577    8 Sep 2021 11:41:55.507          1144.930
                      10    8 Sep 2021 12:15:22.166    8 Sep 2021 12:34:27.095          1144.930
                      11    8 Sep 2021 13:07:53.754    8 Sep 2021 13:26:58.684          1144.929
                      12    8 Sep 2021 14:00:25.343    8 Sep 2021 14:19:30.272          1144.929
                      13    8 Sep 2021 14:52:56.931    8 Sep 2021 15:12:01.861          1144.929
                      14    8 Sep 2021 15:45:28.520    8 Sep 2021 16:04:33.449          1144.929
                      15    8 Sep 2021 16:38:00.108    8 Sep 2021 16:57:05.037          1144.929
                      16    8 Sep 2021 17:30:31.697    8 Sep 2021 17:49:36.626          1144.929
                      17    8 Sep 2021 18:23:03.285    8 Sep 2021 18:42:08.214          1144.929
                      18    8 Sep 2021 19:15:34.873    8 Sep 2021 19:34:39.802          1144.929
                      19    8 Sep 2021 20:08:06.462    8 Sep 2021 20:27:11.391          1144.929
                      20    8 Sep 2021 21:00:38.050    8 Sep 2021 21:19:42.979          1144.929
                      21    8 Sep 2021 21:53:09.639    8 Sep 2021 22:12:14.568          1144.929
                      22    8 Sep 2021 22:45:41.227    8 Sep 2021 23:04:46.156          1144.929
                      23    8 Sep 2021 23:38:12.815    8 Sep 2021 23:57:17.744          1144.929
                      24    9 Sep 2021 00:30:44.404    9 Sep 2021 00:49:49.333          1144.929
                      25    9 Sep 2021 01:23:15.992    9 Sep 2021 01:42:20.921          1144.929
                      26    9 Sep 2021 02:15:47.581    9 Sep 2021 02:34:52.510          1144.929
                      27    9 Sep 2021 03:08:19.169    9 Sep 2021 03:27:24.098          1144.929

Min Duration           5    8 Sep 2021 07:52:44.227    8 Sep 2021 08:11:49.152          1144.925
Max Duration           7    8 Sep 2021 09:37:47.399    8 Sep 2021 09:56:52.330          1144.931
Mean Duration                                                                           1144.929
Total Duration                                                                         30913.076


Satellite707-To-Satellite204
----------------------------
                  Access       Start Time (UTCG)           Stop Time (UTCG)       Duration (sec)
                  ------    -----------------------    -----------------------    --------------
                       1    8 Sep 2021 04:14:32.548    8 Sep 2021 04:39:17.808          1485.260
                       2    8 Sep 2021 05:07:04.136    8 Sep 2021 05:31:49.392          1485.256
                       3    8 Sep 2021 05:59:35.725    8 Sep 2021 06:24:20.984          1485.260
                       4    8 Sep 2021 06:52:07.314    8 Sep 2021 07:16:52.569          1485.255
                       5    8 Sep 2021 07:44:38.901    8 Sep 2021 08:09:24.161          1485.260
                       6    8 Sep 2021 08:37:10.492    8 Sep 2021 09:01:55.746          1485.254
                       7    8 Sep 2021 09:29:42.078    8 Sep 2021 09:54:27.338          1485.260
                       8    8 Sep 2021 10:22:13.668    8 Sep 2021 10:46:58.923          1485.254
                       9    8 Sep 2021 11:14:45.255    8 Sep 2021 11:39:30.515          1485.260
                      10    8 Sep 2021 12:07:16.845    8 Sep 2021 12:32:02.099          1485.254
                      11    8 Sep 2021 12:59:48.432    8 Sep 2021 13:24:33.692          1485.260
                      12    8 Sep 2021 13:52:20.022    8 Sep 2021 14:17:05.276          1485.254
                      13    8 Sep 2021 14:44:51.608    8 Sep 2021 15:09:36.868          1485.260
                      14    8 Sep 2021 15:37:23.199    8 Sep 2021 16:02:08.453          1485.254
                      15    8 Sep 2021 16:29:54.785    8 Sep 2021 16:54:40.045          1485.260
                      16    8 Sep 2021 17:22:26.376    8 Sep 2021 17:47:11.630          1485.254
                      17    8 Sep 2021 18:14:57.962    8 Sep 2021 18:39:43.222          1485.260
                      18    8 Sep 2021 19:07:29.552    8 Sep 2021 19:32:14.807          1485.254
                      19    8 Sep 2021 20:00:01.139    8 Sep 2021 20:24:46.399          1485.260
                      20    8 Sep 2021 20:52:32.729    8 Sep 2021 21:17:17.983          1485.254
                      21    8 Sep 2021 21:45:04.316    8 Sep 2021 22:09:49.575          1485.260
                      22    8 Sep 2021 22:37:35.906    8 Sep 2021 23:02:21.160          1485.254
                      23    8 Sep 2021 23:30:07.492    8 Sep 2021 23:54:52.752          1485.260
                      24    9 Sep 2021 00:22:39.083    9 Sep 2021 00:47:24.337          1485.254
                      25    9 Sep 2021 01:15:10.669    9 Sep 2021 01:39:55.929          1485.260
                      26    9 Sep 2021 02:07:42.260    9 Sep 2021 02:32:27.514          1485.254
                      27    9 Sep 2021 03:00:13.846    9 Sep 2021 03:24:59.106          1485.260
                      28    9 Sep 2021 03:52:45.436    9 Sep 2021 04:00:00.000           434.564

Min Duration          28    9 Sep 2021 03:52:45.436    9 Sep 2021 04:00:00.000           434.564
Max Duration          25    9 Sep 2021 01:15:10.669    9 Sep 2021 01:39:55.929          1485.260
Mean Duration                                                                           1447.732
Total Duration                                                                         40536.510


Satellite707-To-Satellite205
----------------------------
                  Access       Start Time (UTCG)           Stop Time (UTCG)       Duration (sec)
                  ------    -----------------------    -----------------------    --------------
                       1    8 Sep 2021 04:09:14.402    8 Sep 2021 04:34:05.636          1491.234
                       2    8 Sep 2021 05:01:45.988    8 Sep 2021 05:26:37.221          1491.233
                       3    8 Sep 2021 05:54:17.579    8 Sep 2021 06:19:08.813          1491.235
                       4    8 Sep 2021 06:46:49.164    8 Sep 2021 07:11:40.398          1491.234
                       5    8 Sep 2021 07:39:20.756    8 Sep 2021 08:04:11.990          1491.234
                       6    8 Sep 2021 08:31:52.341    8 Sep 2021 08:56:43.575          1491.234
                       7    8 Sep 2021 09:24:23.933    8 Sep 2021 09:49:15.167          1491.234
                       8    8 Sep 2021 10:16:55.518    8 Sep 2021 10:41:46.752          1491.234
                       9    8 Sep 2021 11:09:27.110    8 Sep 2021 11:34:18.344          1491.234
                      10    8 Sep 2021 12:01:58.694    8 Sep 2021 12:26:49.928          1491.234
                      11    8 Sep 2021 12:54:30.287    8 Sep 2021 13:19:21.521          1491.234
                      12    8 Sep 2021 13:47:01.871    8 Sep 2021 14:11:53.105          1491.234
                      13    8 Sep 2021 14:39:33.463    8 Sep 2021 15:04:24.698          1491.234
                      14    8 Sep 2021 15:32:05.048    8 Sep 2021 15:56:56.282          1491.234
                      15    8 Sep 2021 16:24:36.640    8 Sep 2021 16:49:27.874          1491.234
                      16    8 Sep 2021 17:17:08.225    8 Sep 2021 17:41:59.459          1491.234
                      17    8 Sep 2021 18:09:39.817    8 Sep 2021 18:34:31.051          1491.234
                      18    8 Sep 2021 19:02:11.402    8 Sep 2021 19:27:02.636          1491.234
                      19    8 Sep 2021 19:54:42.994    8 Sep 2021 20:19:34.228          1491.234
                      20    8 Sep 2021 20:47:14.578    8 Sep 2021 21:12:05.812          1491.234
                      21    8 Sep 2021 21:39:46.171    8 Sep 2021 22:04:37.405          1491.234
                      22    8 Sep 2021 22:32:17.755    8 Sep 2021 22:57:08.989          1491.234
                      23    8 Sep 2021 23:24:49.347    8 Sep 2021 23:49:40.581          1491.234
                      24    9 Sep 2021 00:17:20.932    9 Sep 2021 00:42:12.166          1491.234
                      25    9 Sep 2021 01:09:52.524    9 Sep 2021 01:34:43.758          1491.234
                      26    9 Sep 2021 02:02:24.109    9 Sep 2021 02:27:15.343          1491.234
                      27    9 Sep 2021 02:54:55.701    9 Sep 2021 03:19:46.935          1491.234
                      28    9 Sep 2021 03:47:27.286    9 Sep 2021 04:00:00.000           752.714

Min Duration          28    9 Sep 2021 03:47:27.286    9 Sep 2021 04:00:00.000           752.714
Max Duration           3    8 Sep 2021 05:54:17.579    8 Sep 2021 06:19:08.813          1491.235
Mean Duration                                                                           1464.858
Total Duration                                                                         41016.032


Satellite707-To-Satellite206
----------------------------
                  Access       Start Time (UTCG)           Stop Time (UTCG)       Duration (sec)
                  ------    -----------------------    -----------------------    --------------
                       1    8 Sep 2021 04:06:42.824    8 Sep 2021 04:26:06.890          1164.066
                       2    8 Sep 2021 04:59:14.416    8 Sep 2021 05:18:38.478          1164.063
                       3    8 Sep 2021 05:51:46.005    8 Sep 2021 06:11:10.068          1164.063
                       4    8 Sep 2021 06:44:17.594    8 Sep 2021 07:03:41.656          1164.062
                       5    8 Sep 2021 07:36:49.180    8 Sep 2021 07:56:13.244          1164.064
                       6    8 Sep 2021 08:29:20.769    8 Sep 2021 08:48:44.832          1164.063
                       7    8 Sep 2021 09:21:52.358    8 Sep 2021 09:41:16.421          1164.063
                       8    8 Sep 2021 10:14:23.947    8 Sep 2021 10:33:48.010          1164.063
                       9    8 Sep 2021 11:06:55.535    8 Sep 2021 11:26:19.601          1164.067
                      10    8 Sep 2021 11:59:27.123    8 Sep 2021 12:18:51.187          1164.064
                      11    8 Sep 2021 12:51:58.712    8 Sep 2021 13:11:22.775          1164.063
                      12    8 Sep 2021 13:44:30.298    8 Sep 2021 14:03:54.363          1164.064
                      13    8 Sep 2021 14:37:01.888    8 Sep 2021 14:56:25.951          1164.063
                      14    8 Sep 2021 15:29:33.476    8 Sep 2021 15:48:57.541          1164.065
                      15    8 Sep 2021 16:22:05.066    8 Sep 2021 16:41:29.128          1164.062
                      16    8 Sep 2021 17:14:36.653    8 Sep 2021 17:34:00.717          1164.064
                      17    8 Sep 2021 18:07:08.241    8 Sep 2021 18:26:32.305          1164.063
                      18    8 Sep 2021 18:59:39.829    8 Sep 2021 19:19:03.893          1164.064
                      19    8 Sep 2021 19:52:11.420    8 Sep 2021 20:11:35.480          1164.061
                      20    8 Sep 2021 20:44:43.007    8 Sep 2021 21:04:07.074          1164.067
                      21    8 Sep 2021 21:37:14.595    8 Sep 2021 21:56:38.659          1164.064
                      22    8 Sep 2021 22:29:46.185    8 Sep 2021 22:49:10.247          1164.063
                      23    8 Sep 2021 23:22:17.770    8 Sep 2021 23:41:41.835          1164.064
                      24    9 Sep 2021 00:14:49.360    9 Sep 2021 00:34:13.423          1164.063
                      25    9 Sep 2021 01:07:20.948    9 Sep 2021 01:26:45.013          1164.065
                      26    9 Sep 2021 01:59:52.538    9 Sep 2021 02:19:16.601          1164.062
                      27    9 Sep 2021 02:52:24.125    9 Sep 2021 03:11:48.189          1164.064
                      28    9 Sep 2021 03:44:55.714    9 Sep 2021 04:00:00.000           904.286

Min Duration          28    9 Sep 2021 03:44:55.714    9 Sep 2021 04:00:00.000           904.286
Max Duration          20    8 Sep 2021 20:44:43.007    8 Sep 2021 21:04:07.074          1164.067
Mean Duration                                                                           1154.786
Total Duration                                                                         32334.007


Satellite707-To-Satellite207
----------------------------
                  Access       Start Time (UTCG)           Stop Time (UTCG)       Duration (sec)
                  ------    -----------------------    -----------------------    --------------
                       1    8 Sep 2021 04:07:38.879    8 Sep 2021 04:14:40.522           421.643
                       2    8 Sep 2021 05:00:10.470    8 Sep 2021 05:07:12.110           421.641
                       3    8 Sep 2021 05:52:42.055    8 Sep 2021 05:59:43.699           421.644
                       4    8 Sep 2021 06:45:13.646    8 Sep 2021 06:52:15.287           421.641
                       5    8 Sep 2021 07:37:45.232    8 Sep 2021 07:44:46.876           421.644
                       6    8 Sep 2021 08:30:16.825    8 Sep 2021 08:37:18.464           421.639
                       7    8 Sep 2021 09:22:48.408    8 Sep 2021 09:29:50.050           421.642
                       8    8 Sep 2021 10:15:20.001    8 Sep 2021 10:22:21.640           421.640
                       9    8 Sep 2021 11:07:51.585    8 Sep 2021 11:14:53.229           421.644
                      10    8 Sep 2021 12:00:23.177    8 Sep 2021 12:07:24.817           421.640
                      11    8 Sep 2021 12:52:54.762    8 Sep 2021 12:59:56.406           421.644
                      12    8 Sep 2021 13:45:26.353    8 Sep 2021 13:52:27.994           421.641
                      13    8 Sep 2021 14:37:57.939    8 Sep 2021 14:44:59.583           421.644
                      14    8 Sep 2021 15:30:29.529    8 Sep 2021 15:37:31.171           421.642
                      15    8 Sep 2021 16:23:01.116    8 Sep 2021 16:30:02.760           421.643
                      16    8 Sep 2021 17:15:32.705    8 Sep 2021 17:22:34.348           421.643
                      17    8 Sep 2021 18:08:04.296    8 Sep 2021 18:15:05.936           421.641
                      18    8 Sep 2021 19:00:35.881    8 Sep 2021 19:07:37.525           421.644
                      19    8 Sep 2021 19:53:07.472    8 Sep 2021 20:00:09.113           421.641
                      20    8 Sep 2021 20:45:39.058    8 Sep 2021 20:52:40.702           421.644
                      21    8 Sep 2021 21:38:10.651    8 Sep 2021 21:45:12.290           421.639
                      22    8 Sep 2021 22:30:42.234    8 Sep 2021 22:37:43.876           421.642
                      23    8 Sep 2021 23:23:13.827    8 Sep 2021 23:30:15.466           421.640
                      24    9 Sep 2021 00:15:45.411    9 Sep 2021 00:22:47.055           421.644
                      25    9 Sep 2021 01:08:17.003    9 Sep 2021 01:15:18.643           421.640
                      26    9 Sep 2021 02:00:48.588    9 Sep 2021 02:07:50.232           421.644
                      27    9 Sep 2021 02:53:20.179    9 Sep 2021 03:00:21.820           421.641
                      28    9 Sep 2021 03:45:51.765    9 Sep 2021 03:52:53.409           421.644

Min Duration           6    8 Sep 2021 08:30:16.825    8 Sep 2021 08:37:18.464           421.639
Max Duration           9    8 Sep 2021 11:07:51.585    8 Sep 2021 11:14:53.229           421.644
Mean Duration                                                                            421.642
Total Duration                                                                         11805.978


Satellite707-To-Satellite301
----------------------------
                  Access       Start Time (UTCG)           Stop Time (UTCG)       Duration (sec)
                  ------    -----------------------    -----------------------    --------------
                       1    8 Sep 2021 04:32:39.513    8 Sep 2021 04:51:23.004          1123.490
                       2    8 Sep 2021 05:25:11.100    8 Sep 2021 05:43:54.593          1123.493
                       3    8 Sep 2021 06:17:42.687    8 Sep 2021 06:36:26.185          1123.498
                       4    8 Sep 2021 07:10:14.274    8 Sep 2021 07:28:57.771          1123.497
                       5    8 Sep 2021 08:02:45.867    8 Sep 2021 08:21:29.358          1123.491
                       6    8 Sep 2021 08:55:17.455    8 Sep 2021 09:14:00.945          1123.490
                       7    8 Sep 2021 09:47:49.042    8 Sep 2021 10:06:32.535          1123.494
                       8    8 Sep 2021 10:40:20.628    8 Sep 2021 10:59:04.127          1123.499
                       9    8 Sep 2021 11:32:52.216    8 Sep 2021 11:51:35.713          1123.497
                      10    8 Sep 2021 12:25:23.809    8 Sep 2021 12:44:07.300          1123.491
                      11    8 Sep 2021 13:17:55.397    8 Sep 2021 13:36:38.887          1123.490
                      12    8 Sep 2021 14:10:26.984    8 Sep 2021 14:29:10.477          1123.494
                      13    8 Sep 2021 15:02:58.570    8 Sep 2021 15:21:42.069          1123.499
                      14    8 Sep 2021 15:55:30.158    8 Sep 2021 16:14:13.655          1123.497
                      15    8 Sep 2021 16:48:01.751    8 Sep 2021 17:06:45.242          1123.491
                      16    8 Sep 2021 17:40:33.339    8 Sep 2021 17:59:16.829          1123.490
                      17    8 Sep 2021 18:33:04.926    8 Sep 2021 18:51:48.419          1123.494
                      18    8 Sep 2021 19:25:36.512    8 Sep 2021 19:44:20.011          1123.499
                      19    8 Sep 2021 20:18:08.100    8 Sep 2021 20:36:51.597          1123.497
                      20    8 Sep 2021 21:10:39.693    8 Sep 2021 21:29:23.184          1123.491
                      21    8 Sep 2021 22:03:11.281    8 Sep 2021 22:21:54.771          1123.490
                      22    8 Sep 2021 22:55:42.868    8 Sep 2021 23:14:26.361          1123.494
                      23    8 Sep 2021 23:48:14.453    9 Sep 2021 00:06:57.953          1123.499
                      24    9 Sep 2021 00:40:46.042    9 Sep 2021 00:59:29.539          1123.497
                      25    9 Sep 2021 01:33:17.635    9 Sep 2021 01:52:01.126          1123.491
                      26    9 Sep 2021 02:25:49.223    9 Sep 2021 02:44:32.713          1123.490
                      27    9 Sep 2021 03:18:20.809    9 Sep 2021 03:37:04.303          1123.494

Min Duration          26    9 Sep 2021 02:25:49.223    9 Sep 2021 02:44:32.713          1123.490
Max Duration          23    8 Sep 2021 23:48:14.453    9 Sep 2021 00:06:57.953          1123.499
Mean Duration                                                                           1123.494
Total Duration                                                                         30334.334


Satellite707-To-Satellite302
----------------------------
                  Access       Start Time (UTCG)           Stop Time (UTCG)       Duration (sec)
                  ------    -----------------------    -----------------------    --------------
                       1    8 Sep 2021 04:25:27.297    8 Sep 2021 04:48:04.906          1357.610
                       2    8 Sep 2021 05:17:58.885    8 Sep 2021 05:40:36.495          1357.610
                       3    8 Sep 2021 06:10:30.473    8 Sep 2021 06:33:08.083          1357.610
                       4    8 Sep 2021 07:03:02.061    8 Sep 2021 07:25:39.671          1357.610
                       5    8 Sep 2021 07:55:33.650    8 Sep 2021 08:18:11.260          1357.610
                       6    8 Sep 2021 08:48:05.238    8 Sep 2021 09:10:42.848          1357.610
                       7    8 Sep 2021 09:40:36.826    8 Sep 2021 10:03:14.437          1357.610
                       8    8 Sep 2021 10:33:08.415    8 Sep 2021 10:55:46.025          1357.610
                       9    8 Sep 2021 11:25:40.003    8 Sep 2021 11:48:17.613          1357.610
                      10    8 Sep 2021 12:18:11.592    8 Sep 2021 12:40:49.202          1357.610
                      11    8 Sep 2021 13:10:43.180    8 Sep 2021 13:33:20.790          1357.610
                      12    8 Sep 2021 14:03:14.768    8 Sep 2021 14:25:52.379          1357.610
                      13    8 Sep 2021 14:55:46.357    8 Sep 2021 15:18:23.967          1357.610
                      14    8 Sep 2021 15:48:17.945    8 Sep 2021 16:10:55.555          1357.610
                      15    8 Sep 2021 16:40:49.534    8 Sep 2021 17:03:27.144          1357.610
                      16    8 Sep 2021 17:33:21.122    8 Sep 2021 17:55:58.732          1357.610
                      17    8 Sep 2021 18:25:52.710    8 Sep 2021 18:48:30.321          1357.610
                      18    8 Sep 2021 19:18:24.299    8 Sep 2021 19:41:01.909          1357.610
                      19    8 Sep 2021 20:10:55.887    8 Sep 2021 20:33:33.497          1357.610
                      20    8 Sep 2021 21:03:27.476    8 Sep 2021 21:26:05.086          1357.610
                      21    8 Sep 2021 21:55:59.064    8 Sep 2021 22:18:36.674          1357.610
                      22    8 Sep 2021 22:48:30.652    8 Sep 2021 23:11:08.263          1357.610
                      23    8 Sep 2021 23:41:02.241    9 Sep 2021 00:03:39.851          1357.610
                      24    9 Sep 2021 00:33:33.829    9 Sep 2021 00:56:11.439          1357.610
                      25    9 Sep 2021 01:26:05.418    9 Sep 2021 01:48:43.028          1357.610
                      26    9 Sep 2021 02:18:37.006    9 Sep 2021 02:41:14.616          1357.610
                      27    9 Sep 2021 03:11:08.594    9 Sep 2021 03:33:46.205          1357.610

Min Duration           1    8 Sep 2021 04:25:27.297    8 Sep 2021 04:48:04.906          1357.610
Max Duration          11    8 Sep 2021 13:10:43.180    8 Sep 2021 13:33:20.790          1357.610
Mean Duration                                                                           1357.610
Total Duration                                                                         36655.473


Satellite707-To-Satellite303
----------------------------
                  Access       Start Time (UTCG)           Stop Time (UTCG)       Duration (sec)
                  ------    -----------------------    -----------------------    --------------
                       1    8 Sep 2021 04:20:12.133    8 Sep 2021 04:42:49.752          1357.619
                       2    8 Sep 2021 05:12:43.721    8 Sep 2021 05:35:21.341          1357.620
                       3    8 Sep 2021 06:05:15.309    8 Sep 2021 06:27:52.929          1357.620
                       4    8 Sep 2021 06:57:46.898    8 Sep 2021 07:20:24.517          1357.620
                       5    8 Sep 2021 07:50:18.486    8 Sep 2021 08:12:56.106          1357.620
                       6    8 Sep 2021 08:42:50.074    8 Sep 2021 09:05:27.694          1357.620
                       7    8 Sep 2021 09:35:21.663    8 Sep 2021 09:57:59.283          1357.620
                       8    8 Sep 2021 10:27:53.251    8 Sep 2021 10:50:30.871          1357.620
                       9    8 Sep 2021 11:20:24.840    8 Sep 2021 11:43:02.459          1357.620
                      10    8 Sep 2021 12:12:56.428    8 Sep 2021 12:35:34.048          1357.620
                      11    8 Sep 2021 13:05:28.016    8 Sep 2021 13:28:05.636          1357.620
                      12    8 Sep 2021 13:57:59.605    8 Sep 2021 14:20:37.224          1357.620
                      13    8 Sep 2021 14:50:31.193    8 Sep 2021 15:13:08.813          1357.620
                      14    8 Sep 2021 15:43:02.782    8 Sep 2021 16:05:40.401          1357.620
                      15    8 Sep 2021 16:35:34.370    8 Sep 2021 16:58:11.990          1357.620
                      16    8 Sep 2021 17:28:05.958    8 Sep 2021 17:50:43.578          1357.620
                      17    8 Sep 2021 18:20:37.547    8 Sep 2021 18:43:15.166          1357.620
                      18    8 Sep 2021 19:13:09.135    8 Sep 2021 19:35:46.755          1357.620
                      19    8 Sep 2021 20:05:40.724    8 Sep 2021 20:28:18.343          1357.620
                      20    8 Sep 2021 20:58:12.312    8 Sep 2021 21:20:49.932          1357.620
                      21    8 Sep 2021 21:50:43.900    8 Sep 2021 22:13:21.520          1357.620
                      22    8 Sep 2021 22:43:15.489    8 Sep 2021 23:05:53.108          1357.620
                      23    8 Sep 2021 23:35:47.077    8 Sep 2021 23:58:24.697          1357.620
                      24    9 Sep 2021 00:28:18.666    9 Sep 2021 00:50:56.285          1357.620
                      25    9 Sep 2021 01:20:50.254    9 Sep 2021 01:43:27.874          1357.620
                      26    9 Sep 2021 02:13:21.842    9 Sep 2021 02:35:59.462          1357.620
                      27    9 Sep 2021 03:05:53.431    9 Sep 2021 03:28:31.050          1357.620
                      28    9 Sep 2021 03:58:25.015    9 Sep 2021 04:00:00.000            94.985

Min Duration          28    9 Sep 2021 03:58:25.015    9 Sep 2021 04:00:00.000            94.985
Max Duration          26    9 Sep 2021 02:13:21.842    9 Sep 2021 02:35:59.462          1357.620
Mean Duration                                                                           1312.526
Total Duration                                                                         36750.715


Satellite707-To-Satellite304
----------------------------
                  Access       Start Time (UTCG)           Stop Time (UTCG)       Duration (sec)
                  ------    -----------------------    -----------------------    --------------
                       1    8 Sep 2021 04:16:54.019    8 Sep 2021 04:35:37.542          1123.523
                       2    8 Sep 2021 05:09:25.612    8 Sep 2021 05:28:09.130          1123.518
                       3    8 Sep 2021 06:01:57.200    8 Sep 2021 06:20:40.717          1123.517
                       4    8 Sep 2021 06:54:28.788    8 Sep 2021 07:13:12.308          1123.520
                       5    8 Sep 2021 07:47:00.376    8 Sep 2021 08:05:43.898          1123.522
                       6    8 Sep 2021 08:39:31.965    8 Sep 2021 08:58:15.483          1123.517
                       7    8 Sep 2021 09:32:03.553    8 Sep 2021 09:50:47.071          1123.518
                       8    8 Sep 2021 10:24:35.141    8 Sep 2021 10:43:18.660          1123.519
                       9    8 Sep 2021 11:17:06.728    8 Sep 2021 11:35:50.252          1123.524
                      10    8 Sep 2021 12:09:38.314    8 Sep 2021 12:28:21.839          1123.524
                      11    8 Sep 2021 13:02:09.907    8 Sep 2021 13:20:53.425          1123.518
                      12    8 Sep 2021 13:54:41.496    8 Sep 2021 14:13:25.013          1123.517
                      13    8 Sep 2021 14:47:13.082    8 Sep 2021 15:05:56.602          1123.520
                      14    8 Sep 2021 15:39:44.668    8 Sep 2021 15:58:28.194          1123.526
                      15    8 Sep 2021 16:32:16.256    8 Sep 2021 16:50:59.780          1123.524
                      16    8 Sep 2021 17:24:47.849    8 Sep 2021 17:43:31.367          1123.518
                      17    8 Sep 2021 18:17:19.438    8 Sep 2021 18:36:02.955          1123.517
                      18    8 Sep 2021 19:09:51.024    8 Sep 2021 19:28:34.545          1123.521
                      19    8 Sep 2021 20:02:22.610    8 Sep 2021 20:21:06.136          1123.526
                      20    8 Sep 2021 20:54:54.198    8 Sep 2021 21:13:37.722          1123.524
                      21    8 Sep 2021 21:47:25.791    8 Sep 2021 22:06:09.309          1123.518
                      22    8 Sep 2021 22:39:57.380    8 Sep 2021 22:58:40.897          1123.517
                      23    8 Sep 2021 23:32:28.966    8 Sep 2021 23:51:12.487          1123.521
                      24    9 Sep 2021 00:25:00.552    9 Sep 2021 00:43:44.078          1123.526
                      25    9 Sep 2021 01:17:32.140    9 Sep 2021 01:36:15.664          1123.524
                      26    9 Sep 2021 02:10:03.733    9 Sep 2021 02:28:47.251          1123.518
                      27    9 Sep 2021 03:02:35.322    9 Sep 2021 03:21:18.839          1123.517
                      28    9 Sep 2021 03:55:06.908    9 Sep 2021 04:00:00.000           293.092

Min Duration          28    9 Sep 2021 03:55:06.908    9 Sep 2021 04:00:00.000           293.092
Max Duration          24    9 Sep 2021 00:25:00.552    9 Sep 2021 00:43:44.078          1123.526
Mean Duration                                                                           1093.862
Total Duration                                                                         30628.143


Satellite707-To-Satellite305
----------------------------
                  Access       Start Time (UTCG)           Stop Time (UTCG)       Duration (sec)
                  ------    -----------------------    -----------------------    --------------
                       1    8 Sep 2021 04:15:29.956    8 Sep 2021 04:26:31.289           661.332
                       2    8 Sep 2021 05:08:01.544    8 Sep 2021 05:19:02.877           661.332
                       3    8 Sep 2021 06:00:33.136    8 Sep 2021 06:11:34.464           661.328
                       4    8 Sep 2021 06:53:04.726    8 Sep 2021 07:04:06.052           661.327
                       5    8 Sep 2021 07:45:36.314    8 Sep 2021 07:56:37.639           661.325
                       6    8 Sep 2021 08:38:07.902    8 Sep 2021 08:49:09.228           661.327
                       7    8 Sep 2021 09:30:39.489    8 Sep 2021 09:41:40.820           661.331
                       8    8 Sep 2021 10:23:11.076    8 Sep 2021 10:34:12.408           661.332
                       9    8 Sep 2021 11:15:42.664    8 Sep 2021 11:26:43.996           661.332
                      10    8 Sep 2021 12:08:14.252    8 Sep 2021 12:19:15.584           661.332
                      11    8 Sep 2021 13:00:45.845    8 Sep 2021 13:11:47.172           661.327
                      12    8 Sep 2021 13:53:17.433    8 Sep 2021 14:04:18.760           661.327
                      13    8 Sep 2021 14:45:49.021    8 Sep 2021 14:56:50.347           661.326
                      14    8 Sep 2021 15:38:20.609    8 Sep 2021 15:49:21.934           661.325
                      15    8 Sep 2021 16:30:52.196    8 Sep 2021 16:41:53.527           661.330
                      16    8 Sep 2021 17:23:23.784    8 Sep 2021 17:34:25.116           661.332
                      17    8 Sep 2021 18:15:55.371    8 Sep 2021 18:26:56.703           661.332
                      18    8 Sep 2021 19:08:26.959    8 Sep 2021 19:19:28.291           661.332
                      19    8 Sep 2021 20:00:58.552    8 Sep 2021 20:11:59.879           661.327
                      20    8 Sep 2021 20:53:30.140    8 Sep 2021 21:04:31.467           661.327
                      21    8 Sep 2021 21:46:01.728    8 Sep 2021 21:57:03.055           661.327
                      22    8 Sep 2021 22:38:33.316    8 Sep 2021 22:49:34.641           661.325
                      23    8 Sep 2021 23:31:04.904    8 Sep 2021 23:42:06.231           661.327
                      24    9 Sep 2021 00:23:36.491    9 Sep 2021 00:34:37.823           661.331
                      25    9 Sep 2021 01:16:08.078    9 Sep 2021 01:27:09.411           661.332
                      26    9 Sep 2021 02:08:39.666    9 Sep 2021 02:19:40.998           661.332
                      27    9 Sep 2021 03:01:11.258    9 Sep 2021 03:12:12.586           661.329
                      28    9 Sep 2021 03:53:42.847    9 Sep 2021 04:00:00.000           377.153

Min Duration          28    9 Sep 2021 03:53:42.847    9 Sep 2021 04:00:00.000           377.153
Max Duration           9    8 Sep 2021 11:15:42.664    8 Sep 2021 11:26:43.996           661.332
Mean Duration                                                                            651.180
Total Duration                                                                         18233.040


Satellite707-To-Satellite310
----------------------------
                  Access       Start Time (UTCG)           Stop Time (UTCG)       Duration (sec)
                  ------    -----------------------    -----------------------    --------------
                       1    8 Sep 2021 04:00:00.000    8 Sep 2021 04:00:15.471            15.471
                       2    8 Sep 2021 04:41:45.776    8 Sep 2021 04:52:47.059           661.283
                       3    8 Sep 2021 05:34:17.363    8 Sep 2021 05:45:18.647           661.284
                       4    8 Sep 2021 06:26:48.951    8 Sep 2021 06:37:50.235           661.283
                       5    8 Sep 2021 07:19:20.544    8 Sep 2021 07:30:21.823           661.279
                       6    8 Sep 2021 08:11:52.133    8 Sep 2021 08:22:53.411           661.278
                       7    8 Sep 2021 09:04:23.721    8 Sep 2021 09:15:24.998           661.278
                       8    8 Sep 2021 09:56:55.309    8 Sep 2021 10:07:56.585           661.276
                       9    8 Sep 2021 10:49:26.896    8 Sep 2021 11:00:28.178           661.281
                      10    8 Sep 2021 11:41:58.484    8 Sep 2021 11:52:59.767           661.283
                      11    8 Sep 2021 12:34:30.071    8 Sep 2021 12:45:31.354           661.284
                      12    8 Sep 2021 13:27:01.659    8 Sep 2021 13:38:02.942           661.284
                      13    8 Sep 2021 14:19:33.252    8 Sep 2021 14:30:34.530           661.278
                      14    8 Sep 2021 15:12:04.840    8 Sep 2021 15:23:06.118           661.278
                      15    8 Sep 2021 16:04:36.428    8 Sep 2021 16:15:37.706           661.278
                      16    8 Sep 2021 16:57:08.016    8 Sep 2021 17:08:09.292           661.276
                      17    8 Sep 2021 17:49:39.603    8 Sep 2021 18:00:40.882           661.278
                      18    8 Sep 2021 18:42:11.191    8 Sep 2021 18:53:12.474           661.283
                      19    8 Sep 2021 19:34:42.778    8 Sep 2021 19:45:44.062           661.284
                      20    8 Sep 2021 20:27:14.366    8 Sep 2021 20:38:15.649           661.284
                      21    8 Sep 2021 21:19:45.957    8 Sep 2021 21:30:47.237           661.280
                      22    8 Sep 2021 22:12:17.547    8 Sep 2021 22:23:18.825           661.278
                      23    8 Sep 2021 23:04:49.135    8 Sep 2021 23:15:50.413           661.278
                      24    8 Sep 2021 23:57:20.724    9 Sep 2021 00:08:22.000           661.276
                      25    9 Sep 2021 00:49:52.311    9 Sep 2021 01:00:53.588           661.277
                      26    9 Sep 2021 01:42:23.899    9 Sep 2021 01:53:25.181           661.282
                      27    9 Sep 2021 02:34:55.486    9 Sep 2021 02:45:56.769           661.283
                      28    9 Sep 2021 03:27:27.073    9 Sep 2021 03:38:28.357           661.284

Min Duration           1    8 Sep 2021 04:00:00.000    8 Sep 2021 04:00:15.471            15.471
Max Duration           3    8 Sep 2021 05:34:17.363    8 Sep 2021 05:45:18.647           661.284
Mean Duration                                                                            638.216
Total Duration                                                                         17870.041


Satellite707-To-Satellite401
----------------------------
                  Access       Start Time (UTCG)           Stop Time (UTCG)       Duration (sec)
                  ------    -----------------------    -----------------------    --------------
                       1    8 Sep 2021 04:00:00.000    8 Sep 2021 04:01:12.914            72.914
                       2    8 Sep 2021 04:28:59.225    8 Sep 2021 04:53:44.498          1485.274
                       3    8 Sep 2021 05:21:30.816    8 Sep 2021 05:46:16.090          1485.274
                       4    8 Sep 2021 06:14:02.402    8 Sep 2021 06:38:47.675          1485.272
                       5    8 Sep 2021 07:06:33.993    8 Sep 2021 07:31:19.267          1485.274
                       6    8 Sep 2021 07:59:05.582    8 Sep 2021 08:23:50.851          1485.269
                       7    8 Sep 2021 08:51:37.169    8 Sep 2021 09:16:22.443          1485.274
                       8    8 Sep 2021 09:44:08.760    8 Sep 2021 10:08:54.028          1485.268
                       9    8 Sep 2021 10:36:40.346    8 Sep 2021 11:01:25.620          1485.274
                      10    8 Sep 2021 11:29:11.937    8 Sep 2021 11:53:57.205          1485.268
                      11    8 Sep 2021 12:21:43.523    8 Sep 2021 12:46:28.797          1485.274
                      12    8 Sep 2021 13:14:15.113    8 Sep 2021 13:39:00.382          1485.268
                      13    8 Sep 2021 14:06:46.700    8 Sep 2021 14:31:31.974          1485.274
                      14    8 Sep 2021 14:59:18.290    8 Sep 2021 15:24:03.558          1485.268
                      15    8 Sep 2021 15:51:49.877    8 Sep 2021 16:16:35.151          1485.274
                      16    8 Sep 2021 16:44:21.467    8 Sep 2021 17:09:06.735          1485.268
                      17    8 Sep 2021 17:36:53.053    8 Sep 2021 18:01:38.327          1485.274
                      18    8 Sep 2021 18:29:24.644    8 Sep 2021 18:54:09.912          1485.268
                      19    8 Sep 2021 19:21:56.230    8 Sep 2021 19:46:41.504          1485.274
                      20    8 Sep 2021 20:14:27.821    8 Sep 2021 20:39:13.089          1485.268
                      21    8 Sep 2021 21:06:59.407    8 Sep 2021 21:31:44.681          1485.274
                      22    8 Sep 2021 21:59:30.997    8 Sep 2021 22:24:16.266          1485.268
                      23    8 Sep 2021 22:52:02.584    8 Sep 2021 23:16:47.858          1485.274
                      24    8 Sep 2021 23:44:34.174    9 Sep 2021 00:09:19.442          1485.268
                      25    9 Sep 2021 00:37:05.761    9 Sep 2021 01:01:51.034          1485.274
                      26    9 Sep 2021 01:29:37.351    9 Sep 2021 01:54:22.619          1485.268
                      27    9 Sep 2021 02:22:08.937    9 Sep 2021 02:46:54.211          1485.274
                      28    9 Sep 2021 03:14:40.528    9 Sep 2021 03:39:25.796          1485.268

Min Duration           1    8 Sep 2021 04:00:00.000    8 Sep 2021 04:01:12.914            72.914
Max Duration          13    8 Sep 2021 14:06:46.700    8 Sep 2021 14:31:31.974          1485.274
Mean Duration                                                                           1434.830
Total Duration                                                                         40175.241


