routing/visibility/v708.txt

Satellite708-To-Satellite105
----------------------------
                  Access       Start Time (UTCG)           Stop Time (UTCG)       Duration (sec)
                  ------    -----------------------    -----------------------    --------------
                       1    8 Sep 2021 04:13:11.534    8 Sep 2021 04:20:56.974           465.440
                       2    8 Sep 2021 05:05:43.126    8 Sep 2021 05:13:28.562           465.436
                       3    8 Sep 2021 05:58:14.712    8 Sep 2021 06:06:00.150           465.438
                       4    8 Sep 2021 06:50:46.299    8 Sep 2021 06:58:31.739           465.441
                       5    8 Sep 2021 07:43:17.887    8 Sep 2021 07:51:03.328           465.441
                       6    8 Sep 2021 08:35:49.475    8 Sep 2021 08:43:34.912           465.437
                       7    8 Sep 2021 09:28:21.064    8 Sep 2021 09:36:06.503           465.440
                       8    8 Sep 2021 10:20:52.652    8 Sep 2021 10:28:38.093           465.441
                       9    8 Sep 2021 11:13:24.241    8 Sep 2021 11:21:09.682           465.440
                      10    8 Sep 2021 12:05:55.833    8 Sep 2021 12:13:41.270           465.436
                      11    8 Sep 2021 12:58:27.419    8 Sep 2021 13:06:12.857           465.438
                      12    8 Sep 2021 13:50:59.006    8 Sep 2021 13:58:44.447           465.441
                      13    8 Sep 2021 14:43:30.594    8 Sep 2021 14:51:16.035           465.441
                      14    8 Sep 2021 15:36:02.183    8 Sep 2021 15:43:47.619           465.436
                      15    8 Sep 2021 16:28:33.771    8 Sep 2021 16:36:19.210           465.439
                      16    8 Sep 2021 17:21:05.359    8 Sep 2021 17:28:50.800           465.441
                      17    8 Sep 2021 18:13:36.951    8 Sep 2021 18:21:22.389           465.438
                      18    8 Sep 2021 19:06:08.540    8 Sep 2021 19:13:53.977           465.436
                      19    8 Sep 2021 19:58:40.126    8 Sep 2021 20:06:25.564           465.438
                      20    8 Sep 2021 20:51:11.713    8 Sep 2021 20:58:57.154           465.441
                      21    8 Sep 2021 21:43:43.301    8 Sep 2021 21:51:28.742           465.441
                      22    8 Sep 2021 22:36:14.894    8 Sep 2021 22:44:00.326           465.433
                      23    8 Sep 2021 23:28:46.478    8 Sep 2021 23:36:31.917           465.439
                      24    9 Sep 2021 00:21:18.067    9 Sep 2021 00:29:03.508           465.441
                      25    9 Sep 2021 01:13:49.658    9 Sep 2021 01:21:35.096           465.438
                      26    9 Sep 2021 02:06:21.247    9 Sep 2021 02:14:06.684           465.437
                      27    9 Sep 2021 02:58:52.833    9 Sep 2021 03:06:38.272           465.438
                      28    9 Sep 2021 03:51:24.420    9 Sep 2021 03:59:09.861           465.441

Min Duration          22    8 Sep 2021 22:36:14.894    8 Sep 2021 22:44:00.326           465.433
Max Duration          13    8 Sep 2021 14:43:30.594    8 Sep 2021 14:51:16.035           465.441
Mean Duration                                                                            465.439
Total Duration                                                                         13032.288


Satellite708-To-Satellite106
----------------------------
                  Access       Start Time (UTCG)           Stop Time (UTCG)       Duration (sec)
                  ------    -----------------------    -----------------------    --------------
                       1    8 Sep 2021 04:00:00.000    8 Sep 2021 04:26:44.903          1604.903
                       2    8 Sep 2021 04:49:24.875    8 Sep 2021 05:19:16.491          1791.617
                       3    8 Sep 2021 05:41:56.463    8 Sep 2021 06:11:48.084          1791.621
                       4    8 Sep 2021 06:34:28.051    8 Sep 2021 07:04:19.673          1791.621
                       5    8 Sep 2021 07:26:59.639    8 Sep 2021 07:56:51.261          1791.621
                       6    8 Sep 2021 08:19:31.228    8 Sep 2021 08:49:22.849          1791.621
                       7    8 Sep 2021 09:12:02.816    8 Sep 2021 09:41:54.437          1791.621
                       8    8 Sep 2021 10:04:34.404    8 Sep 2021 10:34:26.025          1791.621
                       9    8 Sep 2021 10:57:05.992    8 Sep 2021 11:26:57.613          1791.621
                      10    8 Sep 2021 11:49:37.580    8 Sep 2021 12:19:29.201          1791.621
                      11    8 Sep 2021 12:42:09.168    8 Sep 2021 13:12:00.790          1791.621
                      12    8 Sep 2021 13:34:40.756    8 Sep 2021 14:04:32.378          1791.621
                      13    8 Sep 2021 14:27:12.344    8 Sep 2021 14:57:03.966          1791.621
                      14    8 Sep 2021 15:19:43.933    8 Sep 2021 15:49:35.554          1791.621
                      15    8 Sep 2021 16:12:15.521    8 Sep 2021 16:42:07.142          1791.621
                      16    8 Sep 2021 17:04:47.109    8 Sep 2021 17:34:38.730          1791.621
                      17    8 Sep 2021 17:57:18.697    8 Sep 2021 18:27:10.319          1791.621
                      18    8 Sep 2021 18:49:50.286    8 Sep 2021 19:19:41.906          1791.620
                      19    8 Sep 2021 19:42:21.877    8 Sep 2021 20:12:13.494          1791.617
                      20    8 Sep 2021 20:34:53.466    8 Sep 2021 21:04:45.082          1791.617
                      21    8 Sep 2021 21:27:25.054    8 Sep 2021 21:57:16.675          1791.621
                      22    8 Sep 2021 22:19:56.642    8 Sep 2021 22:49:48.264          1791.621
                      23    8 Sep 2021 23:12:28.230    8 Sep 2021 23:42:19.852          1791.621
                      24    9 Sep 2021 00:04:59.819    9 Sep 2021 00:34:51.440          1791.621
                      25    9 Sep 2021 00:57:31.407    9 Sep 2021 01:27:23.028          1791.621
                      26    9 Sep 2021 01:50:02.995    9 Sep 2021 02:19:54.616          1791.621
                      27    9 Sep 2021 02:42:34.583    9 Sep 2021 03:12:26.204          1791.621
                      28    9 Sep 2021 03:35:06.171    9 Sep 2021 04:00:00.000          1493.829

Min Duration          28    9 Sep 2021 03:35:06.171    9 Sep 2021 04:00:00.000          1493.829
Max Duration          17    8 Sep 2021 17:57:18.697    8 Sep 2021 18:27:10.319          1791.621
Mean Duration                                                                           1774.317
Total Duration                                                                         49680.871


Satellite708-To-Satellite107
----------------------------
                  Access       Start Time (UTCG)           Stop Time (UTCG)       Duration (sec)
                  ------    -----------------------    -----------------------    --------------
                       1    8 Sep 2021 04:00:00.000    8 Sep 2021 04:25:24.589          1524.589
                       2    8 Sep 2021 04:40:14.874    8 Sep 2021 05:17:56.176          2261.302
                       3    8 Sep 2021 05:32:46.463    8 Sep 2021 06:10:27.764          2261.302
                       4    8 Sep 2021 06:25:18.051    8 Sep 2021 07:02:59.353          2261.302
                       5    8 Sep 2021 07:17:49.640    8 Sep 2021 07:55:30.941          2261.302
                       6    8 Sep 2021 08:10:21.228    8 Sep 2021 08:48:02.530          2261.302
                       7    8 Sep 2021 09:02:52.816    8 Sep 2021 09:40:34.118          2261.302
                       8    8 Sep 2021 09:55:24.405    8 Sep 2021 10:33:05.706          2261.302
                       9    8 Sep 2021 10:47:55.993    8 Sep 2021 11:25:37.295          2261.302
                      10    8 Sep 2021 11:40:27.582    8 Sep 2021 12:18:08.883          2261.302
                      11    8 Sep 2021 12:32:59.170    8 Sep 2021 13:10:40.472          2261.302
                      12    8 Sep 2021 13:25:30.758    8 Sep 2021 14:03:12.060          2261.302
                      13    8 Sep 2021 14:18:02.347    8 Sep 2021 14:55:43.648          2261.302
                      14    8 Sep 2021 15:10:33.935    8 Sep 2021 15:48:15.237          2261.302
                      15    8 Sep 2021 16:03:05.524    8 Sep 2021 16:40:46.825          2261.302
                      16    8 Sep 2021 16:55:37.112    8 Sep 2021 17:33:18.414          2261.302
                      17    8 Sep 2021 17:48:08.700    8 Sep 2021 18:25:50.002          2261.302
                      18    8 Sep 2021 18:40:40.289    8 Sep 2021 19:18:21.590          2261.302
                      19    8 Sep 2021 19:33:11.877    8 Sep 2021 20:10:53.179          2261.302
                      20    8 Sep 2021 20:25:43.465    8 Sep 2021 21:03:24.767          2261.302
                      21    8 Sep 2021 21:18:15.054    8 Sep 2021 21:55:56.356          2261.302
                      22    8 Sep 2021 22:10:46.642    8 Sep 2021 22:48:27.944          2261.302
                      23    8 Sep 2021 23:03:18.231    8 Sep 2021 23:40:59.532          2261.302
                      24    8 Sep 2021 23:55:49.819    9 Sep 2021 00:33:31.121          2261.302
                      25    9 Sep 2021 00:48:21.407    9 Sep 2021 01:26:02.709          2261.302
                      26    9 Sep 2021 01:40:52.996    9 Sep 2021 02:18:34.298          2261.302
                      27    9 Sep 2021 02:33:24.584    9 Sep 2021 03:11:05.886          2261.302
                      28    9 Sep 2021 03:25:56.173    9 Sep 2021 04:00:00.000          2043.827

Min Duration           1    8 Sep 2021 04:00:00.000    8 Sep 2021 04:25:24.589          1524.589
Max Duration           2    8 Sep 2021 04:40:14.874    8 Sep 2021 05:17:56.176          2261.302
Mean Duration                                                                           2227.224
Total Duration                                                                         62362.259


Satellite708-To-Satellite108
----------------------------
                  Access       Start Time (UTCG)           Stop Time (UTCG)       Duration (sec)
                  ------    -----------------------    -----------------------    --------------
                       1    8 Sep 2021 04:00:00.000    8 Sep 2021 04:16:11.949           971.949
                       2    8 Sep 2021 04:38:57.194    8 Sep 2021 05:08:43.539          1786.346
                       3    8 Sep 2021 05:31:28.780    8 Sep 2021 06:01:15.126          1786.346
                       4    8 Sep 2021 06:24:00.371    8 Sep 2021 06:53:46.716          1786.345
                       5    8 Sep 2021 07:16:31.957    8 Sep 2021 07:46:18.304          1786.346
                       6    8 Sep 2021 08:09:03.548    8 Sep 2021 08:38:49.893          1786.344
                       7    8 Sep 2021 09:01:35.134    8 Sep 2021 09:31:21.480          1786.346
                       8    8 Sep 2021 09:54:06.725    8 Sep 2021 10:23:53.070          1786.344
                       9    8 Sep 2021 10:46:38.311    8 Sep 2021 11:16:24.657          1786.347
                      10    8 Sep 2021 11:39:09.902    8 Sep 2021 12:08:56.247          1786.344
                      11    8 Sep 2021 12:31:41.488    8 Sep 2021 13:01:27.834          1786.347
                      12    8 Sep 2021 13:24:13.079    8 Sep 2021 13:53:59.423          1786.344
                      13    8 Sep 2021 14:16:44.664    8 Sep 2021 14:46:31.011          1786.347
                      14    8 Sep 2021 15:09:16.256    8 Sep 2021 15:39:02.600          1786.344
                      15    8 Sep 2021 16:01:47.841    8 Sep 2021 16:31:34.188          1786.347
                      16    8 Sep 2021 16:54:19.433    8 Sep 2021 17:24:05.777          1786.344
                      17    8 Sep 2021 17:46:51.018    8 Sep 2021 18:16:37.365          1786.347
                      18    8 Sep 2021 18:39:22.610    8 Sep 2021 19:09:08.954          1786.344
                      19    8 Sep 2021 19:31:54.195    8 Sep 2021 20:01:40.541          1786.347
                      20    8 Sep 2021 20:24:25.786    8 Sep 2021 20:54:12.130          1786.344
                      21    8 Sep 2021 21:16:57.372    8 Sep 2021 21:46:43.718          1786.347
                      22    8 Sep 2021 22:09:28.963    8 Sep 2021 22:39:15.307          1786.344
                      23    8 Sep 2021 23:02:00.548    8 Sep 2021 23:31:46.895          1786.347
                      24    8 Sep 2021 23:54:32.140    9 Sep 2021 00:24:18.484          1786.344
                      25    9 Sep 2021 00:47:03.725    9 Sep 2021 01:16:50.072          1786.347
                      26    9 Sep 2021 01:39:35.317    9 Sep 2021 02:09:21.661          1786.344
                      27    9 Sep 2021 02:32:06.902    9 Sep 2021 03:01:53.249          1786.347
                      28    9 Sep 2021 03:24:38.494    9 Sep 2021 03:54:24.838          1786.344

Min Duration           1    8 Sep 2021 04:00:00.000    8 Sep 2021 04:16:11.949           971.949
Max Duration          27    9 Sep 2021 02:32:06.902    9 Sep 2021 03:01:53.249          1786.347
Mean Duration                                                                           1757.260
Total Duration                                                                         49203.273


Satellite708-To-Satellite109
----------------------------
                  Access       Start Time (UTCG)           Stop Time (UTCG)       Duration (sec)
                  ------    -----------------------    -----------------------    --------------
                       1    8 Sep 2021 04:00:00.000    8 Sep 2021 04:00:00.934             0.934
                       2    8 Sep 2021 04:44:37.887    8 Sep 2021 04:52:32.525           474.638
                       3    8 Sep 2021 05:37:09.475    8 Sep 2021 05:45:04.115           474.640
                       4    8 Sep 2021 06:29:41.064    8 Sep 2021 06:37:35.703           474.639
                       5    8 Sep 2021 07:22:12.654    8 Sep 2021 07:30:07.290           474.637
                       6    8 Sep 2021 08:14:44.246    8 Sep 2021 08:22:38.880           474.634
                       7    8 Sep 2021 09:07:15.830    8 Sep 2021 09:15:10.469           474.638
                       8    8 Sep 2021 09:59:47.417    8 Sep 2021 10:07:42.055           474.638
                       9    8 Sep 2021 10:52:19.010    8 Sep 2021 11:00:13.641           474.631
                      10    8 Sep 2021 11:44:50.595    8 Sep 2021 11:52:45.234           474.638
                      11    8 Sep 2021 12:37:22.183    8 Sep 2021 12:45:16.822           474.640
                      12    8 Sep 2021 13:29:53.771    8 Sep 2021 13:37:48.410           474.639
                      13    8 Sep 2021 14:22:25.361    8 Sep 2021 14:30:19.998           474.636
                      14    8 Sep 2021 15:14:56.951    8 Sep 2021 15:22:51.587           474.636
                      15    8 Sep 2021 16:07:28.537    8 Sep 2021 16:15:23.176           474.639
                      16    8 Sep 2021 17:00:00.125    8 Sep 2021 17:07:54.763           474.639
                      17    8 Sep 2021 17:52:31.718    8 Sep 2021 18:00:26.348           474.630
                      18    8 Sep 2021 18:45:03.305    8 Sep 2021 18:52:57.941           474.636
                      19    8 Sep 2021 19:37:34.890    8 Sep 2021 19:45:29.529           474.639
                      20    8 Sep 2021 20:30:06.479    8 Sep 2021 20:38:01.117           474.639
                      21    8 Sep 2021 21:22:38.069    8 Sep 2021 21:30:32.705           474.636
                      22    8 Sep 2021 22:15:09.659    8 Sep 2021 22:23:04.294           474.636
                      23    8 Sep 2021 23:07:41.244    8 Sep 2021 23:15:35.883           474.639
                      24    9 Sep 2021 00:00:12.832    9 Sep 2021 00:08:07.471           474.640
                      25    9 Sep 2021 00:52:44.424    9 Sep 2021 01:00:39.056           474.632
                      26    9 Sep 2021 01:45:16.008    9 Sep 2021 01:53:10.648           474.640
                      27    9 Sep 2021 02:37:47.597    9 Sep 2021 02:45:42.236           474.639
                      28    9 Sep 2021 03:30:19.186    9 Sep 2021 03:38:13.823           474.637

Min Duration           1    8 Sep 2021 04:00:00.000    8 Sep 2021 04:00:00.934             0.934
Max Duration          26    9 Sep 2021 01:45:16.008    9 Sep 2021 01:53:10.648           474.640
Mean Duration                                                                            457.719
Total Duration                                                                         12816.137


Satellite708-To-Satellite203
----------------------------
                  Access       Start Time (UTCG)           Stop Time (UTCG)       Duration (sec)
                  ------    -----------------------    -----------------------    --------------
                       1    8 Sep 2021 04:23:57.985    8 Sep 2021 04:29:52.371           354.385
                       2    8 Sep 2021 05:16:29.571    8 Sep 2021 05:22:23.959           354.388
                       3    8 Sep 2021 06:09:01.159    8 Sep 2021 06:14:55.544           354.385
                       4    8 Sep 2021 07:01:32.750    8 Sep 2021 07:07:27.135           354.385
                       5    8 Sep 2021 07:54:04.341    8 Sep 2021 07:59:58.725           354.384
                       6    8 Sep 2021 08:46:35.925    8 Sep 2021 08:52:30.312           354.387
                       7    8 Sep 2021 09:39:07.514    8 Sep 2021 09:45:01.899           354.385
                       8    8 Sep 2021 10:31:39.106    8 Sep 2021 10:37:33.489           354.384
                       9    8 Sep 2021 11:24:10.690    8 Sep 2021 11:30:05.078           354.388
                      10    8 Sep 2021 12:16:42.278    8 Sep 2021 12:22:36.662           354.384
                      11    8 Sep 2021 13:09:13.870    8 Sep 2021 13:15:08.254           354.384
                      12    8 Sep 2021 14:01:45.459    8 Sep 2021 14:07:39.843           354.384
                      13    8 Sep 2021 14:54:17.043    8 Sep 2021 15:00:11.431           354.388
                      14    8 Sep 2021 15:46:48.632    8 Sep 2021 15:52:43.017           354.385
                      15    8 Sep 2021 16:39:20.224    8 Sep 2021 16:45:14.608           354.384
                      16    8 Sep 2021 17:31:51.808    8 Sep 2021 17:37:46.197           354.388
                      17    8 Sep 2021 18:24:23.397    8 Sep 2021 18:30:17.780           354.384
                      18    8 Sep 2021 19:16:54.988    8 Sep 2021 19:22:49.373           354.384
                      19    8 Sep 2021 20:09:26.578    8 Sep 2021 20:15:20.962           354.384
                      20    8 Sep 2021 21:01:58.167    8 Sep 2021 21:07:52.550           354.384
                      21    8 Sep 2021 21:54:29.751    8 Sep 2021 22:00:24.136           354.385
                      22    8 Sep 2021 22:47:01.342    8 Sep 2021 22:52:55.727           354.385
                      23    8 Sep 2021 23:39:32.927    8 Sep 2021 23:45:27.316           354.389
                      24    9 Sep 2021 00:32:04.516    9 Sep 2021 00:37:58.899           354.384
                      25    9 Sep 2021 01:24:36.107    9 Sep 2021 01:30:30.491           354.385
                      26    9 Sep 2021 02:17:07.696    9 Sep 2021 02:23:02.081           354.385
                      27    9 Sep 2021 03:09:39.285    9 Sep 2021 03:15:33.669           354.384

Min Duration          24    9 Sep 2021 00:32:04.516    9 Sep 2021 00:37:58.899           354.384
Max Duration          23    8 Sep 2021 23:39:32.927    8 Sep 2021 23:45:27.316           354.389
Mean Duration                                                                            354.385
Total Duration                                                                          9568.401


Satellite708-To-Satellite204
----------------------------
                  Access       Start Time (UTCG)           Stop Time (UTCG)       Duration (sec)
                  ------    -----------------------    -----------------------    --------------
                       1    8 Sep 2021 04:12:07.555    8 Sep 2021 04:31:12.482          1144.927
                       2    8 Sep 2021 05:04:39.143    8 Sep 2021 05:23:44.070          1144.928
                       3    8 Sep 2021 05:57:10.731    8 Sep 2021 06:16:15.659          1144.928
                       4    8 Sep 2021 06:49:42.319    8 Sep 2021 07:08:47.247          1144.928
                       5    8 Sep 2021 07:42:13.907    8 Sep 2021 08:01:18.836          1144.929
                       6    8 Sep 2021 08:34:45.495    8 Sep 2021 08:53:50.424          1144.929
                       7    8 Sep 2021 09:27:17.084    8 Sep 2021 09:46:22.012          1144.929
                       8    8 Sep 2021 10:19:48.672    8 Sep 2021 10:38:53.601          1144.929
                       9    8 Sep 2021 11:12:20.260    8 Sep 2021 11:31:25.189          1144.929
                      10    8 Sep 2021 12:04:51.849    8 Sep 2021 12:23:56.778          1144.929
                      11    8 Sep 2021 12:57:23.437    8 Sep 2021 13:16:28.366          1144.929
                      12    8 Sep 2021 13:49:55.025    8 Sep 2021 14:08:59.954          1144.929
                      13    8 Sep 2021 14:42:26.614    8 Sep 2021 15:01:31.543          1144.929
                      14    8 Sep 2021 15:34:58.202    8 Sep 2021 15:54:03.131          1144.929
                      15    8 Sep 2021 16:27:29.791    8 Sep 2021 16:46:34.720          1144.929
                      16    8 Sep 2021 17:20:01.379    8 Sep 2021 17:39:06.308          1144.929
                      17    8 Sep 2021 18:12:32.967    8 Sep 2021 18:31:37.896          1144.929
                      18    8 Sep 2021 19:05:04.556    8 Sep 2021 19:24:09.485          1144.929
                      19    8 Sep 2021 19:57:36.144    8 Sep 2021 20:16:41.073          1144.929
                      20    8 Sep 2021 20:50:07.733    8 Sep 2021 21:09:12.662          1144.929
                      21    8 Sep 2021 21:42:39.321    8 Sep 2021 22:01:44.250          1144.929
                      22    8 Sep 2021 22:35:10.909    8 Sep 2021 22:54:15.838          1144.929
                      23    8 Sep 2021 23:27:42.498    8 Sep 2021 23:46:47.427          1144.929
                      24    9 Sep 2021 00:20:14.086    9 Sep 2021 00:39:19.015          1144.929
                      25    9 Sep 2021 01:12:45.675    9 Sep 2021 01:31:50.604          1144.929
                      26    9 Sep 2021 02:05:17.263    9 Sep 2021 02:24:22.192          1144.929
                      27    9 Sep 2021 02:57:48.851    9 Sep 2021 03:16:53.780          1144.929
                      28    9 Sep 2021 03:50:20.440    9 Sep 2021 04:00:00.000           579.560

Min Duration          28    9 Sep 2021 03:50:20.440    9 Sep 2021 04:00:00.000           579.560
Max Duration          27    9 Sep 2021 02:57:48.851    9 Sep 2021 03:16:53.780          1144.929
Mean Duration                                                                           1124.737
Total Duration                                                                         31492.636


Satellite708-To-Satellite205
----------------------------
                  Access       Start Time (UTCG)           Stop Time (UTCG)       Duration (sec)
                  ------    -----------------------    -----------------------    --------------
                       1    8 Sep 2021 04:04:02.228    8 Sep 2021 04:28:47.487          1485.260
                       2    8 Sep 2021 04:56:33.820    8 Sep 2021 05:21:19.079          1485.259
                       3    8 Sep 2021 05:49:05.404    8 Sep 2021 06:13:50.663          1485.259
                       4    8 Sep 2021 06:41:36.995    8 Sep 2021 07:06:22.255          1485.260
                       5    8 Sep 2021 07:34:08.585    8 Sep 2021 07:58:53.840          1485.255
                       6    8 Sep 2021 08:26:40.172    8 Sep 2021 08:51:25.432          1485.260
                       7    8 Sep 2021 09:19:11.762    8 Sep 2021 09:43:57.017          1485.255
                       8    8 Sep 2021 10:11:43.349    8 Sep 2021 10:36:28.609          1485.260
                       9    8 Sep 2021 11:04:14.939    8 Sep 2021 11:29:00.193          1485.254
                      10    8 Sep 2021 11:56:46.526    8 Sep 2021 12:21:31.785          1485.260
                      11    8 Sep 2021 12:49:18.116    8 Sep 2021 13:14:03.370          1485.254
                      12    8 Sep 2021 13:41:49.702    8 Sep 2021 14:06:34.962          1485.260
                      13    8 Sep 2021 14:34:21.293    8 Sep 2021 14:59:06.547          1485.254
                      14    8 Sep 2021 15:26:52.879    8 Sep 2021 15:51:38.139          1485.260
                      15    8 Sep 2021 16:19:24.470    8 Sep 2021 16:44:09.724          1485.254
                      16    8 Sep 2021 17:11:56.056    8 Sep 2021 17:36:41.316          1485.260
                      17    8 Sep 2021 18:04:27.646    8 Sep 2021 18:29:12.901          1485.254
                      18    8 Sep 2021 18:56:59.233    8 Sep 2021 19:21:44.493          1485.260
                      19    8 Sep 2021 19:49:30.823    8 Sep 2021 20:14:16.077          1485.254
                      20    8 Sep 2021 20:42:02.410    8 Sep 2021 21:06:47.669          1485.260
                      21    8 Sep 2021 21:34:34.000    8 Sep 2021 21:59:19.254          1485.254
                      22    8 Sep 2021 22:27:05.586    8 Sep 2021 22:51:50.846          1485.260
                      23    8 Sep 2021 23:19:37.177    8 Sep 2021 23:44:22.431          1485.254
                      24    9 Sep 2021 00:12:08.763    9 Sep 2021 00:36:54.023          1485.260
                      25    9 Sep 2021 01:04:40.353    9 Sep 2021 01:29:25.608          1485.254
                      26    9 Sep 2021 01:57:11.940    9 Sep 2021 02:21:57.200          1485.260
                      27    9 Sep 2021 02:49:43.530    9 Sep 2021 03:14:28.785          1485.254
                      28    9 Sep 2021 03:42:15.117    9 Sep 2021 04:00:00.000          1064.883

Min Duration          28    9 Sep 2021 03:42:15.117    9 Sep 2021 04:00:00.000          1064.883
Max Duration          24    9 Sep 2021 00:12:08.763    9 Sep 2021 00:36:54.023          1485.260
Mean Duration                                                                           1470.244
Total Duration                                                                         41166.832


Satellite708-To-Satellite206
----------------------------
                  Access       Start Time (UTCG)           Stop Time (UTCG)       Duration (sec)
                  ------    -----------------------    -----------------------    --------------
                       1    8 Sep 2021 04:00:00.000    8 Sep 2021 04:23:35.315          1415.315
                       2    8 Sep 2021 04:51:15.673    8 Sep 2021 05:16:06.907          1491.234
                       3    8 Sep 2021 05:43:47.258    8 Sep 2021 06:08:38.492          1491.234
                       4    8 Sep 2021 06:36:18.850    8 Sep 2021 07:01:10.084          1491.234
                       5    8 Sep 2021 07:28:50.435    8 Sep 2021 07:53:41.669          1491.234
                       6    8 Sep 2021 08:21:22.027    8 Sep 2021 08:46:13.261          1491.234
                       7    8 Sep 2021 09:13:53.612    8 Sep 2021 09:38:44.846          1491.234
                       8    8 Sep 2021 10:06:25.204    8 Sep 2021 10:31:16.438          1491.234
                       9    8 Sep 2021 10:58:56.788    8 Sep 2021 11:23:48.022          1491.234
                      10    8 Sep 2021 11:51:28.381    8 Sep 2021 12:16:19.615          1491.234
                      11    8 Sep 2021 12:43:59.965    8 Sep 2021 13:08:51.199          1491.234
                      12    8 Sep 2021 13:36:31.557    8 Sep 2021 14:01:22.791          1491.234
                      13    8 Sep 2021 14:29:03.142    8 Sep 2021 14:53:54.376          1491.234
                      14    8 Sep 2021 15:21:34.734    8 Sep 2021 15:46:25.968          1491.234
                      15    8 Sep 2021 16:14:06.319    8 Sep 2021 16:38:57.553          1491.234
                      16    8 Sep 2021 17:06:37.911    8 Sep 2021 17:31:29.145          1491.234
                      17    8 Sep 2021 17:59:09.496    8 Sep 2021 18:24:00.729          1491.234
                      18    8 Sep 2021 18:51:41.088    8 Sep 2021 19:16:32.322          1491.234
                      19    8 Sep 2021 19:44:12.672    8 Sep 2021 20:09:03.906          1491.234
                      20    8 Sep 2021 20:36:44.265    8 Sep 2021 21:01:35.499          1491.234
                      21    8 Sep 2021 21:29:15.849    8 Sep 2021 21:54:07.083          1491.234
                      22    8 Sep 2021 22:21:47.441    8 Sep 2021 22:46:38.675          1491.234
                      23    8 Sep 2021 23:14:19.026    8 Sep 2021 23:39:10.260          1491.234
                      24    9 Sep 2021 00:06:50.618    9 Sep 2021 00:31:41.852          1491.234
                      25    9 Sep 2021 00:59:22.203    9 Sep 2021 01:24:13.437          1491.234
                      26    9 Sep 2021 01:51:53.795    9 Sep 2021 02:16:45.029          1491.234
                      27    9 Sep 2021 02:44:25.380    9 Sep 2021 03:09:16.613          1491.234
                      28    9 Sep 2021 03:36:56.972    9 Sep 2021 04:00:00.000          1383.028

Min Duration          28    9 Sep 2021 03:36:56.972    9 Sep 2021 04:00:00.000          1383.028
Max Duration          24    9 Sep 2021 00:06:50.618    9 Sep 2021 00:31:41.852          1491.234
Mean Duration                                                                           1484.658
Total Duration                                                                         41570.427


Satellite708-To-Satellite207
----------------------------
                  Access       Start Time (UTCG)           Stop Time (UTCG)       Duration (sec)
                  ------    -----------------------    -----------------------    --------------
                       1    8 Sep 2021 04:00:00.000    8 Sep 2021 04:15:36.573           936.573
                       2    8 Sep 2021 04:48:44.098    8 Sep 2021 05:08:08.162          1164.064
                       3    8 Sep 2021 05:41:15.686    8 Sep 2021 06:00:39.750          1164.064
                       4    8 Sep 2021 06:33:47.272    8 Sep 2021 06:53:11.338          1164.066
                       5    8 Sep 2021 07:26:18.864    8 Sep 2021 07:45:42.925          1164.061
                       6    8 Sep 2021 08:18:50.452    8 Sep 2021 08:38:14.514          1164.062
                       7    8 Sep 2021 09:11:22.040    8 Sep 2021 09:30:46.104          1164.064
                       8    8 Sep 2021 10:03:53.630    8 Sep 2021 10:23:17.692          1164.062
                       9    8 Sep 2021 10:56:25.215    8 Sep 2021 11:15:49.280          1164.064
                      10    8 Sep 2021 11:48:56.805    8 Sep 2021 12:08:20.868          1164.063
                      11    8 Sep 2021 12:41:28.393    8 Sep 2021 13:00:52.458          1164.065
                      12    8 Sep 2021 13:33:59.983    8 Sep 2021 13:53:24.045          1164.062
                      13    8 Sep 2021 14:26:31.570    8 Sep 2021 14:45:55.634          1164.064
                      14    8 Sep 2021 15:19:03.158    8 Sep 2021 15:38:27.222          1164.063
                      15    8 Sep 2021 16:11:34.746    8 Sep 2021 16:30:58.811          1164.064
                      16    8 Sep 2021 17:04:06.337    8 Sep 2021 17:23:30.397          1164.061
                      17    8 Sep 2021 17:56:37.924    8 Sep 2021 18:16:01.986          1164.062
                      18    8 Sep 2021 18:49:09.512    8 Sep 2021 19:08:33.577          1164.064
                      19    8 Sep 2021 19:41:41.102    8 Sep 2021 20:01:05.164          1164.063
                      20    8 Sep 2021 20:34:12.688    8 Sep 2021 20:53:36.752          1164.064
                      21    8 Sep 2021 21:26:44.277    8 Sep 2021 21:46:08.340          1164.063
                      22    8 Sep 2021 22:19:15.866    8 Sep 2021 22:38:39.931          1164.065
                      23    8 Sep 2021 23:11:47.455    8 Sep 2021 23:31:11.518          1164.062
                      24    9 Sep 2021 00:04:19.042    9 Sep 2021 00:23:43.106          1164.064
                      25    9 Sep 2021 00:56:50.631    9 Sep 2021 01:16:14.694          1164.063
                      26    9 Sep 2021 01:49:22.219    9 Sep 2021 02:08:46.283          1164.064
                      27    9 Sep 2021 02:41:53.809    9 Sep 2021 03:01:17.870          1164.061
                      28    9 Sep 2021 03:34:25.396    9 Sep 2021 03:53:49.458          1164.062

Min Duration           1    8 Sep 2021 04:00:00.000    8 Sep 2021 04:15:36.573           936.573
Max Duration           4    8 Sep 2021 06:33:47.272    8 Sep 2021 06:53:11.338          1164.066
Mean Duration                                                                           1155.939
Total Duration                                                                         32366.280


Satellite708-To-Satellite208
----------------------------
                  Access       Start Time (UTCG)           Stop Time (UTCG)       Duration (sec)
                  ------    -----------------------    -----------------------    --------------
                       1    8 Sep 2021 04:00:00.000    8 Sep 2021 04:04:10.204           250.204
                       2    8 Sep 2021 04:49:40.151    8 Sep 2021 04:56:41.792           421.641
                       3    8 Sep 2021 05:42:11.738    8 Sep 2021 05:49:13.381           421.644
                       4    8 Sep 2021 06:34:43.327    8 Sep 2021 06:41:44.969           421.643
                       5    8 Sep 2021 07:27:14.915    8 Sep 2021 07:34:16.558           421.643
                       6    8 Sep 2021 08:19:46.503    8 Sep 2021 08:26:48.146           421.644
                       7    8 Sep 2021 09:12:18.094    8 Sep 2021 09:19:19.735           421.641
                       8    8 Sep 2021 10:04:49.679    8 Sep 2021 10:11:51.323           421.644
                       9    8 Sep 2021 10:57:21.270    8 Sep 2021 11:04:22.911           421.641
                      10    8 Sep 2021 11:49:52.856    8 Sep 2021 11:56:54.500           421.644
                      11    8 Sep 2021 12:42:24.449    8 Sep 2021 12:49:26.088           421.639
                      12    8 Sep 2021 13:34:56.033    8 Sep 2021 13:41:57.673           421.641
                      13    8 Sep 2021 14:27:27.625    8 Sep 2021 14:34:29.265           421.640
                      14    8 Sep 2021 15:19:59.210    8 Sep 2021 15:27:00.854           421.644
                      15    8 Sep 2021 16:12:30.801    8 Sep 2021 16:19:32.441           421.641
                      16    8 Sep 2021 17:05:02.387    8 Sep 2021 17:12:04.030           421.644
                      17    8 Sep 2021 17:57:33.977    8 Sep 2021 18:04:35.618           421.641
                      18    8 Sep 2021 18:50:05.564    8 Sep 2021 18:57:07.207           421.644
                      19    8 Sep 2021 19:42:37.153    8 Sep 2021 19:49:38.795           421.643
                      20    8 Sep 2021 20:35:08.741    8 Sep 2021 20:42:10.384           421.643
                      21    8 Sep 2021 21:27:40.329    8 Sep 2021 21:34:41.972           421.644
                      22    8 Sep 2021 22:20:11.920    8 Sep 2021 22:27:13.561           421.641
                      23    8 Sep 2021 23:12:43.505    8 Sep 2021 23:19:45.149           421.644
                      24    9 Sep 2021 00:05:15.096    9 Sep 2021 00:12:16.737           421.641
                      25    9 Sep 2021 00:57:46.682    9 Sep 2021 01:04:48.326           421.644
                      26    9 Sep 2021 01:50:18.275    9 Sep 2021 01:57:19.914           421.639
                      27    9 Sep 2021 02:42:49.859    9 Sep 2021 02:49:51.499           421.641
                      28    9 Sep 2021 03:35:21.451    9 Sep 2021 03:42:23.091           421.640

Min Duration           1    8 Sep 2021 04:00:00.000    8 Sep 2021 04:04:10.204           250.204
Max Duration          14    8 Sep 2021 15:19:59.210    8 Sep 2021 15:27:00.854           421.644
Mean Duration                                                                            415.519
Total Duration                                                                         11634.541


Satellite708-To-Satellite301
----------------------------
                  Access       Start Time (UTCG)           Stop Time (UTCG)       Duration (sec)
                  ------    -----------------------    -----------------------    --------------
                       1    8 Sep 2021 04:31:15.461    8 Sep 2021 04:42:16.738           661.277
                       2    8 Sep 2021 05:23:47.048    8 Sep 2021 05:34:48.330           661.282
                       3    8 Sep 2021 06:16:18.635    8 Sep 2021 06:27:19.918           661.283
                       4    8 Sep 2021 07:08:50.223    8 Sep 2021 07:19:51.506           661.284
                       5    8 Sep 2021 08:01:21.811    8 Sep 2021 08:12:23.094           661.283
                       6    8 Sep 2021 08:53:53.403    8 Sep 2021 09:04:54.682           661.279
                       7    8 Sep 2021 09:46:24.992    8 Sep 2021 09:57:26.270           661.278
                       8    8 Sep 2021 10:38:56.580    8 Sep 2021 10:49:57.857           661.278
                       9    8 Sep 2021 11:31:28.168    8 Sep 2021 11:42:29.444           661.276
                      10    8 Sep 2021 12:23:59.755    8 Sep 2021 12:35:01.037           661.281
                      11    8 Sep 2021 13:16:31.343    8 Sep 2021 13:27:32.626           661.283
                      12    8 Sep 2021 14:09:02.930    8 Sep 2021 14:20:04.214           661.284
                      13    8 Sep 2021 15:01:34.518    8 Sep 2021 15:12:35.801           661.284
                      14    8 Sep 2021 15:54:06.111    8 Sep 2021 16:05:07.389           661.278
                      15    8 Sep 2021 16:46:37.699    8 Sep 2021 16:57:38.977           661.278
                      16    8 Sep 2021 17:39:09.287    8 Sep 2021 17:50:10.565           661.278
                      17    8 Sep 2021 18:31:40.875    8 Sep 2021 18:42:42.152           661.276
                      18    8 Sep 2021 19:24:12.463    8 Sep 2021 19:35:13.741           661.278
                      19    8 Sep 2021 20:16:44.050    8 Sep 2021 20:27:45.333           661.283
                      20    8 Sep 2021 21:09:15.637    8 Sep 2021 21:20:16.921           661.284
                      21    8 Sep 2021 22:01:47.225    8 Sep 2021 22:12:48.509           661.284
                      22    8 Sep 2021 22:54:18.817    8 Sep 2021 23:05:20.096           661.280
                      23    8 Sep 2021 23:46:50.406    8 Sep 2021 23:57:51.684           661.278
                      24    9 Sep 2021 00:39:21.994    9 Sep 2021 00:50:23.272           661.278
                      25    9 Sep 2021 01:31:53.583    9 Sep 2021 01:42:54.859           661.276
                      26    9 Sep 2021 02:24:25.170    9 Sep 2021 02:35:26.447           661.277
                      27    9 Sep 2021 03:16:56.758    9 Sep 2021 03:27:58.040           661.282

Min Duration          25    9 Sep 2021 01:31:53.583    9 Sep 2021 01:42:54.859           661.276
Max Duration           4    8 Sep 2021 07:08:50.223    8 Sep 2021 07:19:51.506           661.284
Mean Duration                                                                            661.280
Total Duration                                                                         17854.562


Satellite708-To-Satellite302
----------------------------
                  Access       Start Time (UTCG)           Stop Time (UTCG)       Duration (sec)
                  ------    -----------------------    -----------------------    --------------
                       1    8 Sep 2021 04:22:09.195    8 Sep 2021 04:40:52.690          1123.495
                       2    8 Sep 2021 05:14:40.779    8 Sep 2021 05:33:24.276          1123.497
                       3    8 Sep 2021 06:07:12.373    8 Sep 2021 06:25:55.864          1123.491
                       4    8 Sep 2021 06:59:43.961    8 Sep 2021 07:18:27.451          1123.490
                       5    8 Sep 2021 07:52:15.550    8 Sep 2021 08:10:59.041          1123.491
                       6    8 Sep 2021 08:44:47.138    8 Sep 2021 09:03:30.632          1123.495
                       7    8 Sep 2021 09:37:18.721    8 Sep 2021 09:56:02.218          1123.497
                       8    8 Sep 2021 10:29:50.315    8 Sep 2021 10:48:33.805          1123.491
                       9    8 Sep 2021 11:22:21.903    8 Sep 2021 11:41:05.393          1123.490
                      10    8 Sep 2021 12:14:53.489    8 Sep 2021 12:33:36.983          1123.494
                      11    8 Sep 2021 13:07:25.075    8 Sep 2021 13:26:08.574          1123.499
                      12    8 Sep 2021 13:59:56.663    8 Sep 2021 14:18:40.160          1123.497
                      13    8 Sep 2021 14:52:28.257    8 Sep 2021 15:11:11.747          1123.491
                      14    8 Sep 2021 15:44:59.845    8 Sep 2021 16:03:43.335          1123.490
                      15    8 Sep 2021 16:37:31.431    8 Sep 2021 16:56:14.925          1123.494
                      16    8 Sep 2021 17:30:03.017    8 Sep 2021 17:48:46.516          1123.499
                      17    8 Sep 2021 18:22:34.605    8 Sep 2021 18:41:18.102          1123.497
                      18    8 Sep 2021 19:15:06.198    8 Sep 2021 19:33:49.689          1123.491
                      19    8 Sep 2021 20:07:37.787    8 Sep 2021 20:26:21.277          1123.490
                      20    8 Sep 2021 21:00:09.373    8 Sep 2021 21:18:52.867          1123.494
                      21    8 Sep 2021 21:52:40.959    8 Sep 2021 22:11:24.458          1123.499
                      22    8 Sep 2021 22:45:12.547    8 Sep 2021 23:03:56.044          1123.497
                      23    8 Sep 2021 23:37:44.140    8 Sep 2021 23:56:27.631          1123.491
                      24    9 Sep 2021 00:30:15.729    9 Sep 2021 00:48:59.219          1123.490
                      25    9 Sep 2021 01:22:47.315    9 Sep 2021 01:41:30.809          1123.494
                      26    9 Sep 2021 02:15:18.901    9 Sep 2021 02:34:02.400          1123.499
                      27    9 Sep 2021 03:07:50.489    9 Sep 2021 03:26:33.986          1123.497

Min Duration           4    8 Sep 2021 06:59:43.961    8 Sep 2021 07:18:27.451          1123.490
Max Duration          11    8 Sep 2021 13:07:25.075    8 Sep 2021 13:26:08.574          1123.499
Mean Duration                                                                           1123.494
Total Duration                                                                         30334.338


Satellite708-To-Satellite303
----------------------------
                  Access       Start Time (UTCG)           Stop Time (UTCG)       Duration (sec)
                  ------    -----------------------    -----------------------    --------------
                       1    8 Sep 2021 04:14:56.978    8 Sep 2021 04:37:34.589          1357.610
                       2    8 Sep 2021 05:07:28.567    8 Sep 2021 05:30:06.177          1357.610
                       3    8 Sep 2021 06:00:00.155    8 Sep 2021 06:22:37.765          1357.610
                       4    8 Sep 2021 06:52:31.744    8 Sep 2021 07:15:09.354          1357.610
                       5    8 Sep 2021 07:45:03.332    8 Sep 2021 08:07:40.942          1357.610
                       6    8 Sep 2021 08:37:34.920    8 Sep 2021 09:00:12.531          1357.610
                       7    8 Sep 2021 09:30:06.509    8 Sep 2021 09:52:44.119          1357.610
                       8    8 Sep 2021 10:22:38.097    8 Sep 2021 10:45:15.707          1357.610
                       9    8 Sep 2021 11:15:09.686    8 Sep 2021 11:37:47.296          1357.610
                      10    8 Sep 2021 12:07:41.274    8 Sep 2021 12:30:18.884          1357.610
                      11    8 Sep 2021 13:00:12.862    8 Sep 2021 13:22:50.473          1357.610
                      12    8 Sep 2021 13:52:44.451    8 Sep 2021 14:15:22.061          1357.610
                      13    8 Sep 2021 14:45:16.039    8 Sep 2021 15:07:53.649          1357.610
                      14    8 Sep 2021 15:37:47.628    8 Sep 2021 16:00:25.238          1357.610
                      15    8 Sep 2021 16:30:19.216    8 Sep 2021 16:52:56.826          1357.610
                      16    8 Sep 2021 17:22:50.804    8 Sep 2021 17:45:28.414          1357.610
                      17    8 Sep 2021 18:15:22.393    8 Sep 2021 18:38:00.003          1357.610
                      18    8 Sep 2021 19:07:53.981    8 Sep 2021 19:30:31.591          1357.610
                      19    8 Sep 2021 20:00:25.570    8 Sep 2021 20:23:03.180          1357.610
                      20    8 Sep 2021 20:52:57.158    8 Sep 2021 21:15:34.768          1357.610
                      21    8 Sep 2021 21:45:28.746    8 Sep 2021 22:08:06.356          1357.610
                      22    8 Sep 2021 22:38:00.335    8 Sep 2021 23:00:37.945          1357.610
                      23    8 Sep 2021 23:30:31.923    8 Sep 2021 23:53:09.533          1357.610
                      24    9 Sep 2021 00:23:03.511    9 Sep 2021 00:45:41.122          1357.610
                      25    9 Sep 2021 01:15:35.100    9 Sep 2021 01:38:12.710          1357.610
                      26    9 Sep 2021 02:08:06.688    9 Sep 2021 02:30:44.298          1357.610
                      27    9 Sep 2021 03:00:38.277    9 Sep 2021 03:23:15.887          1357.610
                      28    9 Sep 2021 03:53:09.865    9 Sep 2021 04:00:00.000           410.135

Min Duration          28    9 Sep 2021 03:53:09.865    9 Sep 2021 04:00:00.000           410.135
Max Duration           1    8 Sep 2021 04:14:56.978    8 Sep 2021 04:37:34.589          1357.610
Mean Duration                                                                           1323.772
Total Duration                                                                         37065.609


Satellite708-To-Satellite304
----------------------------
                  Access       Start Time (UTCG)           Stop Time (UTCG)       Duration (sec)
                  ------    -----------------------    -----------------------    --------------
                       1    8 Sep 2021 04:09:41.811    8 Sep 2021 04:32:19.431          1357.620
                       2    8 Sep 2021 05:02:13.403    8 Sep 2021 05:24:51.023          1357.620
                       3    8 Sep 2021 05:54:44.992    8 Sep 2021 06:17:22.611          1357.620
                       4    8 Sep 2021 06:47:16.580    8 Sep 2021 07:09:54.200          1357.620
                       5    8 Sep 2021 07:39:48.168    8 Sep 2021 08:02:25.788          1357.620
                       6    8 Sep 2021 08:32:19.757    8 Sep 2021 08:54:57.376          1357.620
                       7    8 Sep 2021 09:24:51.345    8 Sep 2021 09:47:28.965          1357.620
                       8    8 Sep 2021 10:17:22.934    8 Sep 2021 10:40:00.553          1357.620
                       9    8 Sep 2021 11:09:54.522    8 Sep 2021 11:32:32.142          1357.620
                      10    8 Sep 2021 12:02:26.110    8 Sep 2021 12:25:03.730          1357.620
                      11    8 Sep 2021 12:54:57.699    8 Sep 2021 13:17:35.318          1357.620
                      12    8 Sep 2021 13:47:29.287    8 Sep 2021 14:10:06.907          1357.620
                      13    8 Sep 2021 14:40:00.876    8 Sep 2021 15:02:38.495          1357.620
                      14    8 Sep 2021 15:32:32.464    8 Sep 2021 15:55:10.084          1357.620
                      15    8 Sep 2021 16:25:04.052    8 Sep 2021 16:47:41.672          1357.620
                      16    8 Sep 2021 17:17:35.641    8 Sep 2021 17:40:13.260          1357.620
                      17    8 Sep 2021 18:10:07.229    8 Sep 2021 18:32:44.849          1357.620
                      18    8 Sep 2021 19:02:38.818    8 Sep 2021 19:25:16.437          1357.620
                      19    8 Sep 2021 19:55:10.406    8 Sep 2021 20:17:48.026          1357.620
                      20    8 Sep 2021 20:47:41.994    8 Sep 2021 21:10:19.614          1357.620
                      21    8 Sep 2021 21:40:13.583    8 Sep 2021 22:02:51.202          1357.620
                      22    8 Sep 2021 22:32:45.171    8 Sep 2021 22:55:22.791          1357.620
                      23    8 Sep 2021 23:25:16.760    8 Sep 2021 23:47:54.379          1357.620
                      24    9 Sep 2021 00:17:48.348    9 Sep 2021 00:40:25.968          1357.620
                      25    9 Sep 2021 01:10:19.936    9 Sep 2021 01:32:57.556          1357.620
                      26    9 Sep 2021 02:02:51.525    9 Sep 2021 02:25:29.144          1357.620
                      27    9 Sep 2021 02:55:23.113    9 Sep 2021 03:18:00.733          1357.620
                      28    9 Sep 2021 03:47:54.701    9 Sep 2021 04:00:00.000           725.299

Min Duration          28    9 Sep 2021 03:47:54.701    9 Sep 2021 04:00:00.000           725.299
Max Duration           1    8 Sep 2021 04:09:41.811    8 Sep 2021 04:32:19.431          1357.620
Mean Duration                                                                           1335.037
Total Duration                                                                         37381.029


Satellite708-To-Satellite305
----------------------------
                  Access       Start Time (UTCG)           Stop Time (UTCG)       Duration (sec)
                  ------    -----------------------    -----------------------    --------------
                       1    8 Sep 2021 04:06:23.704    8 Sep 2021 04:25:07.226          1123.522
                       2    8 Sep 2021 04:58:55.292    8 Sep 2021 05:17:38.812          1123.520
                       3    8 Sep 2021 05:51:26.882    8 Sep 2021 06:10:10.400          1123.518
                       4    8 Sep 2021 06:43:58.468    8 Sep 2021 07:02:41.992          1123.524
                       5    8 Sep 2021 07:36:30.055    8 Sep 2021 07:55:13.579          1123.524
                       6    8 Sep 2021 08:29:01.648    8 Sep 2021 08:47:45.166          1123.518
                       7    8 Sep 2021 09:21:33.236    8 Sep 2021 09:40:16.753          1123.517
                       8    8 Sep 2021 10:14:04.823    8 Sep 2021 10:32:48.343          1123.520
                       9    8 Sep 2021 11:06:36.409    8 Sep 2021 11:25:19.934          1123.526
                      10    8 Sep 2021 11:59:07.997    8 Sep 2021 12:17:51.521          1123.524
                      11    8 Sep 2021 12:51:39.590    8 Sep 2021 13:10:23.108          1123.518
                      12    8 Sep 2021 13:44:11.178    8 Sep 2021 14:02:54.695          1123.517
                      13    8 Sep 2021 14:36:42.764    8 Sep 2021 14:55:26.285          1123.521
                      14    8 Sep 2021 15:29:14.350    8 Sep 2021 15:47:57.876          1123.526
                      15    8 Sep 2021 16:21:45.939    8 Sep 2021 16:40:29.462          1123.524
                      16    8 Sep 2021 17:14:17.532    8 Sep 2021 17:33:01.050          1123.518
                      17    8 Sep 2021 18:06:49.120    8 Sep 2021 18:25:32.637          1123.517
                      18    8 Sep 2021 18:59:20.706    8 Sep 2021 19:18:04.227          1123.521
                      19    8 Sep 2021 19:51:52.292    8 Sep 2021 20:10:35.818          1123.526
                      20    8 Sep 2021 20:44:23.881    8 Sep 2021 21:03:07.404          1123.524
                      21    8 Sep 2021 21:36:55.474    8 Sep 2021 21:55:38.992          1123.518
                      22    8 Sep 2021 22:29:27.062    8 Sep 2021 22:48:10.579          1123.517
                      23    8 Sep 2021 23:21:58.648    8 Sep 2021 23:40:42.169          1123.521
                      24    9 Sep 2021 00:14:30.234    9 Sep 2021 00:33:13.760          1123.526
                      25    9 Sep 2021 01:07:01.823    9 Sep 2021 01:25:45.346          1123.524
                      26    9 Sep 2021 01:59:33.416    9 Sep 2021 02:18:16.934          1123.518
                      27    9 Sep 2021 02:52:05.004    9 Sep 2021 03:10:48.521          1123.517
                      28    9 Sep 2021 03:44:36.590    9 Sep 2021 04:00:00.000           923.410

Min Duration          28    9 Sep 2021 03:44:36.590    9 Sep 2021 04:00:00.000           923.410
Max Duration          24    9 Sep 2021 00:14:30.234    9 Sep 2021 00:33:13.760          1123.526
Mean Duration                                                                           1116.374
Total Duration                                                                         31258.472


Satellite708-To-Satellite306
----------------------------
                  Access       Start Time (UTCG)           Stop Time (UTCG)       Duration (sec)
                  ------    -----------------------    -----------------------    --------------
                       1    8 Sep 2021 04:04:59.643    8 Sep 2021 04:16:00.970           661.327
                       2    8 Sep 2021 04:57:31.231    8 Sep 2021 05:08:32.556           661.325
                       3    8 Sep 2021 05:50:02.819    8 Sep 2021 06:01:04.147           661.329
                       4    8 Sep 2021 06:42:34.406    8 Sep 2021 06:53:35.737           661.331
                       5    8 Sep 2021 07:35:05.993    8 Sep 2021 07:46:07.325           661.332
                       6    8 Sep 2021 08:27:37.581    8 Sep 2021 08:38:38.913           661.332
                       7    8 Sep 2021 09:20:09.169    8 Sep 2021 09:31:10.501           661.332
                       8    8 Sep 2021 10:12:40.760    8 Sep 2021 10:23:42.089           661.328
                       9    8 Sep 2021 11:05:12.350    8 Sep 2021 11:16:13.677           661.327
                      10    8 Sep 2021 11:57:43.938    8 Sep 2021 12:08:45.263           661.325
                      11    8 Sep 2021 12:50:15.526    8 Sep 2021 13:01:16.852           661.326
                      12    8 Sep 2021 13:42:47.113    8 Sep 2021 13:53:48.444           661.331
                      13    8 Sep 2021 14:35:18.701    8 Sep 2021 14:46:20.033           661.332
                      14    8 Sep 2021 15:27:50.288    8 Sep 2021 15:38:51.620           661.332
                      15    8 Sep 2021 16:20:21.876    8 Sep 2021 16:31:23.208           661.332
                      16    8 Sep 2021 17:12:53.469    8 Sep 2021 17:23:54.796           661.327
                      17    8 Sep 2021 18:05:25.057    8 Sep 2021 18:16:26.384           661.327
                      18    8 Sep 2021 18:57:56.645    8 Sep 2021 19:08:57.971           661.326
                      19    8 Sep 2021 19:50:28.233    8 Sep 2021 20:01:29.559           661.325
                      20    8 Sep 2021 20:42:59.821    8 Sep 2021 20:54:01.151           661.330
                      21    8 Sep 2021 21:35:31.408    8 Sep 2021 21:46:32.740           661.332
                      22    8 Sep 2021 22:28:02.995    8 Sep 2021 22:39:04.328           661.332
                      23    8 Sep 2021 23:20:34.583    8 Sep 2021 23:31:35.915           661.332
                      24    9 Sep 2021 00:13:06.176    9 Sep 2021 00:24:07.503           661.327
                      25    9 Sep 2021 01:05:37.765    9 Sep 2021 01:16:39.091           661.327
                      26    9 Sep 2021 01:58:09.353    9 Sep 2021 02:09:10.679           661.327
                      27    9 Sep 2021 02:50:40.941    9 Sep 2021 03:01:42.266           661.325
                      28    9 Sep 2021 03:43:12.528    9 Sep 2021 03:54:13.855           661.327

Min Duration          10    8 Sep 2021 11:57:43.938    8 Sep 2021 12:08:45.263           661.325
Max Duration          14    8 Sep 2021 15:27:50.288    8 Sep 2021 15:38:51.620           661.332
Mean Duration                                                                            661.329
Total Duration                                                                         18517.207


Satellite708-To-Satellite401
----------------------------
                  Access       Start Time (UTCG)           Stop Time (UTCG)       Duration (sec)
                  ------    -----------------------    -----------------------    --------------
                       1    8 Sep 2021 04:23:41.092    8 Sep 2021 04:48:32.313          1491.221
                       2    8 Sep 2021 05:16:12.684    8 Sep 2021 05:41:03.905          1491.221
                       3    8 Sep 2021 06:08:44.269    8 Sep 2021 06:33:35.490          1491.221
                       4    8 Sep 2021 07:01:15.861    8 Sep 2021 07:26:07.082          1491.221
                       5    8 Sep 2021 07:53:47.446    8 Sep 2021 08:18:38.667          1491.221
                       6    8 Sep 2021 08:46:19.038    8 Sep 2021 09:11:10.259          1491.221
                       7    8 Sep 2021 09:38:50.623    8 Sep 2021 10:03:41.843          1491.221
                       8    8 Sep 2021 10:31:22.215    8 Sep 2021 10:56:13.436          1491.221
                       9    8 Sep 2021 11:23:53.799    8 Sep 2021 11:48:45.020          1491.221
                      10    8 Sep 2021 12:16:25.392    8 Sep 2021 12:41:16.613          1491.221
                      11    8 Sep 2021 13:08:56.976    8 Sep 2021 13:33:48.197          1491.221
                      12    8 Sep 2021 14:01:28.568    8 Sep 2021 14:26:19.789          1491.221
                      13    8 Sep 2021 14:54:00.153    8 Sep 2021 15:18:51.374          1491.221
                      14    8 Sep 2021 15:46:31.745    8 Sep 2021 16:11:22.966          1491.221
                      15    8 Sep 2021 16:39:03.330    8 Sep 2021 17:03:54.551          1491.221
                      16    8 Sep 2021 17:31:34.922    8 Sep 2021 17:56:26.143          1491.221
                      17    8 Sep 2021 18:24:06.507    8 Sep 2021 18:48:57.727          1491.221
                      18    8 Sep 2021 19:16:38.099    8 Sep 2021 19:41:29.320          1491.221
                      19    8 Sep 2021 20:09:09.683    8 Sep 2021 20:34:00.904          1491.221
                      20    8 Sep 2021 21:01:41.276    8 Sep 2021 21:26:32.497          1491.221
                      21    8 Sep 2021 21:54:12.860    8 Sep 2021 22:19:04.081          1491.221
                      22    8 Sep 2021 22:46:44.452    8 Sep 2021 23:11:35.673          1491.221
                      23    8 Sep 2021 23:39:16.037    9 Sep 2021 00:04:07.258          1491.221
                      24    9 Sep 2021 00:31:47.629    9 Sep 2021 00:56:38.850          1491.221
                      25    9 Sep 2021 01:24:19.214    9 Sep 2021 01:49:10.435          1491.221
                      26    9 Sep 2021 02:16:50.806    9 Sep 2021 02:41:42.027          1491.221
                      27    9 Sep 2021 03:09:22.391    9 Sep 2021 03:34:13.611          1491.221

Min Duration           1    8 Sep 2021 04:23:41.092    8 Sep 2021 04:48:32.313          1491.221
Max Duration           2    8 Sep 2021 05:16:12.684    8 Sep 2021 05:41:03.905          1491.221
Mean Duration                                                                           1491.221
