routing/visibility/v710.txt

Satellite710-To-Satellite101
----------------------------
                  Access       Start Time (UTCG)           Stop Time (UTCG)       Duration (sec)
                  ------    -----------------------    -----------------------    --------------
                       1    8 Sep 2021 04:23:37.255    8 Sep 2021 04:31:31.887           474.632
                       2    8 Sep 2021 05:16:08.844    8 Sep 2021 05:24:03.480           474.636
                       3    8 Sep 2021 06:08:40.428    8 Sep 2021 06:16:35.068           474.639
                       4    8 Sep 2021 07:01:12.017    8 Sep 2021 07:09:06.655           474.637
                       5    8 Sep 2021 07:53:43.608    8 Sep 2021 08:01:38.244           474.636
                       6    8 Sep 2021 08:46:15.197    8 Sep 2021 08:54:09.833           474.636
                       7    8 Sep 2021 09:38:46.783    8 Sep 2021 09:46:41.422           474.639
                       8    8 Sep 2021 10:31:18.370    8 Sep 2021 10:39:13.010           474.640
                       9    8 Sep 2021 11:23:49.960    8 Sep 2021 11:31:44.595           474.634
                      10    8 Sep 2021 12:16:21.547    8 Sep 2021 12:24:16.187           474.640
                      11    8 Sep 2021 13:08:53.136    8 Sep 2021 13:16:47.775           474.639
                      12    8 Sep 2021 14:01:24.725    8 Sep 2021 14:09:19.362           474.637
                      13    8 Sep 2021 14:53:56.316    8 Sep 2021 15:01:50.951           474.635
                      14    8 Sep 2021 15:46:27.905    8 Sep 2021 15:54:22.540           474.635
                      15    8 Sep 2021 16:38:59.489    8 Sep 2021 16:46:54.129           474.639
                      16    8 Sep 2021 17:31:31.080    8 Sep 2021 17:39:25.714           474.633
                      17    8 Sep 2021 18:24:02.666    8 Sep 2021 18:31:57.303           474.637
                      18    8 Sep 2021 19:16:34.254    8 Sep 2021 19:24:28.894           474.640
                      19    8 Sep 2021 20:09:05.843    8 Sep 2021 20:17:00.482           474.639
                      20    8 Sep 2021 21:01:37.432    8 Sep 2021 21:09:32.069           474.637
                      21    8 Sep 2021 21:54:09.024    8 Sep 2021 22:02:03.659           474.634
                      22    8 Sep 2021 22:46:40.613    8 Sep 2021 22:54:35.248           474.635
                      23    8 Sep 2021 23:39:12.196    8 Sep 2021 23:47:06.834           474.637
                      24    9 Sep 2021 00:31:43.789    9 Sep 2021 00:39:38.420           474.631
                      25    9 Sep 2021 01:24:15.374    9 Sep 2021 01:32:10.013           474.639
                      26    9 Sep 2021 02:16:46.961    9 Sep 2021 02:24:41.601           474.640
                      27    9 Sep 2021 03:09:18.550    9 Sep 2021 03:17:13.189           474.639

Min Duration          24    9 Sep 2021 00:31:43.789    9 Sep 2021 00:39:38.420           474.631
Max Duration          10    8 Sep 2021 12:16:21.547    8 Sep 2021 12:24:16.187           474.640
Mean Duration                                                                            474.637
Total Duration                                                                         12815.194


Satellite710-To-Satellite107
----------------------------
                  Access       Start Time (UTCG)           Stop Time (UTCG)       Duration (sec)
                  ------    -----------------------    -----------------------    --------------
                       1    8 Sep 2021 04:44:42.486    8 Sep 2021 04:52:27.925           465.439
                       2    8 Sep 2021 05:37:14.075    8 Sep 2021 05:44:59.516           465.441
                       3    8 Sep 2021 06:29:45.666    8 Sep 2021 06:37:31.104           465.438
                       4    8 Sep 2021 07:22:17.256    8 Sep 2021 07:30:02.692           465.437
                       5    8 Sep 2021 08:14:48.842    8 Sep 2021 08:22:34.280           465.438
                       6    8 Sep 2021 09:07:20.428    8 Sep 2021 09:15:05.869           465.441
                       7    8 Sep 2021 09:59:52.017    8 Sep 2021 10:07:37.458           465.441
                       8    8 Sep 2021 10:52:23.607    8 Sep 2021 11:00:09.043           465.437
                       9    8 Sep 2021 11:44:55.193    8 Sep 2021 11:52:40.632           465.438
                      10    8 Sep 2021 12:37:26.782    8 Sep 2021 12:45:12.223           465.441
                      11    8 Sep 2021 13:29:58.373    8 Sep 2021 13:37:43.811           465.438
                      12    8 Sep 2021 14:22:29.963    8 Sep 2021 14:30:15.399           465.437
                      13    8 Sep 2021 15:15:01.549    8 Sep 2021 15:22:46.987           465.439
                      14    8 Sep 2021 16:07:33.136    8 Sep 2021 16:15:18.576           465.441
                      15    8 Sep 2021 17:00:04.724    8 Sep 2021 17:07:50.165           465.441
                      16    8 Sep 2021 17:52:36.316    8 Sep 2021 18:00:21.753           465.437
                      17    8 Sep 2021 18:45:07.901    8 Sep 2021 18:52:53.338           465.438
                      18    8 Sep 2021 19:37:39.489    8 Sep 2021 19:45:24.930           465.441
                      19    8 Sep 2021 20:30:11.080    8 Sep 2021 20:37:56.518           465.438
                      20    8 Sep 2021 21:22:42.670    8 Sep 2021 21:30:28.106           465.437
                      21    8 Sep 2021 22:15:14.256    8 Sep 2021 22:22:59.694           465.439
                      22    8 Sep 2021 23:07:45.843    8 Sep 2021 23:15:31.284           465.441
                      23    9 Sep 2021 00:00:17.431    9 Sep 2021 00:08:02.872           465.441
                      24    9 Sep 2021 00:52:49.024    9 Sep 2021 01:00:34.457           465.433
                      25    9 Sep 2021 01:45:20.608    9 Sep 2021 01:53:06.045           465.437
                      26    9 Sep 2021 02:37:52.197    9 Sep 2021 02:45:37.637           465.441
                      27    9 Sep 2021 03:30:23.787    9 Sep 2021 03:38:09.226           465.438

Min Duration          24    9 Sep 2021 00:52:49.024    9 Sep 2021 01:00:34.457           465.433
Max Duration           7    8 Sep 2021 09:59:52.017    8 Sep 2021 10:07:37.458           465.441
Mean Duration                                                                            465.439
Total Duration                                                                         12566.847


Satellite710-To-Satellite108
----------------------------
                  Access       Start Time (UTCG)           Stop Time (UTCG)       Duration (sec)
                  ------    -----------------------    -----------------------    --------------
                       1    8 Sep 2021 04:00:00.000    8 Sep 2021 04:05:44.272           344.272
                       2    8 Sep 2021 04:28:24.236    8 Sep 2021 04:58:15.856          1791.621
                       3    8 Sep 2021 05:20:55.826    8 Sep 2021 05:50:47.448          1791.622
                       4    8 Sep 2021 06:13:27.415    8 Sep 2021 06:43:19.036          1791.621
                       5    8 Sep 2021 07:05:59.003    8 Sep 2021 07:35:50.624          1791.621
                       6    8 Sep 2021 07:58:30.591    8 Sep 2021 08:28:22.212          1791.621
                       7    8 Sep 2021 08:51:02.179    8 Sep 2021 09:20:53.800          1791.621
                       8    8 Sep 2021 09:43:33.767    8 Sep 2021 10:13:25.388          1791.621
                       9    8 Sep 2021 10:36:05.355    8 Sep 2021 11:05:56.977          1791.621
                      10    8 Sep 2021 11:28:36.944    8 Sep 2021 11:58:28.565          1791.621
                      11    8 Sep 2021 12:21:08.532    8 Sep 2021 12:51:00.153          1791.621
                      12    8 Sep 2021 13:13:40.120    8 Sep 2021 13:43:31.741          1791.621
                      13    8 Sep 2021 14:06:11.708    8 Sep 2021 14:36:03.328          1791.620
                      14    8 Sep 2021 14:58:43.300    8 Sep 2021 15:28:34.917          1791.617
                      15    8 Sep 2021 15:51:14.888    8 Sep 2021 16:21:06.505          1791.617
                      16    8 Sep 2021 16:43:46.477    8 Sep 2021 17:13:38.098          1791.621
                      17    8 Sep 2021 17:36:18.065    8 Sep 2021 18:06:09.686          1791.621
                      18    8 Sep 2021 18:28:49.653    8 Sep 2021 18:58:41.274          1791.621
                      19    8 Sep 2021 19:21:21.241    8 Sep 2021 19:51:12.863          1791.621
                      20    8 Sep 2021 20:13:52.829    8 Sep 2021 20:43:44.451          1791.621
                      21    8 Sep 2021 21:06:24.418    8 Sep 2021 21:36:16.039          1791.621
                      22    8 Sep 2021 21:58:56.006    8 Sep 2021 22:28:47.627          1791.621
                      23    8 Sep 2021 22:51:27.594    8 Sep 2021 23:21:19.215          1791.621
                      24    8 Sep 2021 23:43:59.182    9 Sep 2021 00:13:50.803          1791.621
                      25    9 Sep 2021 00:36:30.770    9 Sep 2021 01:06:22.391          1791.621
                      26    9 Sep 2021 01:29:02.358    9 Sep 2021 01:58:53.979          1791.621
                      27    9 Sep 2021 02:21:33.946    9 Sep 2021 02:51:25.568          1791.621
                      28    9 Sep 2021 03:14:05.535    9 Sep 2021 03:43:57.156          1791.621

Min Duration           1    8 Sep 2021 04:00:00.000    8 Sep 2021 04:05:44.272           344.272
Max Duration           3    8 Sep 2021 05:20:55.826    8 Sep 2021 05:50:47.448          1791.622
Mean Duration                                                                           1739.930
Total Duration                                                                         48718.037


Satellite710-To-Satellite109
----------------------------
                  Access       Start Time (UTCG)           Stop Time (UTCG)       Duration (sec)
                  ------    -----------------------    -----------------------    --------------
                       1    8 Sep 2021 04:00:00.000    8 Sep 2021 04:04:23.951           263.951
                       2    8 Sep 2021 04:19:14.239    8 Sep 2021 04:56:55.541          2261.302
                       3    8 Sep 2021 05:11:45.827    8 Sep 2021 05:49:27.129          2261.302
                       4    8 Sep 2021 06:04:17.416    8 Sep 2021 06:41:58.717          2261.302
                       5    8 Sep 2021 06:56:49.004    8 Sep 2021 07:34:30.306          2261.302
                       6    8 Sep 2021 07:49:20.593    8 Sep 2021 08:27:01.894          2261.302
                       7    8 Sep 2021 08:41:52.181    8 Sep 2021 09:19:33.483          2261.302
                       8    8 Sep 2021 09:34:23.769    8 Sep 2021 10:12:05.071          2261.302
                       9    8 Sep 2021 10:26:55.358    8 Sep 2021 11:04:36.659          2261.302
                      10    8 Sep 2021 11:19:26.946    8 Sep 2021 11:57:08.248          2261.302
                      11    8 Sep 2021 12:11:58.535    8 Sep 2021 12:49:39.836          2261.302
                      12    8 Sep 2021 13:04:30.123    8 Sep 2021 13:42:11.425          2261.302
                      13    8 Sep 2021 13:57:01.711    8 Sep 2021 14:34:43.013          2261.302
                      14    8 Sep 2021 14:49:33.300    8 Sep 2021 15:27:14.601          2261.302
                      15    8 Sep 2021 15:42:04.888    8 Sep 2021 16:19:46.190          2261.302
                      16    8 Sep 2021 16:34:36.477    8 Sep 2021 17:12:17.778          2261.302
                      17    8 Sep 2021 17:27:08.065    8 Sep 2021 18:04:49.367          2261.302
                      18    8 Sep 2021 18:19:39.653    8 Sep 2021 18:57:20.955          2261.302
                      19    8 Sep 2021 19:12:11.242    8 Sep 2021 19:49:52.543          2261.302
                      20    8 Sep 2021 20:04:42.830    8 Sep 2021 20:42:24.132          2261.302
                      21    8 Sep 2021 20:57:14.419    8 Sep 2021 21:34:55.720          2261.302
                      22    8 Sep 2021 21:49:46.007    8 Sep 2021 22:27:27.309          2261.302
                      23    8 Sep 2021 22:42:17.595    8 Sep 2021 23:19:58.897          2261.302
                      24    8 Sep 2021 23:34:49.184    9 Sep 2021 00:12:30.485          2261.302
                      25    9 Sep 2021 00:27:20.772    9 Sep 2021 01:05:02.074          2261.302
                      26    9 Sep 2021 01:19:52.360    9 Sep 2021 01:57:33.662          2261.302
                      27    9 Sep 2021 02:12:23.949    9 Sep 2021 02:50:05.251          2261.302
                      28    9 Sep 2021 03:04:55.537    9 Sep 2021 03:42:36.839          2261.302
                      29    9 Sep 2021 03:57:27.126    9 Sep 2021 04:00:00.000           152.874

Min Duration          29    9 Sep 2021 03:57:27.126    9 Sep 2021 04:00:00.000           152.874
Max Duration           2    8 Sep 2021 04:19:14.239    8 Sep 2021 04:56:55.541          2261.302
Mean Duration                                                                           2119.723
Total Duration                                                                         61471.970


Satellite710-To-Satellite110
----------------------------
                  Access       Start Time (UTCG)           Stop Time (UTCG)       Duration (sec)
                  ------    -----------------------    -----------------------    --------------
                       1    8 Sep 2021 04:17:56.560    8 Sep 2021 04:47:42.902          1786.342
                       2    8 Sep 2021 05:10:28.147    8 Sep 2021 05:40:14.492          1786.345
                       3    8 Sep 2021 06:02:59.733    8 Sep 2021 06:32:46.079          1786.346
                       4    8 Sep 2021 06:55:31.324    8 Sep 2021 07:25:17.669          1786.345
                       5    8 Sep 2021 07:48:02.910    8 Sep 2021 08:17:49.257          1786.346
                       6    8 Sep 2021 08:40:34.502    8 Sep 2021 09:10:20.846          1786.344
                       7    8 Sep 2021 09:33:06.087    8 Sep 2021 10:02:52.434          1786.346
                       8    8 Sep 2021 10:25:37.679    8 Sep 2021 10:55:24.023          1786.344
                       9    8 Sep 2021 11:18:09.264    8 Sep 2021 11:47:55.610          1786.347
                      10    8 Sep 2021 12:10:40.855    8 Sep 2021 12:40:27.200          1786.344
                      11    8 Sep 2021 13:03:12.441    8 Sep 2021 13:32:58.787          1786.347
                      12    8 Sep 2021 13:55:44.032    8 Sep 2021 14:25:30.376          1786.344
                      13    8 Sep 2021 14:48:15.618    8 Sep 2021 15:18:01.964          1786.347
                      14    8 Sep 2021 15:40:47.209    8 Sep 2021 16:10:33.553          1786.344
                      15    8 Sep 2021 16:33:18.794    8 Sep 2021 17:03:05.141          1786.347
                      16    8 Sep 2021 17:25:50.386    8 Sep 2021 17:55:36.730          1786.344
                      17    8 Sep 2021 18:18:21.971    8 Sep 2021 18:48:08.318          1786.347
                      18    8 Sep 2021 19:10:53.563    8 Sep 2021 19:40:39.907          1786.344
                      19    8 Sep 2021 20:03:25.148    8 Sep 2021 20:33:11.494          1786.347
                      20    8 Sep 2021 20:55:56.739    8 Sep 2021 21:25:43.084          1786.344
                      21    8 Sep 2021 21:48:28.325    8 Sep 2021 22:18:14.671          1786.347
                      22    8 Sep 2021 22:40:59.916    8 Sep 2021 23:10:46.260          1786.344
                      23    8 Sep 2021 23:33:31.501    9 Sep 2021 00:03:17.848          1786.347
                      24    9 Sep 2021 00:26:03.093    9 Sep 2021 00:55:49.437          1786.344
                      25    9 Sep 2021 01:18:34.678    9 Sep 2021 01:48:21.025          1786.347
                      26    9 Sep 2021 02:11:06.270    9 Sep 2021 02:40:52.614          1786.344
                      27    9 Sep 2021 03:03:37.855    9 Sep 2021 03:33:24.202          1786.347
                      28    9 Sep 2021 03:56:09.447    9 Sep 2021 04:00:00.000           230.553

Min Duration          28    9 Sep 2021 03:56:09.447    9 Sep 2021 04:00:00.000           230.553
Max Duration          27    9 Sep 2021 03:03:37.855    9 Sep 2021 03:33:24.202          1786.347
Mean Duration                                                                           1730.781
Total Duration                                                                         48461.876


Satellite710-To-Satellite205
----------------------------
                  Access       Start Time (UTCG)           Stop Time (UTCG)       Duration (sec)
                  ------    -----------------------    -----------------------    --------------
                       1    8 Sep 2021 04:02:57.349    8 Sep 2021 04:08:51.734           354.385
                       2    8 Sep 2021 04:55:28.938    8 Sep 2021 05:01:23.324           354.385
                       3    8 Sep 2021 05:48:00.524    8 Sep 2021 05:53:54.912           354.388
                       4    8 Sep 2021 06:40:32.112    8 Sep 2021 06:46:26.497           354.385
                       5    8 Sep 2021 07:33:03.703    8 Sep 2021 07:38:58.088           354.385
                       6    8 Sep 2021 08:25:35.294    8 Sep 2021 08:31:29.678           354.384
                       7    8 Sep 2021 09:18:06.878    8 Sep 2021 09:24:01.265           354.387
                       8    8 Sep 2021 10:10:38.467    8 Sep 2021 10:16:32.852           354.385
                       9    8 Sep 2021 11:03:10.059    8 Sep 2021 11:09:04.442           354.384
                      10    8 Sep 2021 11:55:41.643    8 Sep 2021 12:01:36.031           354.388
                      11    8 Sep 2021 12:48:13.231    8 Sep 2021 12:54:07.615           354.384
                      12    8 Sep 2021 13:40:44.823    8 Sep 2021 13:46:39.207           354.384
                      13    8 Sep 2021 14:33:16.412    8 Sep 2021 14:39:10.796           354.384
                      14    8 Sep 2021 15:25:47.996    8 Sep 2021 15:31:42.384           354.388
                      15    8 Sep 2021 16:18:19.585    8 Sep 2021 16:24:13.970           354.385
                      16    8 Sep 2021 17:10:51.177    8 Sep 2021 17:16:45.561           354.384
                      17    8 Sep 2021 18:03:22.761    8 Sep 2021 18:09:17.150           354.388
                      18    8 Sep 2021 18:55:54.350    8 Sep 2021 19:01:48.734           354.384
                      19    8 Sep 2021 19:48:25.941    8 Sep 2021 19:54:20.326           354.384
                      20    8 Sep 2021 20:40:57.531    8 Sep 2021 20:46:51.915           354.384
                      21    8 Sep 2021 21:33:29.120    8 Sep 2021 21:39:23.503           354.384
                      22    8 Sep 2021 22:26:00.704    8 Sep 2021 22:31:55.089           354.385
                      23    8 Sep 2021 23:18:32.295    8 Sep 2021 23:24:26.680           354.385
                      24    9 Sep 2021 00:11:03.880    9 Sep 2021 00:16:58.269           354.389
                      25    9 Sep 2021 01:03:35.469    9 Sep 2021 01:09:29.852           354.384
                      26    9 Sep 2021 01:56:07.060    9 Sep 2021 02:02:01.444           354.385
                      27    9 Sep 2021 02:48:38.649    9 Sep 2021 02:54:33.034           354.385
                      28    9 Sep 2021 03:41:10.234    9 Sep 2021 03:47:04.622           354.388

Min Duration          25    9 Sep 2021 01:03:35.469    9 Sep 2021 01:09:29.852           354.384
Max Duration          24    9 Sep 2021 00:11:03.880    9 Sep 2021 00:16:58.269           354.389
Mean Duration                                                                            354.385
Total Duration                                                                          9922.791


Satellite710-To-Satellite206
----------------------------
                  Access       Start Time (UTCG)           Stop Time (UTCG)       Duration (sec)
                  ------    -----------------------    -----------------------    --------------
                       1    8 Sep 2021 04:00:00.000    8 Sep 2021 04:10:11.848           611.848
                       2    8 Sep 2021 04:43:38.508    8 Sep 2021 05:02:43.436          1144.928
                       3    8 Sep 2021 05:36:10.097    8 Sep 2021 05:55:15.023          1144.926
                       4    8 Sep 2021 06:28:41.685    8 Sep 2021 06:47:46.610          1144.925
                       5    8 Sep 2021 07:21:13.274    8 Sep 2021 07:40:18.201          1144.927
                       6    8 Sep 2021 08:13:44.858    8 Sep 2021 08:32:49.789          1144.931
                       7    8 Sep 2021 09:06:16.447    8 Sep 2021 09:25:21.377          1144.930
                       8    8 Sep 2021 09:58:48.036    8 Sep 2021 10:17:52.966          1144.930
                       9    8 Sep 2021 10:51:19.624    8 Sep 2021 11:10:24.554          1144.930
                      10    8 Sep 2021 11:43:51.213    8 Sep 2021 12:02:56.142          1144.929
                      11    8 Sep 2021 12:36:22.801    8 Sep 2021 12:55:27.731          1144.929
                      12    8 Sep 2021 13:28:54.390    8 Sep 2021 13:47:59.319          1144.929
                      13    8 Sep 2021 14:21:25.978    8 Sep 2021 14:40:30.907          1144.929
                      14    8 Sep 2021 15:13:57.567    8 Sep 2021 15:33:02.496          1144.929
                      15    8 Sep 2021 16:06:29.155    8 Sep 2021 16:25:34.084          1144.929
                      16    8 Sep 2021 16:59:00.744    8 Sep 2021 17:18:05.673          1144.929
                      17    8 Sep 2021 17:51:32.332    8 Sep 2021 18:10:37.261          1144.929
                      18    8 Sep 2021 18:44:03.920    8 Sep 2021 19:03:08.849          1144.929
                      19    8 Sep 2021 19:36:35.509    8 Sep 2021 19:55:40.438          1144.929
                      20    8 Sep 2021 20:29:07.097    8 Sep 2021 20:48:12.026          1144.929
                      21    8 Sep 2021 21:21:38.686    8 Sep 2021 21:40:43.615          1144.929
                      22    8 Sep 2021 22:14:10.274    8 Sep 2021 22:33:15.203          1144.929
                      23    8 Sep 2021 23:06:41.862    8 Sep 2021 23:25:46.791          1144.929
                      24    8 Sep 2021 23:59:13.451    9 Sep 2021 00:18:18.380          1144.929
                      25    9 Sep 2021 00:51:45.039    9 Sep 2021 01:10:49.968          1144.929
                      26    9 Sep 2021 01:44:16.628    9 Sep 2021 02:03:21.557          1144.929
                      27    9 Sep 2021 02:36:48.216    9 Sep 2021 02:55:53.145          1144.929
                      28    9 Sep 2021 03:29:19.804    9 Sep 2021 03:48:24.733          1144.929

Min Duration           1    8 Sep 2021 04:00:00.000    8 Sep 2021 04:10:11.848           611.848
Max Duration           6    8 Sep 2021 08:13:44.858    8 Sep 2021 08:32:49.789          1144.931
Mean Duration                                                                           1125.890
Total Duration                                                                         31524.926


Satellite710-To-Satellite207
----------------------------
                  Access       Start Time (UTCG)           Stop Time (UTCG)       Duration (sec)
                  ------    -----------------------    -----------------------    --------------
                       1    8 Sep 2021 04:00:00.000    8 Sep 2021 04:07:46.852           466.852
                       2    8 Sep 2021 04:35:33.184    8 Sep 2021 05:00:18.443          1485.259
                       3    8 Sep 2021 05:28:04.773    8 Sep 2021 05:52:50.028          1485.255
                       4    8 Sep 2021 06:20:36.360    8 Sep 2021 06:45:21.620          1485.260
                       5    8 Sep 2021 07:13:07.949    8 Sep 2021 07:37:53.204          1485.256
                       6    8 Sep 2021 08:05:39.537    8 Sep 2021 08:30:24.797          1485.260
                       7    8 Sep 2021 08:58:11.127    8 Sep 2021 09:22:56.381          1485.254
                       8    8 Sep 2021 09:50:42.713    8 Sep 2021 10:15:27.973          1485.260
                       9    8 Sep 2021 10:43:14.304    8 Sep 2021 11:07:59.558          1485.254
                      10    8 Sep 2021 11:35:45.890    8 Sep 2021 12:00:31.150          1485.260
                      11    8 Sep 2021 12:28:17.481    8 Sep 2021 12:53:02.735          1485.254
                      12    8 Sep 2021 13:20:49.067    8 Sep 2021 13:45:34.327          1485.260
                      13    8 Sep 2021 14:13:20.657    8 Sep 2021 14:38:05.912          1485.254
                      14    8 Sep 2021 15:05:52.244    8 Sep 2021 15:30:37.504          1485.260
                      15    8 Sep 2021 15:58:23.834    8 Sep 2021 16:23:09.088          1485.254
                      16    8 Sep 2021 16:50:55.421    8 Sep 2021 17:15:40.680          1485.260
                      17    8 Sep 2021 17:43:27.011    8 Sep 2021 18:08:12.265          1485.254
                      18    8 Sep 2021 18:35:58.597    8 Sep 2021 19:00:43.857          1485.260
                      19    8 Sep 2021 19:28:30.188    8 Sep 2021 19:53:15.442          1485.254
                      20    8 Sep 2021 20:21:01.774    8 Sep 2021 20:45:47.034          1485.260
                      21    8 Sep 2021 21:13:33.365    8 Sep 2021 21:38:18.619          1485.254
                      22    8 Sep 2021 22:06:04.951    8 Sep 2021 22:30:50.211          1485.260
                      23    8 Sep 2021 22:58:36.541    8 Sep 2021 23:23:21.796          1485.254
                      24    8 Sep 2021 23:51:08.128    9 Sep 2021 00:15:53.388          1485.260
                      25    9 Sep 2021 00:43:39.718    9 Sep 2021 01:08:24.972          1485.254
                      26    9 Sep 2021 01:36:11.305    9 Sep 2021 02:00:56.564          1485.260
                      27    9 Sep 2021 02:28:42.895    9 Sep 2021 02:53:28.149          1485.254
                      28    9 Sep 2021 03:21:14.481    9 Sep 2021 03:45:59.741          1485.260

Min Duration           1    8 Sep 2021 04:00:00.000    8 Sep 2021 04:07:46.852           466.852
Max Duration          26    9 Sep 2021 01:36:11.305    9 Sep 2021 02:00:56.564          1485.260
Mean Duration                                                                           1448.886
Total Duration                                                                         40568.797


Satellite710-To-Satellite208
----------------------------
                  Access       Start Time (UTCG)           Stop Time (UTCG)       Duration (sec)
                  ------    -----------------------    -----------------------    --------------
                       1    8 Sep 2021 04:00:00.000    8 Sep 2021 04:02:34.683           154.683
                       2    8 Sep 2021 04:30:15.038    8 Sep 2021 04:55:06.268          1491.230
                       3    8 Sep 2021 05:22:46.626    8 Sep 2021 05:47:37.860          1491.235
                       4    8 Sep 2021 06:15:18.211    8 Sep 2021 06:40:09.445          1491.234
                       5    8 Sep 2021 07:07:49.803    8 Sep 2021 07:32:41.037          1491.234
                       6    8 Sep 2021 08:00:21.388    8 Sep 2021 08:25:12.622          1491.234
                       7    8 Sep 2021 08:52:52.980    8 Sep 2021 09:17:44.214          1491.234
                       8    8 Sep 2021 09:45:24.565    8 Sep 2021 10:10:15.799          1491.234
                       9    8 Sep 2021 10:37:56.157    8 Sep 2021 11:02:47.391          1491.234
                      10    8 Sep 2021 11:30:27.741    8 Sep 2021 11:55:18.975          1491.234
                      11    8 Sep 2021 12:22:59.334    8 Sep 2021 12:47:50.568          1491.234
                      12    8 Sep 2021 13:15:30.918    8 Sep 2021 13:40:22.152          1491.234
                      13    8 Sep 2021 14:08:02.510    8 Sep 2021 14:32:53.744          1491.234
                      14    8 Sep 2021 15:00:34.095    8 Sep 2021 15:25:25.329          1491.234
                      15    8 Sep 2021 15:53:05.687    8 Sep 2021 16:17:56.921          1491.234
                      16    8 Sep 2021 16:45:37.272    8 Sep 2021 17:10:28.506          1491.234
                      17    8 Sep 2021 17:38:08.864    8 Sep 2021 18:03:00.098          1491.234
                      18    8 Sep 2021 18:30:40.449    8 Sep 2021 18:55:31.683          1491.234
                      19    8 Sep 2021 19:23:12.041    8 Sep 2021 19:48:03.275          1491.234
                      20    8 Sep 2021 20:15:43.625    8 Sep 2021 20:40:34.859          1491.234
                      21    8 Sep 2021 21:08:15.218    8 Sep 2021 21:33:06.452          1491.234
                      22    8 Sep 2021 22:00:46.802    8 Sep 2021 22:25:38.036          1491.234
                      23    8 Sep 2021 22:53:18.394    8 Sep 2021 23:18:09.628          1491.234
                      24    8 Sep 2021 23:45:49.979    9 Sep 2021 00:10:41.213          1491.234
                      25    9 Sep 2021 00:38:21.571    9 Sep 2021 01:03:12.805          1491.234
                      26    9 Sep 2021 01:30:53.156    9 Sep 2021 01:55:44.390          1491.234
                      27    9 Sep 2021 02:23:24.748    9 Sep 2021 02:48:15.982          1491.234
                      28    9 Sep 2021 03:15:56.333    9 Sep 2021 03:40:47.566          1491.234

Min Duration           1    8 Sep 2021 04:00:00.000    8 Sep 2021 04:02:34.683           154.683
Max Duration           3    8 Sep 2021 05:22:46.626    8 Sep 2021 05:47:37.860          1491.235
Mean Duration                                                                           1443.500
Total Duration                                                                         40417.996


Satellite710-To-Satellite209
----------------------------
                  Access       Start Time (UTCG)           Stop Time (UTCG)       Duration (sec)
                  ------    -----------------------    -----------------------    --------------
                       1    8 Sep 2021 04:27:43.464    8 Sep 2021 04:47:07.528          1164.065
                       2    8 Sep 2021 05:20:15.052    8 Sep 2021 05:39:39.114          1164.062
                       3    8 Sep 2021 06:12:46.640    8 Sep 2021 06:32:10.704          1164.064
                       4    8 Sep 2021 07:05:18.228    8 Sep 2021 07:24:42.291          1164.063
                       5    8 Sep 2021 07:57:49.815    8 Sep 2021 08:17:13.879          1164.065
                       6    8 Sep 2021 08:50:21.406    8 Sep 2021 09:09:45.467          1164.061
                       7    8 Sep 2021 09:42:52.993    8 Sep 2021 10:02:17.055          1164.062
                       8    8 Sep 2021 10:35:24.582    8 Sep 2021 10:54:48.646          1164.064
                       9    8 Sep 2021 11:27:56.171    8 Sep 2021 11:47:20.233          1164.062
                      10    8 Sep 2021 12:20:27.757    8 Sep 2021 12:39:51.821          1164.064
                      11    8 Sep 2021 13:12:59.346    8 Sep 2021 13:32:23.409          1164.063
                      12    8 Sep 2021 14:05:30.935    8 Sep 2021 14:24:55.000          1164.065
                      13    8 Sep 2021 14:58:02.525    8 Sep 2021 15:17:26.587          1164.062
                      14    8 Sep 2021 15:50:34.111    8 Sep 2021 16:09:58.175          1164.064
                      15    8 Sep 2021 16:43:05.700    8 Sep 2021 17:02:29.763          1164.063
                      16    8 Sep 2021 17:35:37.288    8 Sep 2021 17:55:01.352          1164.064
                      17    8 Sep 2021 18:28:08.878    8 Sep 2021 18:47:32.939          1164.061
                      18    8 Sep 2021 19:20:40.465    8 Sep 2021 19:40:04.527          1164.062
                      19    8 Sep 2021 20:13:12.054    8 Sep 2021 20:32:36.118          1164.064
                      20    8 Sep 2021 21:05:43.643    8 Sep 2021 21:25:07.706          1164.063
                      21    8 Sep 2021 21:58:15.229    8 Sep 2021 22:17:39.293          1164.064
                      22    8 Sep 2021 22:50:46.819    8 Sep 2021 23:10:10.882          1164.063
                      23    8 Sep 2021 23:43:18.407    9 Sep 2021 00:02:42.472          1164.065
                      24    9 Sep 2021 00:35:49.997    9 Sep 2021 00:55:14.059          1164.062
                      25    9 Sep 2021 01:28:21.584    9 Sep 2021 01:47:45.648          1164.064
                      26    9 Sep 2021 02:20:53.172    9 Sep 2021 02:40:17.236          1164.063
                      27    9 Sep 2021 03:13:24.760    9 Sep 2021 03:32:48.824          1164.064

Min Duration          17    8 Sep 2021 18:28:08.878    8 Sep 2021 18:47:32.939          1164.061
Max Duration          23    8 Sep 2021 23:43:18.407    9 Sep 2021 00:02:42.472          1164.065
Mean Duration                                                                           1164.063
Total Duration                                                                         31429.710


Satellite710-To-Satellite210
----------------------------
                  Access       Start Time (UTCG)           Stop Time (UTCG)       Duration (sec)
                  ------    -----------------------    -----------------------    --------------
                       1    8 Sep 2021 04:28:39.514    8 Sep 2021 04:35:41.158           421.644
                       2    8 Sep 2021 05:21:11.104    8 Sep 2021 05:28:12.745           421.641
                       3    8 Sep 2021 06:13:42.691    8 Sep 2021 06:20:44.334           421.644
                       4    8 Sep 2021 07:06:14.280    8 Sep 2021 07:13:15.922           421.642
                       5    8 Sep 2021 07:58:45.868    8 Sep 2021 08:05:47.511           421.643
                       6    8 Sep 2021 08:51:17.456    8 Sep 2021 08:58:19.099           421.643
                       7    8 Sep 2021 09:43:49.047    8 Sep 2021 09:50:50.688           421.641
                       8    8 Sep 2021 10:36:20.632    8 Sep 2021 10:43:22.276           421.644
                       9    8 Sep 2021 11:28:52.223    8 Sep 2021 11:35:53.864           421.641
                      10    8 Sep 2021 12:21:23.809    8 Sep 2021 12:28:25.453           421.644
                      11    8 Sep 2021 13:13:55.402    8 Sep 2021 13:20:57.041           421.639
                      12    8 Sep 2021 14:06:26.986    8 Sep 2021 14:13:28.628           421.642
                      13    8 Sep 2021 14:58:58.578    8 Sep 2021 15:06:00.218           421.640
                      14    8 Sep 2021 15:51:30.163    8 Sep 2021 15:58:31.807           421.644
                      15    8 Sep 2021 16:44:01.754    8 Sep 2021 16:51:03.394           421.640
                      16    8 Sep 2021 17:36:33.339    8 Sep 2021 17:43:34.983           421.644
                      17    8 Sep 2021 18:29:04.930    8 Sep 2021 18:36:06.571           421.641
                      18    8 Sep 2021 19:21:36.516    8 Sep 2021 19:28:38.160           421.644
                      19    8 Sep 2021 20:14:08.106    8 Sep 2021 20:21:09.748           421.642
                      20    8 Sep 2021 21:06:39.694    8 Sep 2021 21:13:41.337           421.643
                      21    8 Sep 2021 21:59:11.282    8 Sep 2021 22:06:12.925           421.643
                      22    8 Sep 2021 22:51:42.873    8 Sep 2021 22:58:44.514           421.641
                      23    8 Sep 2021 23:44:14.458    8 Sep 2021 23:51:16.102           421.644
                      24    9 Sep 2021 00:36:46.049    9 Sep 2021 00:43:47.690           421.641
                      25    9 Sep 2021 01:29:17.635    9 Sep 2021 01:36:19.279           421.644
                      26    9 Sep 2021 02:21:49.228    9 Sep 2021 02:28:50.867           421.639
                      27    9 Sep 2021 03:14:20.812    9 Sep 2021 03:21:22.453           421.642

Min Duration          11    8 Sep 2021 13:13:55.402    8 Sep 2021 13:20:57.041           421.639
Max Duration          14    8 Sep 2021 15:51:30.163    8 Sep 2021 15:58:31.807           421.644
Mean Duration                                                                            421.642
Total Duration                                                                         11384.340


Satellite710-To-Satellite303
----------------------------
                  Access       Start Time (UTCG)           Stop Time (UTCG)       Duration (sec)
                  ------    -----------------------    -----------------------    --------------
                       1    8 Sep 2021 04:10:14.824    8 Sep 2021 04:21:16.105           661.281
                       2    8 Sep 2021 05:02:46.415    8 Sep 2021 05:13:47.693           661.278
                       3    8 Sep 2021 05:55:18.003    8 Sep 2021 06:06:19.281           661.278
                       4    8 Sep 2021 06:47:49.591    8 Sep 2021 06:58:50.867           661.276
                       5    8 Sep 2021 07:40:21.179    8 Sep 2021 07:51:22.460           661.281
                       6    8 Sep 2021 08:32:52.766    8 Sep 2021 08:43:54.049           661.282
                       7    8 Sep 2021 09:25:24.353    8 Sep 2021 09:36:25.637           661.283
                       8    8 Sep 2021 10:17:55.941    8 Sep 2021 10:28:57.224           661.284
                       9    8 Sep 2021 11:10:27.529    8 Sep 2021 11:21:28.812           661.283
                      10    8 Sep 2021 12:02:59.122    8 Sep 2021 12:14:00.400           661.278
                      11    8 Sep 2021 12:55:30.710    8 Sep 2021 13:06:31.988           661.278
                      12    8 Sep 2021 13:48:02.298    8 Sep 2021 13:59:03.574           661.276
                      13    8 Sep 2021 14:40:33.886    8 Sep 2021 14:51:35.163           661.277
                      14    8 Sep 2021 15:33:05.473    8 Sep 2021 15:44:06.756           661.282
                      15    8 Sep 2021 16:25:37.061    8 Sep 2021 16:36:38.344           661.283
                      16    8 Sep 2021 17:18:08.648    8 Sep 2021 17:29:09.932           661.284
                      17    8 Sep 2021 18:10:40.236    8 Sep 2021 18:21:41.519           661.283
                      18    8 Sep 2021 19:03:11.828    8 Sep 2021 19:14:13.107           661.279
                      19    8 Sep 2021 19:55:43.417    8 Sep 2021 20:06:44.695           661.278
                      20    8 Sep 2021 20:48:15.006    8 Sep 2021 20:59:16.281           661.276
                      21    8 Sep 2021 21:40:46.593    8 Sep 2021 21:51:47.871           661.278
                      22    8 Sep 2021 22:33:18.181    8 Sep 2021 22:44:19.463           661.282
                      23    8 Sep 2021 23:25:49.768    8 Sep 2021 23:36:51.051           661.283
                      24    9 Sep 2021 00:18:21.355    9 Sep 2021 00:29:22.639           661.284
                      25    9 Sep 2021 01:10:52.943    9 Sep 2021 01:21:54.227           661.283
                      26    9 Sep 2021 02:03:24.533    9 Sep 2021 02:14:25.814           661.281
                      27    9 Sep 2021 02:55:56.125    9 Sep 2021 03:06:57.402           661.278
                      28    9 Sep 2021 03:48:27.712    9 Sep 2021 03:59:28.989           661.276

Min Duration          20    8 Sep 2021 20:48:15.006    8 Sep 2021 20:59:16.281           661.276
Max Duration          16    8 Sep 2021 17:18:08.648    8 Sep 2021 17:29:09.932           661.284
Mean Duration                                                                            661.280
Total Duration                                                                         18515.847


Satellite710-To-Satellite304
----------------------------
                  Access       Start Time (UTCG)           Stop Time (UTCG)       Duration (sec)
                  ------    -----------------------    -----------------------    --------------
                       1    8 Sep 2021 04:01:08.560    8 Sep 2021 04:19:52.051          1123.491
                       2    8 Sep 2021 04:53:40.149    8 Sep 2021 05:12:23.639          1123.490
                       3    8 Sep 2021 05:46:11.735    8 Sep 2021 06:04:55.229          1123.494
                       4    8 Sep 2021 06:38:43.321    8 Sep 2021 06:57:26.820          1123.499
                       5    8 Sep 2021 07:31:14.909    8 Sep 2021 07:49:58.406          1123.497
                       6    8 Sep 2021 08:23:46.502    8 Sep 2021 08:42:29.993          1123.491
                       7    8 Sep 2021 09:16:18.091    8 Sep 2021 09:35:01.581          1123.490
                       8    8 Sep 2021 10:08:49.677    8 Sep 2021 10:27:33.171          1123.494
                       9    8 Sep 2021 11:01:21.263    8 Sep 2021 11:20:04.762          1123.499
                      10    8 Sep 2021 11:53:52.851    8 Sep 2021 12:12:36.348          1123.497
                      11    8 Sep 2021 12:46:24.444    8 Sep 2021 13:05:07.935          1123.491
                      12    8 Sep 2021 13:38:56.033    8 Sep 2021 13:57:39.523          1123.490
                      13    8 Sep 2021 14:31:27.619    8 Sep 2021 14:50:11.113          1123.494
                      14    8 Sep 2021 15:23:59.205    8 Sep 2021 15:42:42.704          1123.499
                      15    8 Sep 2021 16:16:30.793    8 Sep 2021 16:35:14.290          1123.497
                      16    8 Sep 2021 17:09:02.386    8 Sep 2021 17:27:45.877          1123.491
                      17    8 Sep 2021 18:01:33.975    8 Sep 2021 18:20:17.465          1123.490
                      18    8 Sep 2021 18:54:05.561    8 Sep 2021 19:12:49.055          1123.494
                      19    8 Sep 2021 19:46:37.147    8 Sep 2021 20:05:20.646          1123.499
                      20    8 Sep 2021 20:39:08.735    8 Sep 2021 20:57:52.232          1123.497
                      21    8 Sep 2021 21:31:40.328    8 Sep 2021 21:50:23.819          1123.491
                      22    8 Sep 2021 22:24:11.917    8 Sep 2021 22:42:55.407          1123.490
                      23    8 Sep 2021 23:16:43.503    8 Sep 2021 23:35:26.997          1123.494
                      24    9 Sep 2021 00:09:15.089    9 Sep 2021 00:27:58.588          1123.499
                      25    9 Sep 2021 01:01:46.677    9 Sep 2021 01:20:30.174          1123.497
                      26    9 Sep 2021 01:54:18.270    9 Sep 2021 02:13:01.761          1123.491
                      27    9 Sep 2021 02:46:49.859    9 Sep 2021 03:05:33.349          1123.490
                      28    9 Sep 2021 03:39:21.445    9 Sep 2021 03:58:04.937          1123.492

Min Duration          27    9 Sep 2021 02:46:49.859    9 Sep 2021 03:05:33.349          1123.490
Max Duration          24    9 Sep 2021 00:09:15.089    9 Sep 2021 00:27:58.588          1123.499
Mean Duration                                                                           1123.494
Total Duration                                                                         31457.826


Satellite710-To-Satellite305
----------------------------
                  Access       Start Time (UTCG)           Stop Time (UTCG)       Duration (sec)
                  ------    -----------------------    -----------------------    --------------
                       1    8 Sep 2021 04:00:00.000    8 Sep 2021 04:16:33.949           993.949
                       2    8 Sep 2021 04:46:27.928    8 Sep 2021 05:09:05.538          1357.610
                       3    8 Sep 2021 05:38:59.516    8 Sep 2021 06:01:37.126          1357.610
                       4    8 Sep 2021 06:31:31.105    8 Sep 2021 06:54:08.715          1357.610
                       5    8 Sep 2021 07:24:02.696    8 Sep 2021 07:46:40.307          1357.610
                       6    8 Sep 2021 08:16:34.285    8 Sep 2021 08:39:11.895          1357.610
                       7    8 Sep 2021 09:09:05.873    8 Sep 2021 09:31:43.484          1357.610
                       8    8 Sep 2021 10:01:37.462    8 Sep 2021 10:24:15.072          1357.610
                       9    8 Sep 2021 10:54:09.050    8 Sep 2021 11:16:46.660          1357.610
                      10    8 Sep 2021 11:46:40.639    8 Sep 2021 12:09:18.249          1357.610
                      11    8 Sep 2021 12:39:12.227    8 Sep 2021 13:01:49.837          1357.610
                      12    8 Sep 2021 13:31:43.815    8 Sep 2021 13:54:21.426          1357.610
                      13    8 Sep 2021 14:24:15.404    8 Sep 2021 14:46:53.014          1357.610
                      14    8 Sep 2021 15:16:46.992    8 Sep 2021 15:39:24.602          1357.610
                      15    8 Sep 2021 16:09:18.581    8 Sep 2021 16:31:56.191          1357.610
                      16    8 Sep 2021 17:01:50.169    8 Sep 2021 17:24:27.779          1357.610
                      17    8 Sep 2021 17:54:21.757    8 Sep 2021 18:16:59.368          1357.610
                      18    8 Sep 2021 18:46:53.346    8 Sep 2021 19:09:30.956          1357.610
                      19    8 Sep 2021 19:39:24.934    8 Sep 2021 20:02:02.544          1357.610
                      20    8 Sep 2021 20:31:56.523    8 Sep 2021 20:54:34.133          1357.610
                      21    8 Sep 2021 21:24:28.111    8 Sep 2021 21:47:05.721          1357.610
                      22    8 Sep 2021 22:16:59.699    8 Sep 2021 22:39:37.309          1357.610
                      23    8 Sep 2021 23:09:31.288    8 Sep 2021 23:32:08.898          1357.610
                      24    9 Sep 2021 00:02:02.876    9 Sep 2021 00:24:40.486          1357.610
                      25    9 Sep 2021 00:54:34.465    9 Sep 2021 01:17:12.075          1357.610
                      26    9 Sep 2021 01:47:06.053    9 Sep 2021 02:09:43.663          1357.610
                      27    9 Sep 2021 02:39:37.641    9 Sep 2021 03:02:15.251          1357.610
                      28    9 Sep 2021 03:32:09.230    9 Sep 2021 03:54:46.840          1357.610

Min Duration           1    8 Sep 2021 04:00:00.000    8 Sep 2021 04:16:33.949           993.949
Max Duration           4    8 Sep 2021 06:31:31.105    8 Sep 2021 06:54:08.715          1357.610
Mean Duration                                                                           1344.622
Total Duration                                                                         37649.424


Satellite710-To-Satellite306
----------------------------
                  Access       Start Time (UTCG)           Stop Time (UTCG)       Duration (sec)
                  ------    -----------------------    -----------------------    --------------
                       1    8 Sep 2021 04:00:00.000    8 Sep 2021 04:11:18.796           678.796
                       2    8 Sep 2021 04:41:12.765    8 Sep 2021 05:03:50.384          1357.620
                       3    8 Sep 2021 05:33:44.356    8 Sep 2021 05:56:21.976          1357.620
                       4    8 Sep 2021 06:26:15.945    8 Sep 2021 06:48:53.564          1357.620
                       5    8 Sep 2021 07:18:47.533    8 Sep 2021 07:41:25.153          1357.620
                       6    8 Sep 2021 08:11:19.121    8 Sep 2021 08:33:56.741          1357.620
                       7    8 Sep 2021 09:03:50.710    8 Sep 2021 09:26:28.329          1357.620
                       8    8 Sep 2021 09:56:22.298    8 Sep 2021 10:18:59.918          1357.620
                       9    8 Sep 2021 10:48:53.887    8 Sep 2021 11:11:31.506          1357.620
                      10    8 Sep 2021 11:41:25.475    8 Sep 2021 12:04:03.095          1357.620
                      11    8 Sep 2021 12:33:57.063    8 Sep 2021 12:56:34.683          1357.620
                      12    8 Sep 2021 13:26:28.652    8 Sep 2021 13:49:06.271          1357.620
                      13    8 Sep 2021 14:19:00.240    8 Sep 2021 14:41:37.860          1357.620
                      14    8 Sep 2021 15:11:31.829    8 Sep 2021 15:34:09.448          1357.620
                      15    8 Sep 2021 16:04:03.417    8 Sep 2021 16:26:41.037          1357.620
                      16    8 Sep 2021 16:56:35.005    8 Sep 2021 17:19:12.625          1357.620
                      17    8 Sep 2021 17:49:06.594    8 Sep 2021 18:11:44.213          1357.620
                      18    8 Sep 2021 18:41:38.182    8 Sep 2021 19:04:15.802          1357.620
                      19    8 Sep 2021 19:34:09.771    8 Sep 2021 19:56:47.390          1357.620
                      20    8 Sep 2021 20:26:41.359    8 Sep 2021 20:49:18.979          1357.620
                      21    8 Sep 2021 21:19:12.947    8 Sep 2021 21:41:50.567          1357.620
                      22    8 Sep 2021 22:11:44.536    8 Sep 2021 22:34:22.155          1357.620
                      23    8 Sep 2021 23:04:16.124    8 Sep 2021 23:26:53.744          1357.620
                      24    8 Sep 2021 23:56:47.713    9 Sep 2021 00:19:25.332          1357.620
                      25    9 Sep 2021 00:49:19.301    9 Sep 2021 01:11:56.921          1357.620
                      26    9 Sep 2021 01:41:50.889    9 Sep 2021 02:04:28.509          1357.620
                      27    9 Sep 2021 02:34:22.478    9 Sep 2021 02:57:00.097          1357.620
                      28    9 Sep 2021 03:26:54.066    9 Sep 2021 03:49:31.686          1357.620

Min Duration           1    8 Sep 2021 04:00:00.000    8 Sep 2021 04:11:18.796           678.796
Max Duration           2    8 Sep 2021 04:41:12.765    8 Sep 2021 05:03:50.384          1357.620
Mean Duration                                                                           1333.376
Total Duration                                                                         37334.526


Satellite710-To-Satellite307
----------------------------
                  Access       Start Time (UTCG)           Stop Time (UTCG)       Duration (sec)
                  ------    -----------------------    -----------------------    --------------
                       1    8 Sep 2021 04:00:00.000    8 Sep 2021 04:04:06.592           246.592
                       2    8 Sep 2021 04:37:54.654    8 Sep 2021 04:56:38.178          1123.524
                       3    8 Sep 2021 05:30:26.247    8 Sep 2021 05:49:09.765          1123.518
                       4    8 Sep 2021 06:22:57.836    8 Sep 2021 06:41:41.352          1123.517
                       5    8 Sep 2021 07:15:29.424    8 Sep 2021 07:34:12.943          1123.518
                       6    8 Sep 2021 08:08:01.012    8 Sep 2021 08:26:44.534          1123.522
                       7    8 Sep 2021 09:00:32.596    8 Sep 2021 09:19:16.120          1123.524
                       8    8 Sep 2021 09:53:04.189    8 Sep 2021 10:11:47.707          1123.518
                       9    8 Sep 2021 10:45:35.778    8 Sep 2021 11:04:19.294          1123.517
                      10    8 Sep 2021 11:38:07.364    8 Sep 2021 11:56:50.885          1123.521
                      11    8 Sep 2021 12:30:38.950    8 Sep 2021 12:49:22.476          1123.526
                      12    8 Sep 2021 13:23:10.538    8 Sep 2021 13:41:54.062          1123.524
                      13    8 Sep 2021 14:15:42.131    8 Sep 2021 14:34:25.649          1123.518
                      14    8 Sep 2021 15:08:13.720    8 Sep 2021 15:26:57.236          1123.517
                      15    8 Sep 2021 16:00:45.306    8 Sep 2021 16:19:28.827          1123.521
                      16    8 Sep 2021 16:53:16.892    8 Sep 2021 17:12:00.418          1123.526
                      17    8 Sep 2021 17:45:48.480    8 Sep 2021 18:04:32.004          1123.524
                      18    8 Sep 2021 18:38:20.073    8 Sep 2021 18:57:03.591          1123.518
                      19    8 Sep 2021 19:30:51.662    8 Sep 2021 19:49:35.178          1123.517
                      20    8 Sep 2021 20:23:23.248    8 Sep 2021 20:42:06.768          1123.521
                      21    8 Sep 2021 21:15:54.834    8 Sep 2021 21:34:38.360          1123.526
                      22    8 Sep 2021 22:08:26.422    8 Sep 2021 22:27:09.946          1123.524
                      23    8 Sep 2021 23:00:58.015    8 Sep 2021 23:19:41.533          1123.518
                      24    8 Sep 2021 23:53:29.604    9 Sep 2021 00:12:13.120          1123.517
                      25    9 Sep 2021 00:46:01.190    9 Sep 2021 01:04:44.710          1123.521
                      26    9 Sep 2021 01:38:32.776    9 Sep 2021 01:57:16.302          1123.526
                      27    9 Sep 2021 02:31:04.364    9 Sep 2021 02:49:47.888          1123.524
                      28    9 Sep 2021 03:23:35.957    9 Sep 2021 03:42:19.475          1123.518

Min Duration           1    8 Sep 2021 04:00:00.000    8 Sep 2021 04:04:06.592           246.592
Max Duration          11    8 Sep 2021 12:30:38.950    8 Sep 2021 12:49:22.476          1123.526
Mean Duration                                                                           1092.202
Total Duration                                                                         30581.653


Satellite710-To-Satellite308
----------------------------
                  Access       Start Time (UTCG)           Stop Time (UTCG)       Duration (sec)
                  ------    -----------------------    -----------------------    --------------
                       1    8 Sep 2021 04:36:30.596    8 Sep 2021 04:47:31.923           661.327
                       2    8 Sep 2021 05:29:02.184    8 Sep 2021 05:40:03.509           661.325
                       3    8 Sep 2021 06:21:33.772    8 Sep 2021 06:32:35.101           661.330
                       4    8 Sep 2021 07:14:05.359    8 Sep 2021 07:25:06.690           661.331
                       5    8 Sep 2021 08:06:36.946    8 Sep 2021 08:17:38.278           661.332
                       6    8 Sep 2021 08:59:08.534    8 Sep 2021 09:10:09.866           661.332
                       7    8 Sep 2021 09:51:40.122    8 Sep 2021 10:02:41.454           661.332
                       8    8 Sep 2021 10:44:11.714    8 Sep 2021 10:55:13.042           661.327
                       9    8 Sep 2021 11:36:43.303    8 Sep 2021 11:47:44.630           661.327
                      10    8 Sep 2021 12:29:14.891    8 Sep 2021 12:40:16.216           661.325
                      11    8 Sep 2021 13:21:46.479    8 Sep 2021 13:32:47.806           661.327
                      12    8 Sep 2021 14:14:18.066    8 Sep 2021 14:25:19.398           661.331
                      13    8 Sep 2021 15:06:49.654    8 Sep 2021 15:17:50.986           661.332
                      14    8 Sep 2021 15:59:21.241    8 Sep 2021 16:10:22.573           661.332
                      15    8 Sep 2021 16:51:52.829    8 Sep 2021 17:02:54.161           661.332
                      16    8 Sep 2021 17:44:24.420    8 Sep 2021 17:55:25.749           661.329
                      17    8 Sep 2021 18:36:56.010    8 Sep 2021 18:47:57.337           661.327
                      18    8 Sep 2021 19:29:27.598    8 Sep 2021 19:40:28.925           661.326
                      19    8 Sep 2021 20:21:59.186    8 Sep 2021 20:33:00.512           661.325
                      20    8 Sep 2021 21:14:30.774    8 Sep 2021 21:25:32.105           661.331
                      21    8 Sep 2021 22:07:02.361    8 Sep 2021 22:18:03.693           661.332
                      22    8 Sep 2021 22:59:33.948    8 Sep 2021 23:10:35.281           661.332
                      23    8 Sep 2021 23:52:05.536    9 Sep 2021 00:03:06.868           661.332
                      24    9 Sep 2021 00:44:37.129    9 Sep 2021 00:55:38.456           661.327
                      25    9 Sep 2021 01:37:08.718    9 Sep 2021 01:48:10.044           661.327
                      26    9 Sep 2021 02:29:40.306    9 Sep 2021 02:40:41.632           661.327
                      27    9 Sep 2021 03:22:11.894    9 Sep 2021 03:33:13.219           661.325

Min Duration          10    8 Sep 2021 12:29:14.891    8 Sep 2021 12:40:16.216           661.325
Max Duration          14    8 Sep 2021 15:59:21.241    8 Sep 2021 16:10:22.573           661.332
Mean Duration                                                                            661.329
Total Duration                                                                         17855.882


Satellite710-To-Satellite401
----------------------------
                  Access       Start Time (UTCG)           Stop Time (UTCG)       Duration (sec)
                  ------    -----------------------    -----------------------    --------------
                       1    8 Sep 2021 04:22:05.618    8 Sep 2021 04:29:07.154           421.536
                       2    8 Sep 2021 05:14:37.211    8 Sep 2021 05:21:38.743           421.532
                       3    8 Sep 2021 06:07:08.795    8 Sep 2021 06:14:10.332           421.537
                       4    8 Sep 2021 06:59:40.387    8 Sep 2021 07:06:41.920           421.533
                       5    8 Sep 2021 07:52:11.972    8 Sep 2021 07:59:13.509           421.537
                       6    8 Sep 2021 08:44:43.563    8 Sep 2021 08:51:45.097           421.534
                       7    8 Sep 2021 09:37:15.149    8 Sep 2021 09:44:16.686           421.537
                       8    8 Sep 2021 10:29:46.739    8 Sep 2021 10:36:48.274           421.535
                       9    8 Sep 2021 11:22:18.326    8 Sep 2021 11:29:19.863           421.536
                      10    8 Sep 2021 12:14:49.915    8 Sep 2021 12:21:51.451           421.536
                      11    8 Sep 2021 13:07:21.505    8 Sep 2021 13:14:23.039           421.534
                      12    8 Sep 2021 13:59:53.091    8 Sep 2021 14:06:54.628           421.537
                      13    8 Sep 2021 14:52:24.682    8 Sep 2021 14:59:26.216           421.534
                      14    8 Sep 2021 15:44:56.268    8 Sep 2021 15:51:57.805           421.537
                      15    8 Sep 2021 16:37:27.858    8 Sep 2021 16:44:29.393           421.534
                      16    8 Sep 2021 17:29:59.444    8 Sep 2021 17:37:00.980           421.535
                      17    8 Sep 2021 18:22:31.037    8 Sep 2021 18:29:32.569           421.532
                      18    8 Sep 2021 19:15:02.621    8 Sep 2021 19:22:04.158           421.537
                      19    8 Sep 2021 20:07:34.213    8 Sep 2021 20:14:35.746           421.533
                      20    8 Sep 2021 21:00:05.798    8 Sep 2021 21:07:07.335           421.537
                      21    8 Sep 2021 21:52:37.389    8 Sep 2021 21:59:38.923           421.534
                      22    8 Sep 2021 22:45:08.975    8 Sep 2021 22:52:10.512           421.537
                      23    8 Sep 2021 23:37:40.565    8 Sep 2021 23:44:42.100           421.535
                      24    9 Sep 2021 00:30:12.152    9 Sep 2021 00:37:13.688           421.536
                      25    9 Sep 2021 01:22:43.741    9 Sep 2021 01:29:45.277           421.536
                      26    9 Sep 2021 02:15:15.331    9 Sep 2021 02:22:16.865           421.534
                      27    9 Sep 2021 03:07:46.917    9 Sep 2021 03:14:48.454           421.537

Min Duration           2    8 Sep 2021 05:14:37.211    8 Sep 2021 05:21:38.743           421.532
Max Duration           3    8 Sep 2021 06:07:08.795    8 Sep 2021 06:14:10.332           421.537
Mean Duration                                                                            421.535
Total Duration                                                                         11381.452


